     3.03           OBSERVATION DATA    M: Mixed            RINEX VERSION / TYPE
CONVBIN 2.4.3 Emlid                     20170822 115642 UTC PGM / RUN BY / DATE 
log: ../../../r.UBX                                         COMMENT             
format: u-blox                                              COMMENT             
                                                            MARKER NAME         
                                                            MARKER NUMBER       
                                                            MARKER TYPE         
                                                            OBSERVER / AGENCY   
                                                            REC # / TYPE / VERS 
                                                            ANT # / TYPE        
  2774444.8042  1653826.7398  5481446.6685                  APPROX POSITION XYZ 
        0.0000        0.0000        0.0000                  ANTENNA: DELTA H/E/N
G    4 C1C L1C D1C S1C                                      SYS / # / OBS TYPES 
R    4 C1C L1C D1C S1C                                      SYS / # / OBS TYPES 
E    4 C1C L1C D1C S1C                                      SYS / # / OBS TYPES 
J    4 C1C L1C D1C S1C                                      SYS / # / OBS TYPES 
S    4 C1C L1C D1C S1C                                      SYS / # / OBS TYPES 
C    4 C1I L1I D1I S1I                                      SYS / # / OBS TYPES 
  2017     7    23    10    35   17.7910000     GPS         TIME OF FIRST OBS   
  2017     7    23    10    45   29.5910000     GPS         TIME OF LAST OBS    
G                                                           SYS / PHASE SHIFT   
R                                                           SYS / PHASE SHIFT   
E                                                           SYS / PHASE SHIFT   
J                                                           SYS / PHASE SHIFT   
S                                                           SYS / PHASE SHIFT   
C                                                           SYS / PHASE SHIFT   
  0                                                         GLONASS SLOT / FRQ #
 C1C    0.000 C1P    0.000 C2C    0.000 C2P    0.000        GLONASS COD/PHS/BIS 
                                                            END OF HEADER       
> 2017  7 23 10 35 17.7910000  0 16                     
G 2  20768332.527 1 109138317.541 1     -3037.048          43.000  
G21  20527070.709 1 107870521.836 1      2695.852          44.000  
G26  19532459.185 1 102643773.942 1      2275.668          47.000  
G29  17436130.312 1  91627480.090 1      -850.801          52.000  
G31  20290066.975 1 106625016.191 1     -2636.994          46.000  
G 5  19610386.236 1 103053268.384 1       812.694          47.000  
G 9  21843034.451 2 114785946.470 1      -279.146          37.000  
G23  22514125.081 4 118312540.77023     -1484.927          29.000  
E26  19371371.801 1 101797235.270 1      1564.284          46.000  
E 1  21517200.134 1 113073639.035 1      -818.815          45.000  
E 5  25251120.436 2 132695515.133 1     -1824.225          34.000  
G25  20211979.271 1 106214674.782 1     -3669.157          45.000  
G20  20474369.420 1 107593542.501 1      3059.560          41.000  
E 3  24219708.128 1 127275400.839 1       593.714          40.000  
E 8  23060943.479 2 121186080.946 2      2557.893          33.000  
G16  21435261.901 1 112643031.644 1      3446.390          39.000  
> 2017  7 23 10 35 17.9910000  0 16                     
G 2  20768448.038 1 109138925.007 1     -3037.317          43.000  
G21  20526968.274 1 107869982.637 1      2696.102          44.000  
G26  19532372.559 1 102643318.832 1      2275.625          47.000  
G29  17436162.769 1  91627650.272 1      -850.898          52.000  
G31  20290167.299 1 106625543.606 1     -2637.182          46.000  
G 5  19610355.262 1 103053105.888 1       812.512          47.000  
G 9  21843045.190 1 114786002.259 1      -279.122          37.000  
G23  22514181.445 4 118312837.81023     -1485.318          29.000  
E26  19371311.991 1 101796922.426 1      1564.196          46.000  
E 1  21517231.189 1 113073802.808 1      -818.798          45.000  
E 5  25251189.801 2 132695879.973 1     -1824.321          34.000  
G25  20212118.927 1 106215408.601 1     -3669.023          45.000  
G20  20474252.909 1 107592930.540 1      3059.951          41.000  
E 3  24219685.428 1 127275282.125 1       593.633          40.000  
E 8  23060846.203 2 121185569.246 2      2558.532          34.000  
G16  21435130.669 1 112642342.377 1      3446.294          39.000  
> 2017  7 23 10 35 18.1910000  0 16                     
G 2  20768563.657 1 109139532.456 1     -3037.249          43.000  
G21  20526865.721 1 107869443.447 1      2695.890          44.000  
G26  19532285.943 1 102642863.733 1      2275.460          47.000  
G29  17436195.192 1  91627820.469 1      -850.970          52.000  
G31  20290267.803 1 106626071.028 1     -2637.209          46.000  
G 5  19610324.342 1 103052943.401 1       812.415          47.000  
G 9  21843055.723 1 114786058.084 1      -279.171          38.000  
G23  22514239.759 4 118313134.89423     -1485.426          29.000  
E26  19371252.544 1 101796609.574 1      1564.306          46.000  
E 1  21517262.553 1 113073966.612 1      -819.094          45.000  
E 5  25251259.107 2 132696244.860 1     -1824.734          34.000  
G25  20212258.642 1 106216142.433 1     -3669.097          45.000  
G20  20474136.282 1 107592318.623 1      3059.618          40.000  
E 3  24219663.100 1 127275163.438 1       593.292          40.000  
E 8  23060748.949 2 121185057.575 2      2558.024          34.000  
G16  21434999.578 1 112641653.100 1      3446.253          39.000  
> 2017  7 23 10 35 18.3910000  0 16                     
G 2  20768679.326 1 109140139.891 1     -3037.430          43.000  
G21  20526763.175 1 107868904.240 1      2695.894          44.000  
G26  19532199.471 1 102642408.619 1      2275.511          47.000  
G29  17436227.782 1  91627990.652 1      -851.017          52.000  
G31  20290368.114 1 106626598.434 1     -2637.096          46.000  
G 5  19610293.584 1 103052780.904 1       812.460          47.000  
G 9  21843066.263 1 114786113.897 1      -279.204          38.000  
G23  22514294.915 4 118313431.88123     -1484.865          29.000  
E26  19371193.096 1 101796296.717 1      1564.269          46.000  
E 1  21517293.375 1 113074130.396 1      -819.005          45.000  
E 5  25251328.541 2 132696609.684 1     -1824.266          34.000  
G25  20212398.294 1 106216876.258 1     -3669.187          45.000  
G20  20474019.887 1 107591706.666 1      3059.895          41.000  
E 3  24219640.347 1 127275044.724 1       593.605          39.000  
E 8  23060651.651 2 121184545.835 2      2558.715          34.000  
G16  21434868.521 1 112640963.817 1      3446.215          39.000  
> 2017  7 23 10 35 18.5910000  0 16                     
G 2  20768794.894 1 109140747.337 1     -3037.367          43.000  
G21  20526660.677 1 107868365.044 1      2696.171          44.000  
G26  19532112.983 1 102641953.543 1      2275.454          47.000  
G29  17436260.148 1  91628160.860 1      -850.813          52.000  
G31  20290468.614 1 106627125.878 1     -2637.189          46.000  
G 5  19610262.684 1 103052618.438 1       812.417          47.000  
G 9  21843077.073 1 114786169.749 1      -279.430          38.000  
G23  22514347.076 4 118313729.00523     -1485.845          28.000  
E26  19371133.473 1 101795983.875 1      1564.218          46.000  
E 1  21517324.447 1 113074294.201 1      -819.018          45.000  
E 5  25251398.141 2 132696974.563 1     -1824.206          34.000  
G25  20212537.876 1 106217610.072 1     -3669.000          45.000  
G20  20473903.211 1 107591094.748 1      3059.632          40.000  
E 3  24219617.856 1 127274926.049 1       593.404          39.000  
E 8  23060554.407 2 121184034.199 1      2558.033          34.000  
G16  21434737.400 1 112640274.532 1      3446.772          39.000  
> 2017  7 23 10 35 18.7910000  0 16                     
G 2  20768910.502 1 109141354.767 1     -3037.140          43.000  
G21  20526558.054 1 107867825.822 1      2696.062          44.000  
G26  19532026.356 1 102641498.450 1      2275.367          47.000  
G29  17436292.409 1  91628331.065 1      -851.038          52.000  
G31  20290569.096 1 106627653.304 1     -2637.127          46.000  
G 5  19610231.843 1 103052455.980 1       812.279          47.000  
G 9  21843087.637 1 114786225.568 1      -279.215          38.000  
G23  22514402.485 4 118314026.12823     -1485.651          28.000  
E26  19371073.821 1 101795670.992 1      1564.412          46.000  
E 1  21517355.462 1 113074458.008 1      -819.032          45.000  
E 5  25251467.375 2 132697339.406 1     -1824.035          34.000  
G25  20212677.445 1 106218343.884 1     -3668.935          45.000  
G20  20473786.794 1 107590482.808 1      3059.524          40.000  
E 3  24219595.295 1 127274807.344 1       593.464          39.000  
E 8  23060457.033 2 121183522.463 1      2558.311          33.000  
G16  21434606.373 1 112639585.250 1      3446.681          39.000  
> 2017  7 23 10 35 18.9910000  0 16                     
G 2  20769025.928 1 109141962.156 1     -3037.303          42.000  
G21  20526455.460 1 107867286.590 1      2696.122          44.000  
G26  19531939.855 1 102641043.327 1      2275.581          47.000  
G29  17436324.703 1  91628501.241 1      -850.993          52.000  
G31  20290669.433 1 106628180.706 1     -2637.103          45.000  
G 5  19610200.880 1 103052293.510 1       812.301          47.000  
G 9  21843098.123 1 114786281.363 1      -278.739          38.000  
G23  22514457.922 4 118314323.13323     -1484.654          28.000  
E26  19371013.989 1 101795358.101 1      1564.440          45.000  
E 1  21517386.524 1 113074621.774 1      -818.841          45.000  
E 5  25251536.794 2 132697704.245 1     -1824.430          34.000  
G25  20212817.053 1 106219077.662 1     -3668.897          45.000  
G20  20473670.237 1 107589870.830 1      3059.510          40.000  
E 3  24219572.806 1 127274688.625 1       593.578          39.000  
E 8  23060359.776 4 121183010.699 2      2558.802          33.000  
G16  21434475.134 1 112638895.938 1      3446.382          38.000  
> 2017  7 23 10 35 19.1910000  0 16                     
G 2  20769141.449 1 109142569.584 1     -3037.017          42.000  
G21  20526352.759 1 107866747.391 1      2695.901          44.000  
G26  19531853.176 1 102640588.243 1      2275.504          47.000  
G29  17436357.169 1  91628671.467 1      -851.192          52.000  
G31  20290769.818 1 106628708.137 1     -2637.109          45.000  
G 5  19610170.012 1 103052131.087 1       812.132          47.000  
G 9  21843108.656 1 114786337.261 1      -279.421          38.000  
G23  22514514.177 4 118314620.15423     -1484.886          28.000  
E26  19370954.501 1 101795045.245 1      1564.244          45.000  
E 1  21517417.692 1 113074785.603 1      -819.195          45.000  
E 5  25251606.150 2 132698069.087 1     -1823.910          34.000  
G25  20212956.651 1 106219811.471 1     -3668.994          45.000  
G20  20473553.901 1 107589258.870 1      3059.857          40.000  
E 3  24219549.975 1 127274569.962 1       593.169          39.000  
E 8  23060262.380 2 121182498.978 2      2558.693          33.000  
G16  21434343.841 1 112638206.616 1      3446.943          38.000  
> 2017  7 23 10 35 19.3910000  0 16                     
G 2  20769257.172 1 109143177.039 1     -3037.219          42.000  
G21  20526250.182 1 107866208.212 1      2695.773          44.000  
G26  19531766.424 1 102640133.206 1      2275.032          47.000  
G29  17436389.598 1  91628841.719 1      -851.333          52.000  
G31  20290870.087 1 106629235.613 1     -2637.398          45.000  
G 5  19610139.047 1 103051968.703 1       811.823          47.000  
G 9  21843119.362 1 114786393.153 1      -279.503          38.000  
G23  22514574.594 4 118314917.33724     -1485.863          27.000  
E26  19370894.989 1 101794732.406 1      1564.288          45.000  
E 1  21517448.993 1 113074949.453 1      -819.275          45.000  
E 5  25251675.901 2 132698434.015 1     -1824.553          34.000  
G25  20213096.353 1 106220545.303 1     -3669.281          45.000  
G20  20473437.331 1 107588646.980 1      3059.479          40.000  
E 3  24219527.547 1 127274451.321 1       593.109          39.000  
E 8  23060165.088 2 121181987.279 2      2558.526          33.000  
G16  21434212.550 1 112637517.336 1      3446.262          38.000  
> 2017  7 23 10 35 19.5910000  0 16                     
G 2  20769372.780 1 109143784.495 1     -3037.158          42.000  
G21  20526147.514 1 107865669.040 1      2695.835          44.000  
G26  19531679.915 1 102639678.166 1      2275.159          47.000  
G29  17436421.914 1  91629011.999 1      -851.400          52.000  
G31  20290970.355 1 106629763.118 1     -2637.514          45.000  
G 5  19610108.114 1 103051806.356 1       811.722          47.000  
G 9  21843130.094 1 114786449.075 1      -279.664          39.000  
G23  22514632.232 8 118315214.56124     -1486.187          27.000  
E26  19370835.567 1 101794419.595 1      1564.047          45.000  
E 1  21517480.000 1 113075113.330 1      -819.457          45.000  
E 5  25251745.599 2 132698798.956 1     -1824.581          34.000  
G25  20213236.068 1 106221279.155 1     -3669.211          45.000  
G20  20473320.888 1 107588035.076 1      3059.520          40.000  
E 3  24219505.104 1 127274332.722 1       592.918          39.000  
E 8  23060067.847 2 121181475.602 2      2558.620          33.000  
G16  21434081.328 1 112636828.053 1      3446.490          38.000  
> 2017  7 23 10 35 19.7910000  0 16                     
G 2  20769488.420 1 109144391.970 1     -3037.212          42.000  
G21  20526045.109 1 107865129.877 1      2696.012          44.000  
G26  19531593.292 1 102639223.157 1      2275.222          47.000  
G29  17436454.384 1  91629182.305 1      -851.346          52.000  
G31  20291070.731 1 106630290.641 1     -2637.435          45.000  
G 5  19610077.179 1 103051644.044 1       811.578          47.000  
G 9  21843140.725 1 114786505.031 1      -279.481          40.000  
G23  22514689.166 8 118315511.99924     -1487.905          27.000  
E26  19370776.131 1 101794106.786 1      1564.174          45.000  
E 1  21517511.197 1 113075277.233 1      -819.341          45.000  
E 5  25251814.916 2 132699163.867 1     -1824.603          34.000  
G25  20213375.846 1 106222013.030 1     -3669.170          45.000  
G20  20473204.443 1 107587423.203 1      3059.413          40.000  
E 3  24219482.392 1 127274214.118 1       592.854          39.000  
E 8  23059970.416 2 121180963.890 2      2558.510          33.000  
G16  21433950.072 1 112636138.801 1      3446.240          38.000  
> 2017  7 23 10 35 19.9910000  0 16                     
G 2  20769603.989 1 109144999.434 1     -3037.256          42.000  
G21  20525942.519 1 107864590.704 1      2695.812          44.000  
G26  19531506.756 1 102638768.165 1      2274.927          47.000  
G29  17436486.833 1  91629352.610 1      -851.538          52.000  
G31  20291171.240 1 106630818.156 1     -2637.464          45.000  
G 5  19610046.343 1 103051481.722 1       811.385          47.000  
G 9  21843151.304 1 114786561.021 1      -279.783          40.000  
G23  22514748.608 9                     -1482.921          26.000  
E26  19370716.611 1 101793793.969 1      1564.130          45.000  
E 1  21517542.326 1 113075441.132 1      -819.637          45.000  
E 5  25251884.394 2 132699528.794 1     -1824.789          34.000  
G25  20213515.374 1 106222746.883 1     -3669.369          45.000  
G20  20473088.046 1 107586811.307 1      3059.450          40.000  
E 3  24219460.178 1 127274095.531 1       592.857          39.000  
E 8  23059873.011 2 121180452.227 1      2558.867          33.000  
G16  21433818.903 1 112635449.514 1      3446.542          38.000  
> 2017  7 23 10 35 20.1910000  0 16                     
G 2  20769719.780 1 109145606.889 1     -3037.349          42.000  
G21  20525839.980 1 107864051.537 1      2695.762          44.000  
G26  19531420.233 1 102638313.142 1      2274.895          47.000  
G29  17436519.203 1  91629522.908 1      -851.640          52.000  
G31  20291271.716 1 106631345.651 1     -2637.674          45.000  
G 5  19610015.273 1 103051319.395 1       811.439          47.000  
G 9  21843162.039 1 114786616.985 1      -279.875          38.000  
G23  22514808.702 9                     -1484.807          25.000  
E26  19370657.263 1 101793481.147 1      1563.950          45.000  
E 1  21517573.623 1 113075605.011 1      -819.491          45.000  
E 5  25251953.885 2 132699893.709 1     -1824.915          34.000  
G25  20213654.978 1 106223480.724 1     -3669.220          45.000  
G20  20472971.504 1 107586199.398 1      3059.365          40.000  
E 3  24219437.543 1 127273976.915 1       592.833          39.000  
E 8  23059775.488 2 121179940.515 1      2558.469          33.000  
G16  21433687.880 1 112634760.228 1      3446.530          38.000  
> 2017  7 23 10 35 20.3910000  0 16                     
G 2  20769835.442 1 109146214.348 1     -3037.385          42.000  
G21  20525737.484 1 107863512.365 1      2695.911          44.000  
G26  19531333.512 1 102637858.121 1      2275.272          47.000  
G29  17436551.717 1  91629693.221 1      -851.518          52.000  
G31  20291372.147 1 106631873.156 1     -2637.447          45.000  
G 5  19609984.351 1 103051157.107 1       811.535          47.000  
G 9  21843172.742 1 114786672.987 1      -279.626          38.000  
G23  22514868.277 9                     -1489.207          25.000  
E26  19370597.657 1 101793168.321 1      1564.133          45.000  
E 1  21517604.878 1 113075768.929 1      -819.572          45.000  
E 5  25252023.435 2 132700258.657 1     -1824.811          34.000  
G25  20213794.641 1 106224214.583 1     -3669.198          45.000  
G20  20472855.050 1 107585587.494 1      3059.708          40.000  
E 3  24219415.259 1 127273858.332 1       592.786          39.000  
E 8  23059678.138 2 121179428.812 2      2558.235          33.000  
G16  21433556.640 1 112634070.937 1      3446.556          38.000  
> 2017  7 23 10 35 20.5910000  0 16                     
G 2  20769951.034 1 109146821.811 1     -3037.397          42.000  
G21  20525635.007 1 107862973.197 1      2695.879          44.000  
G26  19531246.924 1 102637403.147 1      2274.657          47.000  
G29  17436584.247 1  91629863.554 1      -851.831          52.000  
G31  20291472.549 1 106632400.705 1     -2638.107          45.000  
G 5  19609953.555 1 103050994.828 1       811.182          47.000  
G 9  21843183.378 1 114786729.006 1      -280.444          38.000  
G23  22514930.062 9                     -1482.836          25.000  
E26  19370538.084 1 101792855.508 1      1564.017          45.000  
E 1  21517636.313 1 113075932.844 1      -819.708          45.000  
E 5  25252092.845 2 132700623.599 1     -1824.852          34.000  
G25  20213934.319 1 106224948.431 1     -3669.386          45.000  
G20  20472738.666 1 107584975.602 1      3059.271          40.000  
E 3  24219392.777 1 127273739.757 1       592.780          39.000  
E 8  23059580.720 2 121178917.091 2      2559.025          33.000  
G16  21433425.362 1 112633381.649 1      3446.200          38.000  
> 2017  7 23 10 35 20.7910000  0 16                     
G 2  20770066.644 1 109147429.309 1     -3037.662          42.000  
G21  20525532.439 1 107862434.050 1      2695.745          44.000  
G26  19531160.245 1 102636948.187 1      2274.768          47.000  
G29  17436616.767 1  91630033.923 1      -851.832          52.000  
G31  20291572.949 1 106632928.276 1     -2637.893          45.000  
G 5  19609922.584 1 103050832.594 1       811.090          47.000  
G 9  21843193.938 1 114786785.052 1      -280.215          38.000  
G23  22514986.742 9                     -1491.512          25.000  
E26  19370478.326 1 101792542.731 1      1563.746          45.000  
E 1  21517667.717 1 113076096.807 1      -819.802          45.000  
E 5  25252162.232 2 132700988.559 1     -1824.827          34.000  
G25  20214073.785 1 106225682.320 1     -3669.423          45.000  
G20  20472622.230 1 107584363.742 1      3059.177          40.000  
E 3  24219370.083 1 127273621.221 1       592.385          39.000  
E 8  23059483.241 2 121178405.449 2      2557.694          33.000  
G16  21433294.118 1 112632692.405 1      3446.102          38.000  
> 2017  7 23 10 35 20.9910000  0 16                     
G 2  20770182.130 1 109148036.799 1     -3037.685          42.000  
G21  20525429.836 1 107861894.914 1      2695.448          44.000  
G26  19531073.740 1 102636493.251 1      2274.649          47.000  
G29  17436649.284 1  91630204.301 1      -852.099          52.000  
G31  20291673.276 1 106633455.854 1     -2638.000          44.000  
G 5  19609891.784 1 103050670.378 1       810.854          47.000  
G 9  21843204.706 1 114786841.121 1      -280.415          38.000  
G23  22515045.482 9                     -1485.044          25.000  
E26  19370418.727 1 101792229.936 1      1563.808          45.000  
E 1  21517698.686 1 113076260.773 1      -819.983          45.000  
E 5  25252231.640 2 132701353.529 1     -1824.943          34.000  
G25  20214213.437 1 106226416.205 1     -3669.498          45.000  
G20  20472505.765 1 107583751.876 1      3058.981          40.000  
E 3  24219347.428 1 127273502.690 1       592.585          39.000  
E 8  23059385.916 2 121177893.725 2      2558.323          32.000  
G16  21433162.878 1 112632003.155 1      3445.542          38.000  
> 2017  7 23 10 35 21.1910000  0 16                     
G 2  20770297.953 1 109148644.285 1     -3037.545          42.000  
G21  20525327.238 1 107861355.791 1      2695.459          44.000  
G26  19530987.213 1 102636038.310 1      2274.670          47.000  
G29  17436681.761 1  91630374.693 1      -851.993          52.000  
G31  20291773.480 1 106633983.428 1     -2638.104          45.000  
G 5  19609861.045 1 103050508.198 1       810.734          47.000  
G 9  21843215.410 1 114786897.213 1      -280.275          39.000  
G23  22515101.645 9               7     -1486.593          26.000  
E26  19370359.270 1 101791917.165 1      1563.857          45.000  
E 1  21517729.813 1 113076424.766 1      -819.825          45.000  
E 5  25252301.210 2 132701718.553 1     -1824.978          34.000  
G25  20214353.109 1 106227150.108 1     -3669.497          45.000  
G20  20472389.435 1 107583140.030 1      3059.207          40.000  
E 3  24219325.005 1 127273384.193 1       591.906          39.000  
E 8  23059288.293 2 121177382.050 2      2558.559          32.000  
G16  21433031.909 1 112631313.879 1      3446.185          36.000  
> 2017  7 23 10 35 21.3910000  0 16                     
G 2  20770413.456 1 109149251.762 1     -3037.262          42.000  
G21  20525224.742 1 107860816.643 1      2695.905          44.000  
G26  19530900.597 1 102635583.396 1      2274.770          47.000  
G29  17436714.052 1  91630545.092 1      -851.743          52.000  
G31  20291873.906 1 106634511.016 1     -2637.645          45.000  
G 5  19609829.988 1 103050346.013 1       811.179          47.000  
G 9  21843226.046 1 114786953.327 1      -280.199          39.000  
G23  22515158.263 9               6     -1486.197          26.000  
E26  19370299.810 1 101791604.389 1      1564.081          45.000  
E 1  21517761.086 1 113076588.761 1      -819.852          45.000  
E 5  25252370.485 2 132702083.544 1     -1824.811          34.000  
G25  20214492.756 1 106227883.996 1     -3669.000          45.000  
G20  20472272.905 1 107582528.176 1      3059.412          40.000  
E 3  24219302.367 1 127273265.648 1       592.732          39.000  
E 8  23059190.878 4 121176870.376 2      2558.717          32.000  
G16  21432900.631 2 112630624.615 1      3446.297          36.000  
> 2017  7 23 10 35 21.5910000  0 16                     
G 2  20770529.199 1 109149859.272 1     -3037.457          42.000  
G21  20525122.130 1 107860277.534 1      2695.293          44.000  
G26  19530813.974 1 102635128.499 1      2274.627          46.000  
G29  17436746.361 1  91630715.521 1      -852.119          52.000  
G31  20291974.395 1 106635038.642 1     -2638.206          45.000  
G 5  19609799.180 1 103050183.878 1       810.691          47.000  
G 9  21843236.725 1 114787009.461 1      -280.577          40.000  
G23  22515213.218 9 118318251.83435     -1486.985          27.000  
E26  19370240.464 1 101791291.634 1      1563.624          46.000  
E 1  21517792.115 1 113076752.766 1      -820.102          45.000  
E 5  25252440.242 2 132702448.566 1     -1825.650          34.000  
G25  20214632.273 1 106228617.907 1     -3669.773          45.000  
G20  20472156.392 1 107581916.355 1      3058.954          40.000  
E 3  24219279.638 1 127273147.162 1       592.479          39.000  
E 8  23059093.658 4 121176358.751 2      2557.316          32.000  
G16  21432769.179 2 112629935.336 1      3446.327          35.000  
> 2017  7 23 10 35 21.7910000  0 16                     
G 2  20770644.883 1 109150466.785 1     -3037.665          42.000  
G21  20525019.518 1 107859738.407 1      2695.473          44.000  
G26  19530727.412 1 102634673.595 1      2274.508          46.000  
G29  17436778.742 1  91630885.970 1      -852.291          52.000  
G31  20292074.948 1 106635566.290 1     -2638.309          45.000  
G 5  19609768.372 1 103050021.762 1       810.389          47.000  
G 9  21843247.285 1 114787065.624 1      -281.005          39.000  
G23  22515268.733 9 118318549.00425     -1485.677          27.000  
E26  19370181.072 1 101790978.872 1      1563.887          45.000  
E 1  21517823.388 1 113076916.800 1      -820.042          45.000  
E 5  25252509.668 2 132702813.572 1     -1825.243          34.000  
G25  20214771.984 1 106229351.826 1     -3669.675          45.000  
G20  20472039.918 1 107581304.556 1      3058.422          40.000  
E 3  24219257.014 1 127273028.704 1       592.160          39.000  
E 8  23058996.192 4 121175847.022 2      2558.224          32.000  
G16  21432637.875 2 112629246.079 1      3446.447          35.000  
> 2017  7 23 10 35 21.9910000  0 16                     
G 2  20770760.567 1 109151074.304 1     -3037.654          41.000  
G21  20524917.042 1 107859199.318 1      2695.521          44.000  
G26  19530640.691 1 102634218.722 1      2274.295          46.000  
G29  17436811.263 1  91631056.446 1      -852.345          52.000  
G31  20292175.448 1 106636093.970 1     -2638.500          45.000  
G 5  19609737.605 1 103049859.675 1       810.360          47.000  
G 9  21843258.069 1 114787121.820 1      -280.981          38.000  
G23  22515324.568 9 118318846.36625     -1486.964          26.000  
E26  19370121.585 1 101790666.148 1      1563.575          45.000  
E 1  21517854.733 1 113077080.868 1      -820.270          45.000  
E 5  25252578.985 2 132703178.614 1     -1825.045          34.000  
G25  20214911.723 1 106230085.762 1     -3669.699          45.000  
G20  20471923.405 1 107580692.722 1      3059.053          40.000  
E 3  24219234.290 1 127272910.262 1       592.286          39.000  
E 8  23058899.055 4 121175335.418 2      2558.123          32.000  
G16  21432506.869 2 112628556.864 1      3446.331          36.000  
> 2017  7 23 10 35 22.1910000  0 16                     
G 2  20770876.020 1 109151681.856 1     -3037.639          41.000  
G21  20524814.417 1 107858660.239 1      2695.284          44.000  
G26  19530554.375 1 102633763.873 1      2274.459          47.000  
G29  17436843.895 1  91631226.944 1      -852.397          51.000  
G31  20292275.697 1 106636621.645 1     -2638.273          44.000  
G 5  19609706.785 1 103049697.623 1       810.425          47.000  
G 9  21843268.609 2 114787178.045 1      -280.996          38.000  
G23  22515381.887 9 118319143.74525     -1487.023          26.000  
E26  19370061.973 1 101790353.424 1      1563.643          45.000  
E 1  21517885.816 1 113077244.957 1      -820.384          44.000  
E 5  25252648.421 2 132703543.704 1     -1825.325          34.000  
G25  20215051.255 1 106230819.713 1     -3669.783          45.000  
G20  20471806.705 1 107580080.947 1      3059.029          40.000  
E 3  24219211.870 1 127272791.866 1       591.928          39.000  
E 8  23058801.805 4 121174823.781 2      2558.038          32.000  
G16  21432375.744 2 112627867.638 1      3446.542          36.000  
> 2017  7 23 10 35 22.3910000  0 16                     
G 2  20770991.479 1 109152289.366 1     -3037.623          41.000  
G21  20524711.895 1 107858121.149 1      2695.459          44.000  
G26  19530467.857 1 102633309.033 1      2274.151          47.000  
G29  17436876.235 1  91631397.448 1      -852.672          51.000  
G31  20292376.184 1 106637149.323 1     -2638.443          44.000  
G 5  19609676.014 1 103049535.591 1       810.010          47.000  
G 9  21843279.252 1 114787234.282 1      -281.307          38.000  
G23  22515438.587 9 118319441.11824     -1486.781          27.000  
E26  19370002.585 1 101790040.712 1      1563.438          45.000  
E 1  21517917.050 1 113077409.042 1      -820.520          44.000  
E 5  25252718.019 2 132703908.764 1     -1825.036          34.000  
G25  20215190.911 1 106231553.662 1     -3670.035          45.000  
G20  20471690.333 1 107579469.140 1      3058.825          40.000  
E 3  24219189.227 1 127272673.427 1       592.038          39.000  
E 8  23058704.437 4 121174312.118 2      2558.072          32.000  
G16  21432244.595 2 112627178.403 1      3445.806          36.000  
> 2017  7 23 10 35 22.5910000  0 16                     
G 2  20771107.124 1 109152896.922 1     -3038.078          41.000  
G21  20524609.144 1 107857582.052 1      2695.500          44.000  
G26  19530381.424 1 102632854.207 1      2273.994          47.000  
G29  17436908.520 1  91631567.959 1      -852.801          51.000  
G31  20292476.612 1 106637677.011 1     -2638.574          45.000  
G 5  19609645.389 1 103049373.569 1       809.859          47.000  
G 9  21843289.783 1 114787290.530 1      -281.587          38.000  
G23  22515495.647 9 118319738.44424     -1486.663          27.000  
E26  19369943.182 1 101789727.988 1      1563.467          45.000  
E 1  21517948.445 1 113077573.129 1      -820.542          44.000  
E 5  25252787.539 2 132704273.903 1     -1826.234          34.000  
G25  20215330.685 1 106232287.609 1     -3669.917          45.000  
G20  20471573.727 1 107578857.357 1      3058.663          40.000  
E 3  24219166.458 1 127272555.018 1       592.073          39.000  
E 8  23058607.209 4 121173800.451 2      2558.392          32.000  
G16  21432113.541 2 112626489.184 1      3445.645          37.000  
> 2017  7 23 10 35 22.7910000  0 16                     
G 2  20771222.625 1 109153504.470 1     -3037.979          42.000  
G21  20524506.715 1 107857043.007 1      2695.265          43.000  
G26  19530295.089 1 102632399.424 1      2273.845          47.000  
G29  17436940.844 1  91631738.515 1      -852.884          51.000  
G31  20292576.932 1 106638204.748 1     -2638.658          45.000  
G 5  19609614.450 1 103049211.599 1       809.547          47.000  
G 9  21843300.484 2 114787346.815 1      -281.272          38.000  
G23  22515552.029 9 118320036.00724     -1488.101          27.000  
E26  19369883.568 1 101789415.307 1      1563.321          45.000  
E 1  21517979.578 1 113077737.291 1      -820.912          44.000  
E 5  25252856.947 2 132704638.977 2     -1825.626          34.000  
G25  20215470.366 1 106233021.596 1     -3669.959          45.000  
G20  20471457.432 1 107578245.617 1      3058.423          40.000  
E 3  24219143.928 1 127272436.654 1       591.915          38.000  
E 8  23058509.654 4 121173288.835 2      2558.146          32.000  
G16  21431982.440 2 112625799.964 1      3445.976          37.000  
> 2017  7 23 10 35 22.9910000  0 16                     
G 2  20771338.039 1 109154112.045 1     -3038.158          42.000  
G21  20524404.342 1 107856503.969 1      2694.960          44.000  
G26  19530208.508 1 102631944.630 1      2273.715          46.000  
G29  17436973.288 1  91631909.084 1      -852.965          52.000  
G31  20292677.347 1 106638732.491 1     -2638.781          45.000  
G 5  19609583.827 1 103049049.643 1       809.592          47.000  
G 9  21843311.216 1 114787403.113 1      -281.616          39.000  
G23  22515607.462 9 118320333.40924     -1486.866          27.000  
E26  19369823.936 1 101789102.640 1      1563.122          45.000  
E 1  21518010.893 1 113077901.436 1      -820.902          45.000  
E 5  25252926.381 2 132705004.100 1     -1825.631          34.000  
G25  20215610.140 1 106233755.592 1     -3670.250          45.000  
G20  20471341.006 1 107577633.876 1      3058.495          39.000  
E 3  24219121.129 1 127272318.316 1       591.645          38.000  
E 8  23058412.421 2 121172777.240 2      2558.189          33.000  
G16  21431851.321 2 112625110.772 1      3445.869          37.000  
> 2017  7 23 10 35 23.1910000  0 16                     
G 2  20771453.524 1 109154719.600 1     -3037.985          42.000  
G21  20524301.747 1 107855964.911 1      2695.350          43.000  
G26  19530121.793 1 102631489.849 1      2273.772          47.000  
G29  17437005.853 1  91632079.660 1      -852.994          52.000  
G31  20292777.775 1 106639260.242 1     -2638.925          45.000  
G 5  19609553.136 1 103048887.685 1       809.623          48.000  
G 9  21843321.876 1 114787459.439 1      -281.732          40.000  
G23  22515663.296 9 118320630.85724     -1487.562          27.000  
E26  19369764.294 1 101788789.952 1      1563.446          45.000  
E 1  21518042.017 1 113078065.606 1      -820.827          45.000  
E 5  25252995.776 2 132705369.261 1     -1826.060          34.000  
G25  20215749.805 1 106234489.573 1     -3669.906          46.000  
G20  20471224.517 1 107577022.100 1      3058.842          39.000  
E 3  24219098.418 1 127272199.964 1       592.051          38.000  
E 8  23058315.256 2 121172265.638 2      2557.206          33.000  
G16  21431720.198 2 112624421.598 1      3445.830          37.000  
> 2017  7 23 10 35 23.3910000  0 16                     
G 2  20771569.228 1 109155327.179 1     -3037.952          42.000  
G21  20524199.020 1 107855425.905 1      2694.750          43.000  
G26  19530035.351 1 102631035.111 1      2273.649          47.000  
G29  17437038.301 1  91632250.275 1      -853.302          52.000  
G31  20292878.177 1 106639788.014 1     -2639.127          45.000  
G 5  19609522.389 1 103048725.789 1       809.387          48.000  
G 9  21843332.457 1 114787515.812 1      -282.069          40.000  
G23  22515719.510 8 118320928.38124     -1487.745          27.000  
E26  19369704.653 1 101788477.293 1      1563.243          45.000  
E 1  21518073.275 1 113078229.792 1      -821.030          45.000  
E 5  25253065.436 2 132705734.415 1     -1826.156          34.000  
G25  20215889.546 1 106235223.582 1     -3670.076          46.000  
G20  20471108.015 1 107576410.371 1      3058.398          39.000  
E 3  24219075.704 1 127272081.649 1       591.346          38.000  
E 8  23058217.899 2 121171753.969 2      2558.197          33.000  
G16  21431589.034 2 112623732.408 1      3445.705          37.000  
> 2017  7 23 10 35 23.5910000  0 16                     
G 2  20771684.886 1 109155934.776 1     -3037.803          42.000  
G21  20524096.404 1 107854886.866 1      2695.496          43.000  
G26  19529948.853 1 102630580.392 1      2273.620          47.000  
G29  17437070.863 1  91632420.895 1      -853.045          52.000  
G31  20292978.633 1 106640315.810 1     -2638.976          45.000  
G 5  19609491.565 1 103048563.919 1       809.315          48.000  
G 9  21843343.139 1 114787572.179 1      -281.897          40.000  
G23  22515774.925 8 118321225.97724     -1488.464          27.000  
E26  19369645.250 1 101788164.654 1      1563.307          45.000  
E 1  21518104.611 1 113078393.997 1      -821.116          45.000  
E 5  25253134.907 2 132706099.586 1     -1825.953          35.000  
G25  20216029.263 1 106235957.605 1     -3669.962          46.000  
G20  20470991.487 1 107575798.652 1      3058.905          39.000  
E 3  24219053.305 1 127271963.329 1       591.765          38.000  
E 8  23058120.562 4 121171242.411 2      2558.056          33.000  
G16  21431457.996 2 112623043.210 1      3446.083          37.000  
> 2017  7 23 10 35 23.7910000  0 16                     
G 2  20771800.400 1 109156542.320 1     -3037.530          42.000  
G21  20523993.705 1 107854347.813 1      2695.762          43.000  
G26  19529862.230 1 102630125.622 1      2274.016          47.000  
G29  17437103.423 1  91632591.497 1      -852.830          52.000  
G31  20293078.977 1 106640843.570 1     -2638.588          45.000  
G 5  19609460.929 1 103048402.029 1       809.431          48.000  
G 9  21843353.784 1 114787628.562 1      -281.772          40.000  
G23  22515830.899 8 118321523.34124     -1486.950          26.000  
E26  19369585.601 1 101787851.966 1      1563.626          45.000  
E 1  21518135.786 1 113078558.168 1      -820.603          45.000  
E 5  25253204.525 2 132706464.717 1     -1825.581          35.000  
G25  20216168.880 1 106236691.590 1     -3669.594          46.000  
G20  20470875.007 1 107575186.908 1      3059.007          39.000  
E 3  24219030.910 1 127271845.023 1       591.661          38.000  
E 8  23058023.467 4 121170730.734 2      2558.159          32.000  
G16  21431326.822 2 112622353.980 1      3446.318          36.000  
> 2017  7 23 10 35 23.9910000  0 16                     
G 2  20771915.981 1 109157149.852 1     -3037.500          42.000  
G21  20523891.181 1 107853808.741 1      2695.265          43.000  
G26  19529775.468 1 102629670.847 1      2273.929          47.000  
G29  17437135.796 1  91632762.083 1      -852.857          52.000  
G31  20293179.442 1 106641371.339 1     -2638.933          45.000  
G 5  19609430.206 1 103048240.116 1       809.496          48.000  
G 9  21843364.503 1 114787684.900 1      -281.511          40.000  
G23  22515887.695 8 118321820.81024     -1487.645          26.000  
E26  19369525.991 1 101787539.259 1      1563.658          45.000  
E 1  21518167.266 1 113078722.344 1      -820.781          45.000  
E 5  25253273.929 2 132706829.853 1     -1825.710          35.000  
G25  20216308.670 1 106237425.550 1     -3669.790          46.000  
G20  20470758.688 1 107574575.128 1      3058.929          39.000  
E 3  24219008.388 1 127271726.669 1       591.811          38.000  
E 8  23057926.094 4 121170219.027 2      2559.324          32.000  
G16  21431195.584 2 112621664.735 1      3446.202          37.000  
> 2017  7 23 10 35 24.1910000  0 16                     
G 2  20772031.685 1 109157757.350 1     -3037.100          42.000  
G21  20523788.312 1 107853269.632 1      2695.556          43.000  
G26  19529689.054 1 102629216.050 1      2273.990          47.000  
G29  17437168.279 1  91632932.650 1      -852.690          52.000  
G31  20293279.905 1 106641899.052 1     -2638.536          45.000  
G 5  19609399.315 1 103048078.196 1       809.608          48.000  
G 9  21843375.306 1 114787741.260 1      -281.732          40.000  
G23  22515944.617 8 118322087.26634     -1487.208          27.000  
E26  19369466.569 1 101787226.515 1      1563.935          45.000  
E 1  21518198.467 1 113078886.491 1      -820.584          45.000  
E 5  25253343.618 2 132707194.960 1     -1825.268          35.000  
G25  20216448.337 1 106238159.484 1     -3669.542          46.000  
G20  20470642.193 1 107573963.338 1      3059.035          39.000  
E 3  24218985.993 1 127271608.306 1       592.101          39.000  
E 8  23057828.652 4 121169707.347 2      2558.963          33.000  
G16  21431064.456 2 112620975.463 1      3446.473          37.000  
> 2017  7 23 10 35 24.3910000  0 16                     
G 2  20772147.404 1 109158364.793 1     -3037.281          42.000  
G21  20523685.580 1 107852730.464 1      2695.606          43.000  
G26  19529602.462 1 102628761.209 1      2274.052          47.000  
G29  17437200.765 1  91633103.168 1      -852.701          52.000  
G31  20293380.226 1 106642426.730 1     -2638.406          45.000  
G 5  19609368.637 1 103047916.220 1       809.823          48.000  
G 9  21843386.001 1 114787797.559 1      -281.372          40.000  
G23  22516000.600 8 118322384.62924     -1486.825          27.000  
E26  19369407.225 1 101786913.727 1      1563.791          46.000  
E 1  21518229.769 1 113079050.588 1      -820.601          45.000  
E 5  25253412.935 2 132707559.984 1     -1825.380          35.000  
G25  20216587.954 1 106238893.353 1     -3669.489          46.000  
G20  20470525.811 1 107573351.488 1      3059.103          39.000  
E 3  24218963.296 1 127271489.887 1       591.938          39.000  
E 8  23057731.147 4 121169195.588 2      2559.075          33.000  
G16  21430933.499 2 112620286.100 1      3446.740          37.000  
> 2017  7 23 10 35 24.5910000  0 16                     
G 2  20772263.001 1 109158972.217 1     -3037.135          42.000  
G21  20523583.115 1 107852191.255 1      2696.094          43.000  
G26  19529515.865 1 102628306.336 1      2274.395          47.000  
G29  17437233.316 1  91633273.675 1      -852.540          52.000  
G31  20293480.602 1 106642954.384 1     -2638.354          45.000  
G 5  19609337.907 1 103047754.244 1       809.891          48.000  
G 9  21843396.705 1 114787853.880 1      -281.650          40.000  
G23  22516056.844 8 118322681.99523     -1487.123          27.000  
E26  19369347.759 1 101786600.905 1      1564.162          46.000  
E 1  21518261.244 1 113079214.663 1      -820.304          45.000  
E 5  25253482.439 2 132707924.995 1     -1824.771          35.000  
G25  20216727.791 1 106239627.217 1     -3669.486          46.000  
G20  20470409.418 1 107572739.583 1      3059.451          39.000  
E 3  24218940.962 1 127271371.461 1       592.266          39.000  
E 8  23057633.823 2 121168683.837 2      2558.647          33.000  
G16  21430802.541 2 112619596.719 1      3446.964          39.000  
> 2017  7 23 10 35 24.7910000  0 16                     
G 2  20772378.613 1 109159579.668 1     -3037.441          41.000  
G21  20523480.350 1 107851652.103 1      2695.600          44.000  
G26  19529429.319 1 102627851.523 1      2274.052          47.000  
G29  17437265.826 1  91633444.234 1      -852.859          52.000  
G31  20293581.080 1 106643482.080 1     -2638.492          45.000  
G 5  19609307.138 1 103047592.344 1       809.321          48.000  
G 9  21843407.692 1 114787910.238 1      -281.868          40.000  
G23  22516113.426 4 118322979.44923     -1487.869          26.000  
E26  19369288.363 1 101786288.138 1      1563.757          46.000  
E 1  21518292.267 1 113079378.797 1      -820.672          45.000  
E 5  25253551.880 2 132708290.039 1     -1825.136          35.000  
G25  20216867.447 1 106240361.092 1     -3669.391          46.000  
G20  20470292.931 1 107572127.766 1      3059.113          39.000  
E 3  24218918.340 1 127271253.087 1       591.919          39.000  
E 8  23057536.396 2 121168172.084 2      2559.137          33.000  
G16  21430671.294 1 112618907.373 1      3446.916          38.000  
> 2017  7 23 10 35 24.9910000  0 16                     
G 2  20772494.174 1 109160187.138 1     -3037.631          41.000  
G21  20523377.708 1 107851112.970 1      2695.410          44.000  
G26  19529342.892 1 102627396.731 1      2273.771          47.000  
G29  17437298.266 1  91633614.817 1      -853.062          52.000  
G31  20293681.456 1 106644009.792 1     -2638.760          45.000  
G 5  19609276.297 1 103047430.462 1       809.143          48.000  
G 9  21843418.275 1 114787966.604 1      -282.239          40.000  
G23  22516169.287 4 118323276.80024     -1486.607          26.000  
E26  19369228.725 1 101785975.377 1      1563.605          46.000  
E 1  21518323.740 1 113079542.960 1      -820.983          45.000  
E 5  25253621.509 2 132708655.142 1     -1825.523          35.000  
G25  20217007.285 1 106241095.006 1     -3669.757          46.000  
G20  20470176.579 1 107571515.937 1      3058.704          39.000  
E 3  24218895.716 1 127271134.734 1       591.455          38.000  
E 8  23057439.188 2 121167660.329 2      2558.567          33.000  
G16  21430540.097 2 112618218.071 1      3446.278          38.000  
> 2017  7 23 10 35 25.1910000  0 16                     
G 2  20772609.747 1 109160794.684 1     -3038.041          41.000  
G21  20523274.892 1 107850573.912 1      2695.163          44.000  
G26  19529256.263 1 102626942.025 1      2273.382          47.000  
G29  17437330.787 1  91633785.485 1      -853.576          52.000  
G31  20293781.969 1 106644537.608 1     -2639.194          46.000  
G 5  19609245.618 1 103047268.682 1       808.869          48.000  
G 9  21843429.009 1 114788023.085 1      -282.454          40.000  
G23  22516225.361 4 118323574.37624     -1487.894          26.000  
E26  19369169.357 1 101785662.704 1      1563.288          45.000  
E 1  21518354.952 1 113079707.206 1      -821.445          45.000  
E 5  25253690.932 2 132709020.325 2     -1826.472          35.000  
G25  20217147.100 1 106241828.996 1     -3670.149          46.000  
G20  20470060.167 1 107570904.195 1      3058.758          39.000  
E 3  24218873.306 1 127271016.455 1       591.277          39.000  
E 8  23057341.903 2 121167148.693 1      2557.988          33.000  
G16  21430408.867 1 112617528.828 1      3446.263          38.000  
> 2017  7 23 10 35 25.3910000  0 16                     
G 2  20772725.218 1 109161402.231 1     -3038.177          41.000  
G21  20523172.395 1 107850034.879 1      2694.883          44.000  
G26  19529169.871 1 102626487.341 1      2273.088          47.000  
G29  17437363.344 1  91633956.181 1      -853.835          52.000  
G31  20293882.485 1 106645065.453 1     -2639.626          46.000  
G 5  19609214.715 1 103047106.937 1       808.298          48.000  
G 9  21843439.846 1 114788079.575 1      -282.783          40.000  
G23  22516281.647 4 118323871.88024     -1487.113          26.000  
E26  19369109.662 1 101785350.046 1      1562.968          45.000  
E 1  21518386.020 1 113079871.472 1      -821.543          45.000  
E 5  25253760.316 2 132709385.544 2     -1826.571          34.000  
G25  20217286.826 1 106242562.992 1     -3670.287          46.000  
G20  20469943.645 1 107570292.470 1      3058.279          39.000  
E 3  24218850.544 1 127270898.199 1       591.201          39.000  
E 8  23057244.770 2 121166637.031 1      2558.261          33.000  
G16  21430277.672 1 112616839.590 1      3445.678          38.000  
> 2017  7 23 10 35 25.5910000  0 16                     
G 2  20772840.908 1 109162009.812 1     -3037.823          41.000  
G21  20523069.906 1 107849495.839 1      2695.490          44.000  
G26  19529083.540 1 102626032.670 1      2273.353          47.000  
G29  17437395.878 1  91634126.899 1      -853.490          52.000  
G31  20293983.096 1 106645593.311 1     -2639.171          46.000  
G 5  19609184.051 1 103046945.215 1       808.601          48.000  
G 9  21843450.604 1 114788136.115 1      -282.814          39.000  
G23  22516337.507 4 118324169.42824     -1487.940          26.000  
E26  19369050.126 1 101785037.392 1      1563.391          45.000  
E 1  21518417.302 1 113080035.775 1      -821.490          45.000  
E 5  25253829.674 2 132709750.718 1     -1825.809          34.000  
G25  20217426.474 1 106243297.013 1     -3669.998          45.000  
G20  20469827.191 1 107569680.752 1      3058.751          39.000  
E 3  24218828.110 1 127270779.983 1       591.175          39.000  
E 8  23057147.446 2 121166125.385 1      2558.359          33.000  
G16  21430146.494 1 112616150.376 1      3446.118          38.000  
> 2017  7 23 10 35 25.7910000  0 16                     
G 2  20772956.594 1 109162617.362 1     -3037.560          41.000  
G21  20522967.349 1 107848956.810 1      2695.120          44.000  
G26  19528997.177 1 102625577.989 1      2273.523          47.000  
G29  17437428.373 1  91634297.616 1      -853.504          52.000  
G31  20294083.583 1 106646121.164 1     -2639.178          45.000  
G 5  19609153.219 1 103046783.492 1       808.689          48.000  
G 9  21843461.384 1 114788192.654 1      -282.870          39.000  
G23  22516393.681 4 118324467.00024     -1487.929          26.000  
E26  19368990.488 1 101784724.741 1      1563.191          45.000  
E 1  21518448.500 1 113080200.062 1      -821.437          45.000  
E 5  25253899.183 2 132710115.910 2     -1825.337          34.000  
G25  20217565.936 1 106244031.017 1     -3670.072          45.000  
G20  20469710.776 1 107569069.032 1      3058.943          39.000  
E 3  24218805.806 1 127270661.777 1       590.881          38.000  
E 8  23057049.998 2 121165613.740 1      2558.213          33.000  
G16  21430015.177 1 112615461.141 1      3446.219          38.000  
> 2017  7 23 10 35 25.9910000  0 16                     
G 2  20773072.215 1 109163224.941 1     -3037.947          41.000  
G21  20522864.809 1 107848417.762 1      2695.158          44.000  
G26  19528910.639 1 102625123.346 1      2273.166          47.000  
G29  17437460.747 1  91634468.351 1      -853.725          52.000  
G31  20294184.020 1 106646649.035 1     -2639.249          45.000  
G 5  19609122.578 1 103046621.799 1       808.451          48.000  
G 9  21843471.985 1 114788249.201 1      -282.968          39.000  
G23  22516449.419 4 118324764.68624     -1489.378          26.000  
E26  19368931.109 1 101784412.089 1      1563.191          45.000  
E 1  21518479.660 1 113080364.368 1      -821.606          45.000  
E 5  25253968.543 2 132710481.174 2     -1826.379          34.000  
G25  20217705.553 1 106244765.038 1     -3670.189          45.000  
G20  20469594.316 1 107568457.335 1      3058.608          39.000  
E 3  24218783.293 1 127270543.540 1       590.823          38.000  
E 8  23056952.566 2 121165102.055 1      2558.365          33.000  
G16  21429883.873 1 112614771.906 1      3446.276          38.000  
> 2017  7 23 10 35 26.1910000  0 16                     
G 2  20773187.875 1 109163832.551 1     -3038.383          41.000  
G21  20522762.178 1 107847878.765 1      2694.765          43.000  
G26  19528823.988 1 102624668.734 1      2272.880          47.000  
G29  17437493.126 1  91634639.126 1      -854.125          51.000  
G31  20294284.470 1 106647176.966 1     -2639.819          45.000  
G 5  19609091.968 1 103046460.150 1       807.953          48.000  
G 9  21843482.656 1 114788305.791 1      -283.224          39.000  
G23  22516505.243 9                     -1488.736          25.000  
E26  19368871.484 1 101784099.472 1      1562.977          45.000  
E 1  21518510.826 1 113080528.715 1      -821.855          45.000  
E 5  25254037.984 2 132710846.424 2     -1826.422          34.000  
G25  20217845.168 1 106245499.094 1     -3670.484          45.000  
G20  20469477.829 1 107567845.654 1      3058.066          39.000  
E 3  24218760.957 1 127270425.371 1       590.622          38.000  
E 8  23056855.332 2 121164590.509 1      2557.369          33.000  
G16  21429752.813 1 112614082.716 1      3445.661          38.000  
> 2017  7 23 10 35 26.3910000  0 16                     
G 2  20773303.358 1 109164440.167 1     -3038.148          41.000  
G21  20522659.540 1 107847339.805 1      2694.599          43.000  
G26  19528737.337 1 102624214.142 1      2272.903          47.000  
G29  17437525.760 1  91634809.935 1      -854.205          51.000  
G31  20294384.898 1 106647704.894 1     -2639.941          44.000  
G 5  19609061.343 1 103046298.547 1       807.784          48.000  
G 9  21843493.468 1 114788362.444 1      -283.590          39.000  
G23  22516562.120 9                     -1488.736          24.000  
E26  19368811.878 1 101783786.884 1      1562.896          45.000  
E 1  21518542.141 1 113080693.111 1      -822.012          45.000  
E 5  25254107.471 2 132711211.707 1     -1826.508          34.000  
G25  20217984.811 1 106246233.163 1     -3670.573          45.000  
G20  20469361.248 1 107567234.012 1      3057.934          38.000  
E 3  24218738.618 1 127270307.230 1       590.592          39.000  
E 8  23056757.739 2 121164078.864 1      2557.904          33.000  
G16  21429621.698 1 112613393.526 1      3445.499          38.000  
> 2017  7 23 10 35 26.5910000  0 16                     
G 2  20773419.012 1 109165047.828 1     -3038.122          41.000  
G21  20522556.942 1 107846800.870 1      2694.565          43.000  
G26  19528650.860 1 102623759.609 1      2272.736          46.000  
G29  17437558.261 1  91634980.786 1      -854.217          51.000  
G31  20294485.362 1 106648232.861 1     -2639.794          45.000  
G 5  19609030.561 1 103046136.985 1       807.838          48.000  
G 9  21843504.379 1 114788419.127 1      -283.298          39.000  
G23  22516619.121 9                     -1488.736          23.000  
E26  19368752.253 1 101783474.334 1      1562.752          45.000  
E 1  21518573.662 1 113080857.531 1      -822.200          45.000  
E 5  25254176.942 2 132711577.069 1     -1826.857          34.000  
G25  20218124.550 1 106246967.264 1     -3670.445          45.000  
G20  20469244.720 1 107566622.382 1      3058.162          38.000  
E 3  24218716.119 1 127270189.122 1       590.594          39.000  
E 8  23056660.345 2 121163567.303 1      2557.731          33.000  
G16  21429490.547 1 112612704.364 1      3445.963          38.000  
> 2017  7 23 10 35 26.7910000  0 16                     
G 2  20773534.522 1 109165655.466 1     -3038.190          41.000  
G21  20522454.317 1 107846261.889 1      2694.868          43.000  
G26  19528564.422 1 102623305.056 1      2272.646          46.000  
G29  17437590.937 1  91635151.628 1      -854.271          51.000  
G31  20294585.868 1 106648760.820 1     -2639.756          46.000  
G 5  19608999.916 1 103045975.431 1       807.689          48.000  
G 9  21843515.104 1 114788475.823 1      -283.746          39.000  
G23  22516675.531 9                     -1488.736          23.000  
E26  19368692.844 1 101783161.757 1      1562.928          45.000  
E 1  21518604.902 1 113081021.937 1      -822.035          45.000  
E 5  25254246.314 2 132711942.345 1     -1826.423          34.000  
G25  20218264.135 1 106247701.342 1     -3670.288          45.000  
G20  20469128.026 1 107566010.770 1      3057.833          39.000  
E 3  24218693.514 1 127270071.022 1       590.618          39.000  
E 8  23056563.185 2 121163055.702 1      2558.138          33.000  
G16  21429359.500 1 112612015.191 1      3445.961          38.000  
> 2017  7 23 10 35 26.9910000  0 16                     
G 2  20773649.979 1 109166263.135 1     -3038.195          41.000  
G21  20522351.923 1 107845722.983 1      2694.923          43.000  
G26  19528477.878 1 102622850.556 1      2272.648          46.000  
G29  17437623.571 1  91635322.526 1      -854.319          51.000  
G31  20294686.238 1 106649288.858 1     -2640.250          45.000  
G 5  19608969.339 1 103045813.933 1       807.554          48.000  
G 9  21843525.882 2 114788532.549 1      -283.214          39.000  
G23  22516732.333 9                     -1489.026          23.000  
E26  19368633.454 1 101782849.238 1      1562.656          45.000  
E 1  21518636.221 1 113081186.414 1      -822.240          45.000  
E 5  25254315.940 2 132712307.702 1     -1826.533          34.000  
G25  20218403.717 1 106248435.484 1     -3670.612          45.000  
G20  20469011.354 1 107565399.177 1      3057.977          38.000  
E 3  24218671.221 1 127269952.973 1       590.225          39.000  
E 8  23056465.982 2 121162544.154 2      2558.138          33.000  
G16  21429228.157 1 112611326.054 1      3445.937          38.000  
> 2017  7 23 10 35 27.1910000  0 16                     
G 2  20773765.425 1 109166870.813 1     -3038.274          41.000  
G21  20522249.477 1 107845184.084 1      2694.493          43.000  
G26  19528391.257 1 102622396.062 1      2272.419          46.000  
G29  17437656.067 1  91635493.440 1      -854.616          51.000  
G31  20294786.677 1 106649816.880 1     -2640.310          45.000  
G 5  19608938.592 1 103045652.445 1       807.413          47.000  
G 9  21843536.631 1 114788589.314 1      -283.998          39.000  
G23  22516788.844 9                     -1487.482          22.000  
E26  19368573.997 1 101782536.702 1      1562.664          45.000  
E 1  21518667.538 1 113081350.878 1      -822.413          45.000  
E 5  25254385.503 2 132712673.096 1     -1826.998          34.000  
G25  20218543.465 1 106249169.618 1     -3670.770          45.000  
G20  20468894.979 1 107564787.603 1      3057.689          38.000  
E 3  24218648.776 1 127269834.918 1       590.407          38.000  
E 8  23056368.883 2 121162032.621 1      2557.749          34.000  
G16  21429096.935 1 112610636.914 1      3445.899          38.000  
> 2017  7 23 10 35 27.3910000  0 16                     
G 2  20773880.911 1 109167478.443 1     -3037.919          41.000  
G21  20522146.772 1 107844645.100 1      2695.226          43.000  
G26  19528304.661 1 102621941.519 1      2272.839          47.000  
G29  17437688.656 1  91635664.303 1      -854.235          51.000  
G31  20294887.231 1 106650344.865 1     -2639.850          45.000  
G 5  19608907.836 1 103045490.927 1       807.687          47.000  
G 9  21843547.505 1 114788646.030 1      -283.510          39.000  
G23  22516844.218 9                     -1490.140          23.000  
E26  19368514.492 1 101782224.128 1      1562.950          45.000  
E 1  21518698.695 1 113081515.313 1      -821.872          45.000  
E 5  25254455.103 2 132713038.413 1     -1826.679          33.000  
G25  20218683.119 1 106249903.702 1     -3670.216          45.000  
G20  20468778.710 1 107564175.960 1      3058.444          38.000  
E 3  24218626.403 1 127269716.820 1       590.710          38.000  
E 8  23056271.491 2 121161520.976 2      2558.346          34.000  
G16  21428965.786 1 112609947.757 1      3445.461          38.000  
> 2017  7 23 10 35 27.5910000  0 16                     
G 2  20773996.400 1 109168086.033 1     -3037.946          41.000  
G21  20522044.243 1 107844106.105 1      2695.114          43.000  
G26  19528218.012 1 102621486.951 1      2272.985          47.000  
G29  17437721.242 1  91635835.143 1      -854.188          51.000  
G31  20294987.762 1 106650872.808 1     -2639.476          45.000  
G 5  19608876.980 1 103045329.381 1       807.735          47.000  
G 9  21843558.318 1 114788702.737 1      -283.467          39.000  
G23  22516900.455 9                     -1489.571          24.000  
E26  19368455.019 1 101781911.515 1      1563.113          46.000  
E 1  21518730.173 1 113081679.727 1      -822.032          45.000  
E 5  25254524.717 2 132713403.729 1     -1827.093          33.000  
G25  20218822.962 1 106250637.763 1     -3670.182          45.000  
G20  20468662.335 1 107563564.300 1      3058.361          38.000  
E 3  24218603.687 1 127269598.697 1       590.893          38.000  
E 8  23056174.138 2 121161009.319 1      2558.367          34.000  
G16  21428834.539 1 112609258.474 1      3446.600          38.000  
> 2017  7 23 10 35 27.7910000  0 16                     
G 2  20774112.170 1 109168693.577 1     -3037.411          41.000  
G21  20521941.496 1 107843567.075 1      2695.091          43.000  
G26  19528131.489 1 102621032.371 1      2272.848          47.000  
G29  17437753.756 1  91636005.958 1      -854.115          51.000  
G31  20295088.395 1 106651400.762 1     -2639.841          45.000  
