% program   : RTKLIB ver.2.4.3 Emlid
% inp file  : /home/artur/RTKLIB/test/test/static/1_yasnaya_polyana/rover.obs
% inp file  : /home/artur/RTKLIB/test/test/static/1_yasnaya_polyana/base.obs
% inp file  : /home/artur/RTKLIB/test/test/static/1_yasnaya_polyana/rover.nav
% obs start : 2017/07/23 10:03:50.0 GPST (week1959  36230.0s)
% obs end   : 2017/07/23 10:14:15.6 GPST (week1959  36855.6s)
% pos mode  : static
% freqs     : L1
% solution  : forward
% elev mask : 15.0 deg
% dynamics  : on
% tidecorr  : off
% ionos opt : broadcast
% tropo opt : est ztd
% ephemeris : broadcast
% navi sys  : gps glonass galileo qzss beidou sbas
% amb res   : continuous
% amb glo   : off
% val thres : 3.0
% antenna1  :                       ( 0.0000  0.0000  0.0000)
% antenna2  :                       ( 0.0000  0.0000  0.0000)
% ref pos   :  2773909.8712  1654076.4507  5481627.6877
%
% (x/y/z-ecef=WGS84,Q=1:fix,2:float,3:sbas,4:dgps,5:single,6:ppp,ns=# of satellites)
%  GPST                      x-ecef(m)      y-ecef(m)      z-ecef(m)   Q  ns   sdx(m)   sdy(m)   sdz(m)  sdxy(m)  sdyz(m)  sdzx(m) age(s)  ratio
2017/07/23 10:03:50.000   2773769.6273   1652508.6379   5482143.8593   2  17   1.7890   1.6065   3.0830   1.1359   1.3867   1.6997  -0.01    0.0
2017/07/23 10:03:50.200   2773769.5328   1652508.4900   5482143.9768   2  17   1.4052   1.2339   2.3912   0.9089   1.1051   1.3556  -0.01    0.0
2017/07/23 10:03:50.400   2773769.5479   1652508.4000   5482144.1347   2  17   1.2101   1.0467   2.0552   0.7932   0.9680   1.1894  -0.01    0.0
2017/07/23 10:03:50.600   2773769.5673   1652508.3387   5482144.2539   2  17   1.0879   0.9297   1.8494   0.7209   0.8842   1.0882  -0.01    0.0
2017/07/23 10:03:50.800   2773769.5699   1652508.2965   5482144.3016   2  17   1.0025   0.8479   1.7076   0.6705   0.8266   1.0187  -0.01    0.0
2017/07/23 10:03:51.000   2773769.5827   1652508.2415   5482144.3757   2  17   0.9388   0.7867   1.6026   0.6328   0.7839   0.9674  -0.01    0.0
2017/07/23 10:03:51.200   2773769.5997   1652508.1923   5482144.4841   2  17   0.8888   0.7388   1.5208   0.6033   0.7507   0.9274  -0.01    0.0
2017/07/23 10:03:51.400   2773769.6135   1652508.1503   5482144.5823   2  17   0.8483   0.6999   1.4548   0.5794   0.7238   0.8951  -0.01    0.0
2017/07/23 10:03:51.600   2773769.6132   1652508.1000   5482144.6221   2  17   0.8146   0.6676   1.4000   0.5595   0.7014   0.8681  -0.01    0.0
2017/07/23 10:03:51.800   2773769.6118   1652508.0656   5482144.6665   2  17   0.7860   0.6401   1.3535   0.5425   0.6823   0.8452  -0.01    0.0
2017/07/23 10:03:52.000   2773769.6262   1652508.0526   5482144.7404   2  17   0.7612   0.6164   1.3134   0.5277   0.6657   0.8252  -0.01    0.0
2017/07/23 10:03:52.200   2773769.6320   1652508.0340   5482144.8029   2  17   0.7395   0.5956   1.2781   0.5148   0.6511   0.8076  -0.01    0.0
2017/07/23 10:03:52.400   2773769.6346   1652508.0092   5482144.8655   2  17   0.7202   0.5773   1.2468   0.5032   0.6380   0.7918  -0.01    0.0
2017/07/23 10:03:52.600   2773769.6396   1652507.9869   5482144.9237   2  17   0.7028   0.5608   1.2187   0.4927   0.6261   0.7775  -0.01    0.0
2017/07/23 10:03:52.800   2773769.6351   1652507.9619   5482144.9611   2  17   0.6871   0.5460   1.1932   0.4832   0.6153   0.7644  -0.01    0.0
2017/07/23 10:03:53.000   2773769.6320   1652507.9283   5482144.9860   2  17   0.6728   0.5325   1.1699   0.4745   0.6053   0.7523  -0.01    0.0
2017/07/23 10:03:53.200   2773769.6276   1652507.8887   5482144.9953   2  17   0.6596   0.5202   1.1484   0.4664   0.5960   0.7410  -0.01    0.0
2017/07/23 10:03:53.400   2773769.6227   1652507.8462   5482144.9855   2  17   0.6474   0.5088   1.1285   0.4589   0.5873   0.7305  -0.01    0.0
2017/07/23 10:03:53.600   2773769.6025   1652507.7984   5482144.9565   2  17   0.6360   0.4983   1.1098   0.4518   0.5791   0.7205  -0.01    0.0
2017/07/23 10:03:53.800   2773769.5861   1652507.7472   5482144.9366   2  17   0.6254   0.4885   1.0924   0.4451   0.5713   0.7111  -0.01    0.0
2017/07/23 10:03:54.000   2773769.5856   1652507.7091   5482144.9433   2  17   0.6153   0.4793   1.0760   0.4388   0.5639   0.7022  -0.01    0.0
2017/07/23 10:03:54.200   2773769.5790   1652507.6615   5482144.9325   2  17   0.6059   0.4707   1.0604   0.4329   0.5569   0.6936  -0.01    0.0
2017/07/23 10:03:54.400   2773769.5622   1652507.6103   5482144.8989   2  17   0.5969   0.4626   1.0456   0.4272   0.5501   0.6854  -0.01    0.0
2017/07/23 10:03:54.600   2773769.5415   1652507.5627   5482144.8660   2  17   0.5884   0.4550   1.0315   0.4217   0.5437   0.6774  -0.01    0.0
2017/07/23 10:03:54.800   2773769.5207   1652507.5196   5482144.8325   2  17   0.5803   0.4477   1.0180   0.4164   0.5374   0.6698  -0.01    0.0
2017/07/23 10:03:55.000   2773769.4985   1652507.4801   5482144.8012   2  17   0.5725   0.4409   1.0051   0.4114   0.5313   0.6624  -0.01    0.0
2017/07/23 10:03:55.200   2773769.4775   1652507.4434   5482144.7622   2  17   0.5650   0.4343   0.9926   0.4065   0.5255   0.6552  -0.01    0.0
2017/07/23 10:03:55.400   2773769.4489   1652507.4014   5482144.7139   2  17   0.5579   0.4280   0.9806   0.4018   0.5198   0.6482  -0.01    0.0
2017/07/23 10:03:55.600   2773769.4165   1652507.3587   5482144.6556   2  17   0.5510   0.4220   0.9690   0.3972   0.5142   0.6414  -0.01    0.0
2017/07/23 10:03:55.800   2773769.3807   1652507.3181   5482144.5973   2  17   0.5443   0.4163   0.9578   0.3928   0.5088   0.6348  -0.01    0.0
2017/07/23 10:03:56.000   2773769.3493   1652507.2799   5482144.5382   2  17   0.5378   0.4108   0.9470   0.3885   0.5036   0.6283  -0.01    0.0
2017/07/23 10:03:56.200   2773769.3231   1652507.2481   5482144.4907   2  17   0.5316   0.4055   0.9364   0.3843   0.4984   0.6220  -0.01    0.0
2017/07/23 10:03:56.400   2773769.2893   1652507.2115   5482144.4306   2  17   0.5255   0.4003   0.9262   0.3802   0.4934   0.6158  -0.01    0.0
2017/07/23 10:03:56.600   2773769.2524   1652507.1716   5482144.3612   2  17   0.5196   0.3954   0.9162   0.3762   0.4884   0.6097  -0.01    0.0
2017/07/23 10:03:56.800   2773769.2212   1652507.1384   5482144.3076   2  17   0.5139   0.3906   0.9064   0.3723   0.4836   0.6037  -0.01    0.0
2017/07/23 10:03:57.000   2773769.1874   1652507.1038   5482144.2430   2  17   0.5083   0.3860   0.8970   0.3685   0.4788   0.5979  -0.01    0.0
2017/07/23 10:03:57.200   2773769.1633   1652507.0762   5482144.1895   2  17   0.5029   0.3815   0.8877   0.3647   0.4742   0.5922  -0.01    0.0
2017/07/23 10:03:57.400   2773769.1428   1652507.0501   5482144.1452   2  17   0.4976   0.3772   0.8786   0.3611   0.4696   0.5865  -0.01    0.0
2017/07/23 10:03:57.600   2773769.1265   1652507.0285   5482144.1083   2  17   0.4924   0.3729   0.8698   0.3575   0.4651   0.5810  -0.01    0.0
2017/07/23 10:03:57.800   2773769.1145   1652507.0127   5482144.0836   2  17   0.4874   0.3688   0.8611   0.3540   0.4607   0.5755  -0.01    0.0
2017/07/23 10:03:58.000   2773769.1063   1652507.0021   5482144.0685   2  17   0.4825   0.3649   0.8526   0.3505   0.4564   0.5702  -0.01    0.0
2017/07/23 10:03:58.200   2773769.0935   1652506.9879   5482144.0389   2  17   0.4776   0.3610   0.8443   0.3472   0.4521   0.5649  -0.01    0.0
2017/07/23 10:03:58.400   2773769.0851   1652506.9788   5482144.0231   2  17   0.4729   0.3572   0.8362   0.3439   0.4479   0.5597  -0.01    0.0
2017/07/23 10:03:58.600   2773769.0755   1652506.9681   5482144.0013   2  17   0.4683   0.3535   0.8282   0.3406   0.4438   0.5546  -0.01    0.0
2017/07/23 10:03:58.800   2773769.0676   1652506.9598   5482143.9835   2  17   0.4638   0.3500   0.8204   0.3374   0.4398   0.5496  -0.01    0.0
2017/07/23 10:03:59.000   2773769.0525   1652506.9500   5482143.9516   2  17   0.4594   0.3465   0.8127   0.3343   0.4358   0.5446  -0.01    0.0
2017/07/23 10:03:59.200   2773769.0365   1652506.9365   5482143.9147   2  17   0.4550   0.3431   0.8052   0.3312   0.4319   0.5398  -0.01    0.0
2017/07/23 10:03:59.400   2773769.0295   1652506.9261   5482143.8968   2  17   0.4508   0.3397   0.7978   0.3282   0.4280   0.5350  -0.01    0.0
2017/07/23 10:03:59.600   2773769.0221   1652506.9138   5482143.8805   2  17   0.4466   0.3365   0.7906   0.3252   0.4242   0.5303  -0.01    0.0
2017/07/23 10:03:59.800   2773769.0132   1652506.8987   5482143.8586   2  17   0.4426   0.3333   0.7835   0.3223   0.4205   0.5256  -0.01    1.1
2017/07/23 10:04:00.000   2773769.0063   1652506.8846   5482143.8423   2  17   0.4386   0.3302   0.7765   0.3194   0.4168   0.5210  -0.01    1.1
2017/07/23 10:04:00.200   2773769.0007   1652506.8720   5482143.8302   2  17   0.4346   0.3272   0.7696   0.3166   0.4132   0.5165  -0.01    1.1
2017/07/23 10:04:00.400   2773768.9961   1652506.8596   5482143.8143   2  17   0.4308   0.3242   0.7629   0.3138   0.4096   0.5121  -0.01    1.1
2017/07/23 10:04:00.600   2773768.9888   1652506.8466   5482143.7972   2  17   0.4270   0.3213   0.7562   0.3111   0.4061   0.5077  -0.01    1.1
2017/07/23 10:04:00.800   2773768.9870   1652506.8378   5482143.7852   2  17   0.4233   0.3184   0.7497   0.3084   0.4026   0.5034  -0.01    1.1
2017/07/23 10:04:01.000   2773768.9870   1652506.8275   5482143.7759   2  17   0.4196   0.3157   0.7433   0.3058   0.3992   0.4992  -0.01    1.0
2017/07/23 10:04:01.200   2773768.9866   1652506.8147   5482143.7664   2  17   0.4161   0.3129   0.7370   0.3032   0.3959   0.4950  -0.01    1.0
2017/07/23 10:04:01.400   2773768.9856   1652506.8019   5482143.7542   2  17   0.4126   0.3103   0.7309   0.3006   0.3926   0.4909  -0.01    1.0
2017/07/23 10:04:01.600   2773768.9865   1652506.7887   5482143.7476   2  17   0.4091   0.3077   0.7248   0.2981   0.3893   0.4869  -0.01    1.0
2017/07/23 10:04:01.800   2773768.9836   1652506.7740   5482143.7353   2  17   0.4057   0.3051   0.7188   0.2956   0.3861   0.4829  -0.01    1.0
2017/07/23 10:04:02.000   2773768.9842   1652506.7635   5482143.7293   2  17   0.4024   0.3026   0.7129   0.2932   0.3830   0.4790  -0.01    1.0
2017/07/23 10:04:02.200   2773768.9789   1652506.7509   5482143.7100   2  17   0.3991   0.3001   0.7072   0.2908   0.3799   0.4751  -0.01    1.0
2017/07/23 10:04:02.400   2773768.9776   1652506.7416   5482143.6971   2  17   0.3959   0.2977   0.7015   0.2885   0.3769   0.4713  -0.01    1.0
2017/07/23 10:04:02.600   2773768.9765   1652506.7345   5482143.6865   2  17   0.3928   0.2953   0.6959   0.2862   0.3739   0.4676  -0.01    1.0
2017/07/23 10:04:02.800   2773768.9727   1652506.7245   5482143.6701   2  17   0.3897   0.2930   0.6904   0.2839   0.3709   0.4639  -0.01    1.0
2017/07/23 10:04:03.000   2773768.9759   1652506.7208   5482143.6673   2  17   0.3866   0.2907   0.6850   0.2817   0.3680   0.4603  -0.01    1.0
2017/07/23 10:04:03.200   2773768.9769   1652506.7178   5482143.6597   2  17   0.3836   0.2885   0.6797   0.2795   0.3651   0.4567  -0.01    1.0
2017/07/23 10:04:03.400   2773768.9750   1652506.7148   5482143.6498   2  17   0.3807   0.2863   0.6745   0.2773   0.3623   0.4532  -0.01    1.0
2017/07/23 10:04:03.600   2773768.9751   1652506.7143   5482143.6394   2  17   0.3778   0.2842   0.6693   0.2752   0.3595   0.4498  -0.01    1.0
2017/07/23 10:04:03.800   2773768.9726   1652506.7108   5482143.6217   2  17   0.3749   0.2820   0.6643   0.2731   0.3568   0.4463  -0.01    1.1
2017/07/23 10:04:04.000   2773768.9718   1652506.7104   5482143.6058   2  17   0.3721   0.2800   0.6593   0.2710   0.3541   0.4430  -0.01    1.1
2017/07/23 10:04:04.200   2773768.9767   1652506.7146   5482143.5977   2  17   0.3694   0.2779   0.6544   0.2690   0.3515   0.4397  -0.01    1.1
2017/07/23 10:04:04.400   2773768.9755   1652506.7164   5482143.5793   2  17   0.3667   0.2759   0.6496   0.2670   0.3489   0.4364  -0.01    1.1
2017/07/23 10:04:04.600   2773768.9743   1652506.7183   5482143.5610   2  17   0.3640   0.2739   0.6449   0.2650   0.3463   0.4332  -0.01    1.1
2017/07/23 10:04:04.800   2773768.9753   1652506.7215   5482143.5522   2  17   0.3614   0.2720   0.6402   0.2631   0.3438   0.4301  -0.01    1.1
2017/07/23 10:04:05.000   2773768.9785   1652506.7267   5482143.5488   2  17   0.3588   0.2701   0.6356   0.2612   0.3413   0.4270  -0.01    1.1
2017/07/23 10:04:05.200   2773768.9825   1652506.7329   5482143.5475   2  17   0.3563   0.2682   0.6311   0.2593   0.3388   0.4239  -0.01    1.1
2017/07/23 10:04:05.400   2773768.9904   1652506.7414   5482143.5517   2  17   0.3538   0.2664   0.6266   0.2575   0.3364   0.4209  -0.01    1.0
2017/07/23 10:04:05.600   2773768.9964   1652506.7498   5482143.5552   2  17   0.3514   0.2646   0.6222   0.2557   0.3341   0.4179  -0.01    1.0
2017/07/23 10:04:05.800   2773769.0018   1652506.7582   5482143.5583   2  17   0.3489   0.2628   0.6179   0.2539   0.3317   0.4150  -0.01    1.0
2017/07/23 10:04:06.000   2773769.0037   1652506.7636   5482143.5548   2  17   0.3466   0.2611   0.6137   0.2522   0.3294   0.4121  -0.01    1.0
2017/07/23 10:04:06.200   2773769.0119   1652506.7717   5482143.5641   2  17   0.3442   0.2594   0.6095   0.2504   0.3271   0.4093  -0.01    1.0
2017/07/23 10:04:06.400   2773769.0217   1652506.7784   5482143.5717   2  17   0.3419   0.2577   0.6054   0.2487   0.3249   0.4065  -0.01    1.0
2017/07/23 10:04:06.600   2773769.0312   1652506.7825   5482143.5795   2  17   0.3397   0.2560   0.6013   0.2470   0.3227   0.4037  -0.01    1.0
2017/07/23 10:04:06.800   2773769.0383   1652506.7843   5482143.5800   2  17   0.3374   0.2544   0.5974   0.2454   0.3205   0.4010  -0.01    1.0
2017/07/23 10:04:07.000   2773769.0448   1652506.7851   5482143.5759   2  17   0.3352   0.2528   0.5934   0.2438   0.3184   0.3983  -0.01    1.0
2017/07/23 10:04:07.200   2773769.0492   1652506.7844   5482143.5704   2  17   0.3331   0.2512   0.5895   0.2422   0.3163   0.3957  -0.01    1.0
2017/07/23 10:04:07.400   2773769.0539   1652506.7832   5482143.5651   2  17   0.3310   0.2496   0.5857   0.2406   0.3142   0.3931  -0.01    1.0
2017/07/23 10:04:07.600   2773769.0586   1652506.7803   5482143.5588   2  17   0.3289   0.2481   0.5820   0.2390   0.3122   0.3906  -0.01    1.1
2017/07/23 10:04:07.800   2773769.0577   1652506.7748   5482143.5416   2  17   0.3268   0.2466   0.5783   0.2375   0.3102   0.3880  -0.01    1.1
2017/07/23 10:04:08.000   2773769.0578   1652506.7704   5482143.5284   2  17   0.3248   0.2451   0.5746   0.2360   0.3082   0.3856  -0.01    1.1
2017/07/23 10:04:08.200   2773769.0606   1652506.7684   5482143.5210   2  17   0.3228   0.2437   0.5710   0.2345   0.3062   0.3831  -0.01    1.1
2017/07/23 10:04:08.400   2773769.0642   1652506.7668   5482143.5163   2  17   0.3208   0.2422   0.5675   0.2330   0.3043   0.3807  -0.01    1.1
2017/07/23 10:04:08.600   2773769.0664   1652506.7638   5482143.5069   2  17   0.3189   0.2408   0.5640   0.2316   0.3024   0.3783  -0.01    1.1
2017/07/23 10:04:08.800   2773769.0672   1652506.7596   5482143.4944   2  17   0.3169   0.2394   0.5606   0.2302   0.3005   0.3760  -0.01    1.1
2017/07/23 10:04:09.000   2773769.0697   1652506.7568   5482143.4855   2  17   0.3151   0.2380   0.5572   0.2288   0.2987   0.3737  -0.01    1.1
2017/07/23 10:04:09.200   2773769.0712   1652506.7550   5482143.4765   2  17   0.3132   0.2367   0.5538   0.2274   0.2968   0.3714  -0.01    1.1
2017/07/23 10:04:09.400   2773769.0707   1652506.7521   5482143.4637   2  17   0.3114   0.2353   0.5505   0.2260   0.2950   0.3691  -0.01    1.1
2017/07/23 10:04:09.600   2773769.0690   1652506.7493   5482143.4487   2  17   0.3096   0.2340   0.5473   0.2247   0.2933   0.3669  -0.01    1.1
2017/07/23 10:04:09.800   2773769.0646   1652506.7439   5482143.4316   2  17   0.3078   0.2327   0.5441   0.2234   0.2915   0.3647  -0.01    1.1
2017/07/23 10:04:10.000   2773769.0607   1652506.7388   5482143.4155   2  17   0.3060   0.2315   0.5409   0.2221   0.2898   0.3626  -0.01    1.1
2017/07/23 10:04:10.200   2773769.0611   1652506.7373   5482143.3885   2  17   0.3015   0.2286   0.5314   0.2183   0.2845   0.3562  -0.01    1.0
2017/07/23 10:04:10.400   2773769.0593   1652506.7359   5482143.3540   2  17   0.2973   0.2259   0.5226   0.2149   0.2796   0.3503  -0.01    1.1
2017/07/23 10:04:10.600   2773769.0621   1652506.7370   5482143.3395   2  17   0.2934   0.2233   0.5144   0.2116   0.2750   0.3448  -0.01    1.1
2017/07/23 10:04:10.800   2773769.0472   1652506.7284   5482143.2866   2  17   0.2897   0.2210   0.5066   0.2086   0.2707   0.3396  -0.01    1.1
2017/07/23 10:04:11.000   2773769.0402   1652506.7232   5482143.2459   2  17   0.2862   0.2187   0.4993   0.2058   0.2667   0.3348  -0.01    1.1
2017/07/23 10:04:11.200   2773769.0379   1652506.7190   5482143.2205   2  17   0.2829   0.2166   0.4924   0.2031   0.2629   0.3302  -0.01    1.1
2017/07/23 10:04:11.400   2773769.0296   1652506.7130   5482143.1810   2  17   0.2798   0.2145   0.4858   0.2005   0.2593   0.3258  -0.01    1.0
2017/07/23 10:04:11.600   2773769.0238   1652506.7085   5482143.1529   2  17   0.2768   0.2126   0.4795   0.1981   0.2559   0.3217  -0.01    1.0
2017/07/23 10:04:11.800   2773769.0195   1652506.7051   5482143.1303   2  17   0.2739   0.2107   0.4736   0.1958   0.2526   0.3177  -0.01    1.1
2017/07/23 10:04:12.000   2773769.0126   1652506.6978   5482143.0983   2  17   0.2711   0.2089   0.4679   0.1936   0.2495   0.3140  -0.01    1.0
2017/07/23 10:04:12.200   2773769.0084   1652506.6933   5482143.0735   2  17   0.2685   0.2072   0.4624   0.1915   0.2465   0.3104  -0.01    1.0
2017/07/23 10:04:12.400   2773769.0069   1652506.6911   5482143.0588   2  17   0.2660   0.2055   0.4572   0.1895   0.2437   0.3069  -0.01    1.1
2017/07/23 10:04:12.600   2773768.9999   1652506.6848   5482143.0303   2  17   0.2635   0.2039   0.4522   0.1875   0.2410   0.3036  -0.01    1.0
2017/07/23 10:04:12.800   2773768.9921   1652506.6768   5482142.9988   2  17   0.2612   0.2023   0.4473   0.1856   0.2384   0.3004  -0.01    1.0
2017/07/23 10:04:13.000   2773768.9884   1652506.6719   5482142.9745   2  17   0.2589   0.2008   0.4426   0.1838   0.2359   0.2973  -0.01    1.0
2017/07/23 10:04:13.200   2773768.9865   1652506.6697   5482142.9547   2  17   0.2567   0.1994   0.4381   0.1821   0.2334   0.2943  -0.01    1.0
2017/07/23 10:04:13.400   2773768.9792   1652506.6644   5482142.9284   2  17   0.2545   0.1980   0.4338   0.1804   0.2311   0.2914  -0.01    1.0
2017/07/23 10:04:13.600   2773768.9768   1652506.6615   5482142.9160   2  17   0.2524   0.1966   0.4295   0.1788   0.2288   0.2886  -0.01    1.0
2017/07/23 10:04:13.800   2773768.9753   1652506.6583   5482142.8986   2  17   0.2504   0.1952   0.4254   0.1772   0.2266   0.2859  -0.01    1.0
2017/07/23 10:04:14.000   2773768.9803   1652506.6596   5482142.8962   2  17   0.2485   0.1939   0.4215   0.1757   0.2245   0.2833  -0.01    1.0
2017/07/23 10:04:14.200   2773768.9792   1652506.6542   5482142.8752   2  17   0.2465   0.1926   0.4176   0.1742   0.2224   0.2808  -0.01    1.0
2017/07/23 10:04:14.400   2773768.9807   1652506.6513   5482142.8576   2  17   0.2447   0.1914   0.4139   0.1727   0.2204   0.2783  -0.01    1.0
2017/07/23 10:04:14.600   2773768.9818   1652506.6464   5482142.8346   2  17   0.2429   0.1902   0.4102   0.1713   0.2185   0.2759  -0.01    1.0
2017/07/23 10:04:14.800   2773768.9831   1652506.6429   5482142.8171   2  17   0.2411   0.1890   0.4066   0.1699   0.2166   0.2735  -0.01    1.0
2017/07/23 10:04:15.000   2773768.9841   1652506.6391   5482142.7963   2  17   0.2394   0.1878   0.4032   0.1686   0.2147   0.2713  -0.01    1.0
2017/07/23 10:04:15.200   2773768.9875   1652506.6357   5482142.7817   2  17   0.2377   0.1867   0.3998   0.1673   0.2129   0.2690  -0.01    1.0
2017/07/23 10:04:15.400   2773768.9899   1652506.6324   5482142.7664   2  17   0.2360   0.1856   0.3965   0.1660   0.2112   0.2669  -0.01    1.0
2017/07/23 10:04:15.600   2773768.9882   1652506.6261   5482142.7505   2  17   0.2344   0.1845   0.3933   0.1648   0.2095   0.2647  -0.01    1.0
2017/07/23 10:04:15.800   2773768.9857   1652506.6185   5482142.7347   2  17   0.2328   0.1834   0.3901   0.1635   0.2078   0.2627  -0.01    1.0
2017/07/23 10:04:16.000   2773768.9821   1652506.6104   5482142.7156   2  17   0.2313   0.1824   0.3870   0.1624   0.2061   0.2606  -0.01    1.0
2017/07/23 10:04:16.200   2773768.9793   1652506.6035   5482142.7016   2  17   0.2297   0.1813   0.3840   0.1612   0.2045   0.2586  -0.01    1.1
2017/07/23 10:04:16.400   2773768.9764   1652506.5965   5482142.6915   2  17   0.2282   0.1803   0.3811   0.1600   0.2030   0.2567  -0.01    1.1
2017/07/23 10:04:16.600   2773768.9757   1652506.5912   5482142.6823   2  17   0.2268   0.1793   0.3782   0.1589   0.2014   0.2548  -0.01    1.1
2017/07/23 10:04:16.800   2773768.9761   1652506.5872   5482142.6725   2  17   0.2253   0.1783   0.3753   0.1578   0.1999   0.2529  -0.01    1.2
2017/07/23 10:04:17.000   2773768.9727   1652506.5808   5482142.6535   2  17   0.2239   0.1774   0.3726   0.1568   0.1985   0.2511  -0.01    1.2
2017/07/23 10:04:17.200   2773768.9727   1652506.5776   5482142.6450   2  17   0.2226   0.1764   0.3698   0.1557   0.1970   0.2493  -0.01    1.2
2017/07/23 10:04:17.400   2773768.9737   1652506.5742   5482142.6359   2  17   0.2212   0.1755   0.3671   0.1547   0.1956   0.2475  -0.01    1.2
2017/07/23 10:04:17.600   2773768.9779   1652506.5740   5482142.6355   2  17   0.2199   0.1746   0.3645   0.1536   0.1942   0.2458  -0.01    1.3
2017/07/23 10:04:17.800   2773768.9789   1652506.5722   5482142.6243   2  17   0.2185   0.1737   0.3619   0.1526   0.1928   0.2441  -0.01    1.3
2017/07/23 10:04:18.000   2773768.9788   1652506.5705   5482142.6131   2  17   0.2172   0.1728   0.3594   0.1517   0.1915   0.2424  -0.01    1.3
2017/07/23 10:04:18.200   2773768.9831   1652506.5711   5482142.6093   2  17   0.2160   0.1719   0.3569   0.1507   0.1902   0.2408  -0.01    1.3
2017/07/23 10:04:18.400   2773768.9838   1652506.5687   5482142.6014   2  17   0.2147   0.1711   0.3544   0.1497   0.1889   0.2392  -0.01    1.3
2017/07/23 10:04:18.600   2773768.9826   1652506.5668   5482142.5919   2  17   0.2135   0.1702   0.3520   0.1488   0.1876   0.2376  -0.01    1.4
2017/07/23 10:04:18.800   2773768.9844   1652506.5666   5482142.5860   2  17   0.2123   0.1694   0.3497   0.1479   0.1864   0.2360  -0.01    1.4
2017/07/23 10:04:19.000   2773768.9826   1652506.5640   5482142.5715   2  17   0.2111   0.1686   0.3473   0.1470   0.1851   0.2345  -0.01    1.4
2017/07/23 10:04:19.200   2773768.9838   1652506.5652   5482142.5667   2  17   0.2099   0.1677   0.3450   0.1461   0.1839   0.2330  -0.01    1.4
2017/07/23 10:04:19.400   2773768.9853   1652506.5670   5482142.5642   2  17   0.2087   0.1669   0.3427   0.1452   0.1827   0.2315  -0.01    1.4
2017/07/23 10:04:19.600   2773768.9855   1652506.5686   5482142.5601   2  17   0.2076   0.1662   0.3405   0.1443   0.1816   0.2300  -0.01    1.5
2017/07/23 10:04:19.800   2773768.9803   1652506.5672   5482142.5471   2  17   0.2064   0.1654   0.3383   0.1435   0.1804   0.2286  -0.01    1.5
2017/07/23 10:04:20.000   2773768.9757   1652506.5654   5482142.5342   2  17   0.2053   0.1646   0.3361   0.1426   0.1793   0.2272  -0.01    1.5
2017/07/23 10:04:20.200   2773768.9738   1652506.5656   5482142.5266   2  17   0.2042   0.1638   0.3340   0.1418   0.1781   0.2258  -0.01    1.5
2017/07/23 10:04:20.400   2773768.9719   1652506.5656   5482142.5157   2  17   0.2031   0.1631   0.3319   0.1410   0.1770   0.2244  -0.01    1.5
2017/07/23 10:04:20.600   2773768.9713   1652506.5670   5482142.5097   2  17   0.2021   0.1623   0.3298   0.1402   0.1759   0.2230  -0.01    1.5
2017/07/23 10:04:20.800   2773768.9712   1652506.5697   5482142.5101   2  17   0.2010   0.1616   0.3277   0.1394   0.1749   0.2217  -0.01    1.5
2017/07/23 10:04:21.000   2773768.9699   1652506.5717   5482142.5055   2  17   0.2000   0.1609   0.3257   0.1386   0.1738   0.2203  -0.01    1.6
2017/07/23 10:04:21.200   2773768.9679   1652506.5738   5482142.4981   2  17   0.1989   0.1602   0.3237   0.1378   0.1727   0.2190  -0.01    1.6
2017/07/23 10:04:21.400   2773768.9667   1652506.5772   5482142.4917   2  17   0.1979   0.1595   0.3217   0.1370   0.1717   0.2177  -0.01    1.6
2017/07/23 10:04:21.600   2773768.9612   1652506.5769   5482142.4783   2  17   0.1969   0.1588   0.3198   0.1363   0.1707   0.2165  -0.01    1.6
2017/07/23 10:04:21.800   2773768.9527   1652506.5743   5482142.4615   2  17   0.1959   0.1581   0.3179   0.1355   0.1697   0.2152  -0.01    1.6
2017/07/23 10:04:22.000   2773768.9473   1652506.5743   5482142.4488   2  17   0.1949   0.1574   0.3160   0.1348   0.1687   0.2140  -0.01    1.7
2017/07/23 10:04:22.200   2773768.9426   1652506.5746   5482142.4347   2  17   0.1939   0.1567   0.3141   0.1341   0.1677   0.2127  -0.01    1.7
2017/07/23 10:04:22.400   2773768.9361   1652506.5734   5482142.4217   2  17   0.1930   0.1560   0.3122   0.1333   0.1667   0.2115  -0.01    1.7
2017/07/23 10:04:22.600   2773768.9307   1652506.5730   5482142.4117   2  17   0.1920   0.1554   0.3104   0.1326   0.1658   0.2103  -0.01    1.8
2017/07/23 10:04:22.800   2773768.9254   1652506.5727   5482142.4005   2  17   0.1911   0.1547   0.3086   0.1319   0.1648   0.2091  -0.01    1.8
2017/07/23 10:04:23.000   2773768.9218   1652506.5740   5482142.3926   2  17   0.1902   0.1541   0.3068   0.1312   0.1639   0.2080  -0.01    1.8
2017/07/23 10:04:23.200   2773768.9193   1652506.5758   5482142.3881   2  17   0.1892   0.1534   0.3050   0.1305   0.1629   0.2068  -0.01    1.8
2017/07/23 10:04:23.400   2773768.9138   1652506.5757   5482142.3847   2  17   0.1883   0.1528   0.3033   0.1298   0.1620   0.2057  -0.01    1.8
2017/07/23 10:04:23.600   2773768.9095   1652506.5771   5482142.3777   2  17   0.1874   0.1522   0.3015   0.1292   0.1611   0.2045  -0.01    1.8
2017/07/23 10:04:23.800   2773768.9061   1652506.5795   5482142.3754   2  17   0.1865   0.1515   0.2998   0.1285   0.1602   0.2034  -0.01    1.9
2017/07/23 10:04:24.000   2773768.9030   1652506.5822   5482142.3710   2  17   0.1856   0.1509   0.2981   0.1278   0.1593   0.2023  -0.01    1.9
2017/07/23 10:04:24.200   2773768.9007   1652506.5857   5482142.3665   2  17   0.1848   0.1503   0.2964   0.1272   0.1585   0.2012  -0.01    1.9
2017/07/23 10:04:24.400   2773768.8971   1652506.5869   5482142.3592   2  17   0.1839   0.1497   0.2948   0.1265   0.1576   0.2001  -0.01    1.9
2017/07/23 10:04:24.600   2773768.8941   1652506.5909   5482142.3566   2  17   0.1830   0.1491   0.2931   0.1259   0.1567   0.1990  -0.01    1.9
2017/07/23 10:04:24.800   2773768.8883   1652506.5925   5482142.3484   2  17   0.1822   0.1485   0.2915   0.1253   0.1559   0.1980  -0.01    1.9
2017/07/23 10:04:25.000   2773768.8831   1652506.5943   5482142.3454   2  17   0.1814   0.1479   0.2899   0.1246   0.1550   0.1969  -0.01    1.9
2017/07/23 10:04:25.200   2773768.8798   1652506.5987   5482142.3444   2  17   0.1805   0.1473   0.2883   0.1240   0.1542   0.1959  -0.01    1.9
2017/07/23 10:04:25.400   2773768.8754   1652506.6031   5482142.3411   2  17   0.1797   0.1468   0.2867   0.1234   0.1534   0.1949  -0.01    1.9
2017/07/23 10:04:25.600   2773768.8719   1652506.6071   5482142.3364   2  17   0.1789   0.1462   0.2851   0.1228   0.1526   0.1938  -0.01    1.9
2017/07/23 10:04:25.800   2773768.8676   1652506.6114   5482142.3294   2  17   0.1781   0.1456   0.2836   0.1222   0.1518   0.1928  -0.01    1.9
2017/07/23 10:04:26.000   2773768.8649   1652506.6168   5482142.3272   2  17   0.1773   0.1451   0.2821   0.1216   0.1510   0.1918  -0.01    1.9
2017/07/23 10:04:26.200   2773768.8623   1652506.6199   5482142.3206   2  17   0.1765   0.1445   0.2805   0.1210   0.1502   0.1909  -0.01    1.9
2017/07/23 10:04:26.400   2773768.8607   1652506.6241   5482142.3170   2  17   0.1757   0.1440   0.2790   0.1204   0.1494   0.1899  -0.01    1.9
2017/07/23 10:04:26.600   2773768.8560   1652506.6256   5482142.3056   2  17   0.1749   0.1434   0.2776   0.1198   0.1486   0.1889  -0.01    2.0
2017/07/23 10:04:26.800   2773768.8516   1652506.6273   5482142.2954   2  17   0.1741   0.1429   0.2761   0.1193   0.1479   0.1879  -0.01    2.0
2017/07/23 10:04:27.000   2773768.8457   1652506.6273   5482142.2826   2  17   0.1734   0.1423   0.2746   0.1187   0.1471   0.1870  -0.01    2.0
2017/07/23 10:04:27.200   2773768.8423   1652506.6292   5482142.2752   2  17   0.1726   0.1418   0.2732   0.1181   0.1463   0.1861  -0.01    2.0
2017/07/23 10:04:27.400   2773768.8385   1652506.6314   5482142.2680   2  17   0.1719   0.1413   0.2717   0.1176   0.1456   0.1851  -0.01    2.0
2017/07/23 10:04:27.600   2773768.8321   1652506.6319   5482142.2546   2  17   0.1711   0.1407   0.2703   0.1170   0.1449   0.1842  -0.01    2.0
2017/07/23 10:04:27.800   2773768.8273   1652506.6330   5482142.2416   2  17   0.1704   0.1402   0.2689   0.1164   0.1441   0.1833  -0.01    2.1
2017/07/23 10:04:28.000   2773768.8237   1652506.6339   5482142.2290   2  17   0.1696   0.1397   0.2675   0.1159   0.1434   0.1824  -0.01    2.1
2017/07/23 10:04:28.200   2773768.8180   1652506.6337   5482142.2152   2  17   0.1689   0.1392   0.2661   0.1154   0.1427   0.1815  -0.01    2.1
2017/07/23 10:04:28.400   2773768.8149   1652506.6355   5482142.2033   2  17   0.1682   0.1387   0.2647   0.1148   0.1420   0.1806  -0.01    2.2
2017/07/23 10:04:28.600   2773768.8112   1652506.6367   5482142.1886   2  17   0.1675   0.1382   0.2634   0.1143   0.1413   0.1797  -0.01    2.2
2017/07/23 10:04:28.800   2773768.8078   1652506.6378   5482142.1790   2  17   0.1668   0.1377   0.2620   0.1138   0.1405   0.1788  -0.01    2.2
2017/07/23 10:04:29.000   2773768.8077   1652506.6415   5482142.1765   2  17   0.1661   0.1372   0.2607   0.1132   0.1399   0.1780  -0.01    2.2
2017/07/23 10:04:29.200   2773768.8042   1652506.6428   5482142.1661   2  17   0.1654   0.1367   0.2594   0.1127   0.1392   0.1771  -0.01    2.2
2017/07/23 10:04:29.400   2773768.8057   1652506.6468   5482142.1657   2  17   0.1647   0.1362   0.2581   0.1122   0.1385   0.1762  -0.01    2.3
2017/07/23 10:04:29.600   2773768.8032   1652506.6485   5482142.1551   2  17   0.1640   0.1357   0.2567   0.1117   0.1378   0.1754  -0.01    2.3
2017/07/23 10:04:29.800   2773768.8014   1652506.6516   5482142.1501   2  17   0.1633   0.1353   0.2555   0.1112   0.1371   0.1746  -0.01    2.3
2017/07/23 10:04:30.000   2773768.7984   1652506.6543   5482142.1398   2  17   0.1626   0.1348   0.2542   0.1107   0.1365   0.1737  -0.01    2.4
2017/07/23 10:04:30.200   2773768.7934   1652506.6558   5482142.1286   2  17   0.1620   0.1343   0.2529   0.1102   0.1358   0.1729  -0.01    2.4
2017/07/23 10:04:30.400   2773768.7898   1652506.6588   5482142.1190   2  17   0.1613   0.1339   0.2516   0.1097   0.1352   0.1721  -0.01    2.4
2017/07/23 10:04:30.600   2773768.7866   1652506.6613   5482142.1106   2  17   0.1606   0.1334   0.2504   0.1092   0.1345   0.1713  -0.01    2.5
2017/07/23 10:04:30.800   2773768.7838   1652506.6643   5482142.1012   2  17   0.1600   0.1329   0.2491   0.1087   0.1339   0.1705  -0.01    2.5
2017/07/23 10:04:31.000   2773768.7806   1652506.6674   5482142.0908   2  17   0.1593   0.1325   0.2479   0.1082   0.1332   0.1697  -0.01    2.6
2017/07/23 10:04:31.200   2773768.7805   1652506.6728   5482142.0863   2  17   0.1587   0.1320   0.2467   0.1078   0.1326   0.1689  -0.01    2.6
2017/07/23 10:04:31.400   2773768.7791   1652506.6779   5482142.0783   2  17   0.1580   0.1316   0.2455   0.1073   0.1320   0.1681  -0.01    2.6
2017/07/23 10:04:31.600   2773768.7723   1652506.6788   5482142.0599   2  17   0.1574   0.1311   0.2443   0.1068   0.1313   0.1673  -0.01    2.7
2017/07/23 10:04:31.800   2773768.7669   1652506.6808   5482142.0458   2  17   0.1568   0.1307   0.2431   0.1063   0.1307   0.1665  -0.01    2.8
2017/07/23 10:04:32.000   2773768.7604   1652506.6821   5482142.0303   2  17   0.1561   0.1302   0.2419   0.1059   0.1301   0.1658  -0.01    2.8
2017/07/23 10:04:32.200   2773768.7571   1652506.6856   5482142.0235   2  17   0.1555   0.1298   0.2407   0.1054   0.1295   0.1650  -0.01    2.9
2017/07/23 10:04:32.400   2773768.7485   1652506.6859   5482142.0055   2  17   0.1549   0.1294   0.2395   0.1049   0.1289   0.1643  -0.01    3.0
2017/07/23 10:04:32.600   2773768.7648   1652506.4531   5482141.3166   1  17   0.0013   0.0010   0.0027   0.0010   0.0014   0.0017  -0.01    3.0
2017/07/23 10:04:32.800   2773768.7647   1652506.4531   5482141.3165   1  17   0.0013   0.0010   0.0027   0.0010   0.0014   0.0017  -0.01    3.1
2017/07/23 10:04:33.000   2773768.7647   1652506.4530   5482141.3164   1  17   0.0013   0.0010   0.0027   0.0010   0.0014   0.0017  -0.01    3.1
2017/07/23 10:04:33.200   2773768.7646   1652506.4530   5482141.3164   1  17   0.0013   0.0010   0.0027   0.0010   0.0014   0.0017  -0.01    3.2
2017/07/23 10:04:33.400   2773768.7646   1652506.4530   5482141.3162   1  17   0.0013   0.0010   0.0026   0.0010   0.0014   0.0017  -0.01    3.2
2017/07/23 10:04:33.600   2773768.7645   1652506.4530   5482141.3162   1  17   0.0013   0.0010   0.0026   0.0010   0.0014   0.0017  -0.01    3.3
2017/07/23 10:04:33.800   2773768.7644   1652506.4529   5482141.3161   1  17   0.0013   0.0010   0.0026   0.0010   0.0014   0.0017  -0.01    3.3
2017/07/23 10:04:34.000   2773768.7644   1652506.4529   5482141.3160   1  17   0.0012   0.0009   0.0026   0.0010   0.0014   0.0017  -0.01    3.3
2017/07/23 10:04:34.200   2773768.7644   1652506.4529   5482141.3160   1  17   0.0012   0.0009   0.0026   0.0010   0.0014   0.0017  -0.01    3.4
2017/07/23 10:04:34.400   2773768.7643   1652506.4528   5482141.3159   1  17   0.0012   0.0009   0.0026   0.0010   0.0014   0.0017  -0.01    3.5
2017/07/23 10:04:34.600   2773768.7642   1652506.4528   5482141.3158   1  17   0.0012   0.0009   0.0026   0.0010   0.0014   0.0017  -0.01    3.5
2017/07/23 10:04:34.800   2773768.7642   1652506.4528   5482141.3158   1  17   0.0012   0.0009   0.0026   0.0010   0.0014   0.0017  -0.01    3.5
2017/07/23 10:04:35.000   2773768.7642   1652506.4527   5482141.3157   1  17   0.0012   0.0009   0.0026   0.0010   0.0014   0.0016  -0.01    3.6
2017/07/23 10:04:35.200   2773768.7641   1652506.4527   5482141.3156   1  17   0.0012   0.0009   0.0026   0.0010   0.0014   0.0016  -0.01    3.6
2017/07/23 10:04:35.400   2773768.7640   1652506.4526   5482141.3154   1  17   0.0012   0.0009   0.0026   0.0010   0.0014   0.0016  -0.01    3.6
2017/07/23 10:04:35.600   2773768.7640   1652506.4526   5482141.3154   1  17   0.0012   0.0009   0.0026   0.0010   0.0014   0.0016  -0.01    3.7
2017/07/23 10:04:35.800   2773768.7639   1652506.4525   5482141.3153   1  17   0.0012   0.0009   0.0026   0.0009   0.0014   0.0016  -0.01    3.7
2017/07/23 10:04:36.000   2773768.7638   1652506.4525   5482141.3151   1  17   0.0012   0.0009   0.0025   0.0009   0.0014   0.0016  -0.01    3.8
2017/07/23 10:04:36.200   2773768.7638   1652506.4524   5482141.3150   1  17   0.0012   0.0009   0.0025   0.0009   0.0014   0.0016  -0.01    3.8
2017/07/23 10:04:36.400   2773768.7637   1652506.4524   5482141.3150   1  17   0.0012   0.0009   0.0025   0.0009   0.0014   0.0016  -0.01    3.8
2017/07/23 10:04:36.600   2773768.7637   1652506.4524   5482141.3149   1  17   0.0012   0.0009   0.0025   0.0009   0.0014   0.0016  -0.01    3.9
2017/07/23 10:04:36.800   2773768.7637   1652506.4523   5482141.3148   1  17   0.0012   0.0009   0.0025   0.0009   0.0014   0.0016  -0.01    3.9
2017/07/23 10:04:37.000   2773768.7636   1652506.4523   5482141.3148   1  17   0.0012   0.0009   0.0025   0.0009   0.0014   0.0016  -0.01    3.9
2017/07/23 10:04:37.200   2773768.7636   1652506.4523   5482141.3148   1  17   0.0012   0.0009   0.0025   0.0009   0.0014   0.0016  -0.01    3.9
2017/07/23 10:04:37.400   2773768.7636   1652506.4523   5482141.3148   1  17   0.0012   0.0009   0.0025   0.0009   0.0013   0.0016  -0.01    3.9
2017/07/23 10:04:37.600   2773768.7636   1652506.4523   5482141.3148   1  17   0.0012   0.0009   0.0025   0.0009   0.0013   0.0016  -0.01    3.8
2017/07/23 10:04:37.800   2773768.7635   1652506.4523   5482141.3147   1  17   0.0012   0.0009   0.0025   0.0009   0.0013   0.0016  -0.01    3.8
2017/07/23 10:04:38.000   2773768.7635   1652506.4523   5482141.3147   1  17   0.0012   0.0009   0.0025   0.0009   0.0013   0.0016  -0.01    3.8
2017/07/23 10:04:38.200   2773768.7635   1652506.4523   5482141.3146   1  17   0.0012   0.0009   0.0025   0.0009   0.0013   0.0016  -0.01    3.8
2017/07/23 10:04:38.400   2773768.7634   1652506.4522   5482141.3146   1  17   0.0012   0.0009   0.0025   0.0009   0.0013   0.0016  -0.01    3.7
2017/07/23 10:04:38.600   2773768.7634   1652506.4522   5482141.3145   1  17   0.0012   0.0009   0.0025   0.0009   0.0013   0.0016  -0.01    3.7
2017/07/23 10:04:38.800   2773768.7633   1652506.4522   5482141.3145   1  17   0.0012   0.0009   0.0024   0.0009   0.0013   0.0016  -0.01    3.7
2017/07/23 10:04:39.000   2773768.7632   1652506.4522   5482141.3144   1  17   0.0012   0.0009   0.0024   0.0009   0.0013   0.0016  -0.01    3.7
2017/07/23 10:04:39.200   2773768.7632   1652506.4521   5482141.3143   1  17   0.0012   0.0009   0.0024   0.0009   0.0013   0.0016  -0.01    3.7
2017/07/23 10:04:39.400   2773768.7631   1652506.4521   5482141.3142   1  17   0.0012   0.0009   0.0024   0.0009   0.0013   0.0016  -0.01    3.7
2017/07/23 10:04:39.600   2773768.7631   1652506.4521   5482141.3142   1  17   0.0012   0.0009   0.0024   0.0009   0.0013   0.0015  -0.01    3.7
2017/07/23 10:04:39.800   2773768.7630   1652506.4520   5482141.3141   1  17   0.0012   0.0009   0.0024   0.0009   0.0013   0.0015  -0.01    3.6
2017/07/23 10:04:40.000   2773768.7630   1652506.4520   5482141.3140   1  17   0.0012   0.0009   0.0024   0.0009   0.0013   0.0015  -0.01    3.6
2017/07/23 10:04:40.200   2773768.7630   1652506.4520   5482141.3140   1  17   0.0011   0.0009   0.0024   0.0009   0.0013   0.0015  -0.01    3.6
2017/07/23 10:04:40.400   2773768.7629   1652506.4520   5482141.3139   1  17   0.0011   0.0009   0.0024   0.0009   0.0013   0.0015  -0.01    3.6
2017/07/23 10:04:40.600   2773768.7629   1652506.4520   5482141.3139   1  17   0.0011   0.0009   0.0024   0.0009   0.0013   0.0015  -0.01    3.6
2017/07/23 10:04:40.800   2773768.7628   1652506.4520   5482141.3138   1  17   0.0011   0.0009   0.0024   0.0009   0.0013   0.0015  -0.01    3.6
2017/07/23 10:04:41.000   2773768.7628   1652506.4519   5482141.3137   1  17   0.0011   0.0009   0.0024   0.0009   0.0013   0.0015  -0.01    3.6
2017/07/23 10:04:41.200   2773768.7627   1652506.4519   5482141.3136   1  17   0.0011   0.0009   0.0024   0.0009   0.0013   0.0015  -0.01    3.6
2017/07/23 10:04:41.400   2773768.7627   1652506.4519   5482141.3136   1  17   0.0011   0.0009   0.0024   0.0009   0.0013   0.0015  -0.01    3.5
2017/07/23 10:04:41.600   2773768.7626   1652506.4519   5482141.3135   1  17   0.0011   0.0009   0.0024   0.0009   0.0013   0.0015  -0.01    3.5
2017/07/23 10:04:41.800   2773768.7626   1652506.4518   5482141.3135   1  17   0.0011   0.0009   0.0024   0.0009   0.0013   0.0015  -0.01    3.5
2017/07/23 10:04:42.000   2773768.7625   1652506.4518   5482141.3134   1  17   0.0011   0.0009   0.0024   0.0009   0.0013   0.0015  -0.01    3.5
2017/07/23 10:04:42.200   2773768.7625   1652506.4518   5482141.3133   1  17   0.0011   0.0009   0.0023   0.0009   0.0013   0.0015  -0.01    3.5
2017/07/23 10:04:42.400   2773768.7625   1652506.4518   5482141.3133   1  17   0.0011   0.0009   0.0023   0.0009   0.0013   0.0015  -0.01    3.5
2017/07/23 10:04:42.600   2773768.7625   1652506.4517   5482141.3133   1  17   0.0011   0.0009   0.0023   0.0009   0.0013   0.0015  -0.01    3.5
2017/07/23 10:04:42.800   2773768.7625   1652506.4517   5482141.3133   1  17   0.0011   0.0009   0.0023   0.0009   0.0013   0.0015  -0.01    3.5
2017/07/23 10:04:43.000   2773768.7625   1652506.4517   5482141.3133   1  17   0.0011   0.0008   0.0023   0.0009   0.0013   0.0015  -0.01    3.5
2017/07/23 10:04:43.200   2773768.7624   1652506.4517   5482141.3132   1  17   0.0011   0.0008   0.0023   0.0009   0.0013   0.0015  -0.01    3.5
2017/07/23 10:04:43.400   2773768.7624   1652506.4517   5482141.3132   1  17   0.0011   0.0008   0.0023   0.0009   0.0012   0.0015  -0.01    3.5
2017/07/23 10:04:43.600   2773768.7624   1652506.4517   5482141.3132   1  17   0.0011   0.0008   0.0023   0.0009   0.0012   0.0015  -0.01    3.4
2017/07/23 10:04:43.800   2773768.7624   1652506.4517   5482141.3131   1  17   0.0011   0.0008   0.0023   0.0009   0.0012   0.0015  -0.01    3.4
2017/07/23 10:04:44.000   2773768.7623   1652506.4516   5482141.3131   1  17   0.0011   0.0008   0.0023   0.0009   0.0012   0.0015  -0.01    3.4
2017/07/23 10:04:44.200   2773768.7623   1652506.4516   5482141.3130   1  17   0.0011   0.0008   0.0023   0.0009   0.0012   0.0015  -0.01    3.4
2017/07/23 10:04:44.400   2773768.7622   1652506.4516   5482141.3129   1  17   0.0011   0.0008   0.0023   0.0009   0.0012   0.0015  -0.01    3.4
2017/07/23 10:04:44.600   2773768.7622   1652506.4516   5482141.3129   1  17   0.0011   0.0008   0.0023   0.0009   0.0012   0.0015  -0.01    3.4
2017/07/23 10:04:44.800   2773768.7622   1652506.4515   5482141.3129   1  17   0.0011   0.0008   0.0023   0.0008   0.0012   0.0015  -0.01    3.3
2017/07/23 10:04:45.000   2773768.7622   1652506.4515   5482141.3129   1  17   0.0011   0.0008   0.0023   0.0008   0.0012   0.0015  -0.01    3.3
2017/07/23 10:04:45.200   2773768.7622   1652506.4515   5482141.3129   1  17   0.0011   0.0008   0.0023   0.0008   0.0012   0.0014  -0.01    3.3
2017/07/23 10:04:45.400   2773768.7622   1652506.4515   5482141.3129   1  17   0.0011   0.0008   0.0023   0.0008   0.0012   0.0014  -0.01    3.2
2017/07/23 10:04:45.600   2773768.7622   1652506.4515   5482141.3128   1  17   0.0011   0.0008   0.0023   0.0008   0.0012   0.0014  -0.01    3.2
2017/07/23 10:04:45.800   2773768.7621   1652506.4515   5482141.3128   1  17   0.0011   0.0008   0.0023   0.0008   0.0012   0.0014  -0.01    3.2
2017/07/23 10:04:46.000   2773768.7621   1652506.4514   5482141.3127   1  17   0.0011   0.0008   0.0022   0.0008   0.0012   0.0014  -0.01    3.2
2017/07/23 10:04:46.200   2773768.7621   1652506.4514   5482141.3127   1  17   0.0011   0.0008   0.0022   0.0008   0.0012   0.0014  -0.01    3.1
2017/07/23 10:04:46.400   2773768.7621   1652506.4514   5482141.3127   1  17   0.0011   0.0008   0.0022   0.0008   0.0012   0.0014  -0.01    3.1
2017/07/23 10:04:46.600   2773768.7621   1652506.4514   5482141.3127   1  17   0.0011   0.0008   0.0022   0.0008   0.0012   0.0014  -0.01    3.1
2017/07/23 10:04:46.800   2773768.7621   1652506.4514   5482141.3127   1  17   0.0011   0.0008   0.0022   0.0008   0.0012   0.0014  -0.01    3.1
2017/07/23 10:04:47.000   2773768.7620   1652506.4514   5482141.3127   1  17   0.0011   0.0008   0.0022   0.0008   0.0012   0.0014  -0.01    3.1
2017/07/23 10:04:47.200   2773768.7620   1652506.4514   5482141.3127   1  17   0.0011   0.0008   0.0022   0.0008   0.0012   0.0014  -0.01    3.1
2017/07/23 10:04:47.400   2773768.7620   1652506.4514   5482141.3126   1  17   0.0011   0.0008   0.0022   0.0008   0.0012   0.0014  -0.01    3.0
2017/07/23 10:04:47.600   2773768.7620   1652506.4514   5482141.3126   1  17   0.0011   0.0008   0.0022   0.0008   0.0012   0.0014  -0.01    3.0
2017/07/23 10:04:47.800   2773768.7619   1652506.4514   5482141.3126   1  17   0.0011   0.0008   0.0022   0.0008   0.0012   0.0014  -0.01    3.1
2017/07/23 10:04:48.000   2773768.7619   1652506.4513   5482141.3125   1  17   0.0011   0.0008   0.0022   0.0008   0.0012   0.0014  -0.01    3.0
2017/07/23 10:04:48.200   2773768.7619   1652506.4513   5482141.3125   1  17   0.0010   0.0008   0.0022   0.0008   0.0012   0.0014  -0.01    3.0
2017/07/23 10:04:48.400   2773768.7937   1652506.7796   5482141.9279   2  17   0.1162   0.1022   0.1683   0.0763   0.0920   0.1182  -0.01    3.0
2017/07/23 10:04:48.600   2773768.7981   1652506.7829   5482141.9316   2  17   0.1158   0.1019   0.1676   0.0761   0.0917   0.1177  -0.01    3.0
2017/07/23 10:04:48.800   2773768.8034   1652506.7870   5482141.9351   2  17   0.1154   0.1017   0.1670   0.0758   0.0913   0.1173  -0.01    2.9
2017/07/23 10:04:49.000   2773768.8068   1652506.7906   5482141.9385   2  17   0.1150   0.1014   0.1663   0.0755   0.0910   0.1169  -0.01    2.9
2017/07/23 10:04:49.200   2773768.8112   1652506.7953   5482141.9430   2  17   0.1146   0.1011   0.1656   0.0752   0.0906   0.1164  -0.01    2.9
2017/07/23 10:04:49.400   2773768.8131   1652506.7973   5482141.9406   2  17   0.1143   0.1009   0.1650   0.0750   0.0903   0.1160  -0.01    2.9
2017/07/23 10:04:49.600   2773768.8178   1652506.8011   5482141.9437   2  17   0.1139   0.1006   0.1643   0.0747   0.0900   0.1156  -0.01    2.9
2017/07/23 10:04:49.800   2773768.8205   1652506.8040   5482141.9422   2  17   0.1135   0.1004   0.1636   0.0744   0.0896   0.1152  -0.01    2.9
2017/07/23 10:04:50.000   2773768.8248   1652506.8081   5482141.9445   2  17   0.1131   0.1001   0.1630   0.0741   0.0893   0.1147  -0.01    2.8
2017/07/23 10:04:50.200   2773768.8288   1652506.8124   5482141.9469   2  17   0.1128   0.0998   0.1623   0.0739   0.0889   0.1143  -0.01    2.8
2017/07/23 10:04:50.400   2773768.8328   1652506.8161   5482141.9486   2  17   0.1124   0.0996   0.1617   0.0736   0.0886   0.1139  -0.01    2.8
2017/07/23 10:04:50.600   2773768.8381   1652506.8210   5482141.9544   2  17   0.1120   0.0993   0.1611   0.0733   0.0883   0.1135  -0.01    2.8
2017/07/23 10:04:50.800   2773768.8417   1652506.8250   5482141.9562   2  17   0.1117   0.0991   0.1604   0.0731   0.0879   0.1131  -0.01    2.8
2017/07/23 10:04:51.000   2773768.8454   1652506.8293   5482141.9620   2  17   0.1113   0.0988   0.1598   0.0728   0.0876   0.1127  -0.01    2.7
2017/07/23 10:04:51.200   2773768.8480   1652506.8330   5482141.9658   2  17   0.1110   0.0986   0.1592   0.0725   0.0873   0.1122  -0.01    2.7
2017/07/23 10:04:51.400   2773768.8513   1652506.8372   5482141.9690   2  17   0.1106   0.0983   0.1585   0.0723   0.0870   0.1118  -0.01    2.7
2017/07/23 10:04:51.600   2773768.8545   1652506.8413   5482141.9712   2  17   0.1103   0.0981   0.1579   0.0720   0.0866   0.1114  -0.01    2.7
2017/07/23 10:04:51.800   2773768.8571   1652506.8454   5482141.9758   2  17   0.1099   0.0978   0.1573   0.0718   0.0863   0.1110  -0.01    2.7
2017/07/23 10:04:52.000   2773768.8577   1652506.8480   5482141.9764   2  17   0.1095   0.0976   0.1567   0.0715   0.0860   0.1106  -0.01    2.7
2017/07/23 10:04:52.200   2773768.8597   1652506.8519   5482141.9800   2  17   0.1092   0.0973   0.1561   0.0712   0.0857   0.1102  -0.01    2.6
2017/07/23 10:04:52.400   2773768.8627   1652506.8568   5482141.9845   2  17   0.1088   0.0971   0.1555   0.0710   0.0854   0.1098  -0.01    2.6
2017/07/23 10:04:52.600   2773768.8640   1652506.8600   5482141.9883   2  17   0.1085   0.0968   0.1549   0.0707   0.0851   0.1094  -0.01    2.6
2017/07/23 10:04:52.800   2773768.8647   1652506.8627   5482141.9906   2  17   0.1082   0.0966   0.1543   0.0705   0.0847   0.1090  -0.01    2.6
2017/07/23 10:04:53.000   2773768.8650   1652506.8654   5482141.9938   2  17   0.1078   0.0964   0.1537   0.0702   0.0844   0.1087  -0.01    2.5
2017/07/23 10:04:53.200   2773768.8644   1652506.8677   5482141.9962   2  17   0.1075   0.0961   0.1531   0.0700   0.0841   0.1083  -0.01    2.5
2017/07/23 10:04:53.400   2773768.8648   1652506.8703   5482142.0006   2  17   0.1071   0.0959   0.1525   0.0697   0.0838   0.1079  -0.01    2.5
2017/07/23 10:04:53.600   2773768.8648   1652506.8726   5482142.0047   2  17   0.1068   0.0956   0.1519   0.0695   0.0835   0.1075  -0.01    2.5
2017/07/23 10:04:53.800   2773768.8651   1652506.8751   5482142.0100   2  17   0.1065   0.0954   0.1513   0.0692   0.0832   0.1071  -0.01    2.4
2017/07/23 10:04:54.000   2773768.8633   1652506.8760   5482142.0100   2  17   0.1061   0.0952   0.1508   0.0690   0.0829   0.1067  -0.01    2.4
2017/07/23 10:04:54.200   2773768.8615   1652506.8781   5482142.0099   2  17   0.1058   0.0949   0.1502   0.0687   0.0826   0.1064  -0.01    2.4
2017/07/23 10:04:54.400   2773768.8608   1652506.8812   5482142.0120   2  17   0.1055   0.0947   0.1496   0.0685   0.0823   0.1060  -0.01    2.4
2017/07/23 10:04:54.600   2773768.8633   1652506.8856   5482142.0176   2  17   0.1051   0.0945   0.1490   0.0683   0.0820   0.1056  -0.01    2.4
2017/07/23 10:04:54.800   2773768.8630   1652506.8884   5482142.0196   2  17   0.1048   0.0942   0.1485   0.0680   0.0817   0.1053  -0.01    2.4
2017/07/23 10:04:55.000   2773768.8633   1652506.8912   5482142.0212   2  17   0.1045   0.0940   0.1479   0.0678   0.0814   0.1049  -0.01    2.4
2017/07/23 10:04:55.200   2773768.8650   1652506.8948   5482142.0259   2  17   0.1041   0.0938   0.1473   0.0675   0.0811   0.1045  -0.01    2.3
2017/07/23 10:04:55.400   2773768.8671   1652506.8989   5482142.0318   2  17   0.1038   0.0936   0.1468   0.0673   0.0808   0.1042  -0.01    2.3
2017/07/23 10:04:55.600   2773768.8666   1652506.9015   5482142.0337   2  17   0.1035   0.0933   0.1462   0.0671   0.0805   0.1038  -0.01    2.3
2017/07/23 10:04:55.800   2773768.8684   1652506.9054   5482142.0382   2  17   0.1032   0.0931   0.1457   0.0668   0.0803   0.1034  -0.01    2.3
2017/07/23 10:04:56.000   2773768.8698   1652506.9085   5482142.0424   2  17   0.1029   0.0929   0.1451   0.0666   0.0800   0.1031  -0.01    2.2
2017/07/23 10:04:56.200   2773768.8708   1652506.9109   5482142.0483   2  17   0.1025   0.0927   0.1446   0.0664   0.0797   0.1027  -0.01    2.2
2017/07/23 10:04:56.400   2773768.8715   1652506.9141   5482142.0535   2  17   0.1022   0.0924   0.1441   0.0661   0.0794   0.1024  -0.01    2.2
2017/07/23 10:04:56.600   2773768.8718   1652506.9164   5482142.0570   2  17   0.1019   0.0922   0.1435   0.0659   0.0791   0.1020  -0.01    2.2
2017/07/23 10:04:56.800   2773768.8735   1652506.9200   5482142.0618   2  17   0.1016   0.0920   0.1430   0.0657   0.0788   0.1017  -0.01    2.2
2017/07/23 10:04:57.000   2773768.8755   1652506.9233   5482142.0676   2  17   0.1013   0.0918   0.1425   0.0654   0.0786   0.1013  -0.01    2.1
2017/07/23 10:04:57.200   2773768.8772   1652506.9266   5482142.0740   2  17   0.1010   0.0916   0.1419   0.0652   0.0783   0.1010  -0.01    2.1
2017/07/23 10:04:57.400   2773768.8760   1652506.9278   5482142.0756   2  17   0.1007   0.0913   0.1414   0.0650   0.0780   0.1006  -0.01    2.1
2017/07/23 10:04:57.600   2773768.8762   1652506.9300   5482142.0772   2  17   0.1004   0.0911   0.1409   0.0648   0.0777   0.1003  -0.01    2.1
2017/07/23 10:04:57.800   2773768.8763   1652506.9322   5482142.0799   2  17   0.1000   0.0909   0.1404   0.0645   0.0775   0.0999  -0.01    2.1
2017/07/23 10:04:58.000   2773768.8769   1652506.9353   5482142.0837   2  17   0.0997   0.0907   0.1398   0.0643   0.0772   0.0996  -0.01    2.0
2017/07/23 10:04:58.200   2773768.8775   1652506.9382   5482142.0868   2  17   0.0994   0.0905   0.1393   0.0641   0.0769   0.0992  -0.01    2.0
2017/07/23 10:04:58.400   2773768.8783   1652506.9405   5482142.0902   2  17   0.0991   0.0903   0.1388   0.0639   0.0767   0.0989  -0.01    2.0
2017/07/23 10:04:58.600   2773768.8781   1652506.9421   5482142.0917   2  17   0.0988   0.0900   0.1383   0.0636   0.0764   0.0986  -0.01    2.0
2017/07/23 10:04:58.800   2773768.8797   1652506.9452   5482142.0964   2  17   0.0985   0.0898   0.1378   0.0634   0.0761   0.0982  -0.01    2.0
2017/07/23 10:04:59.000   2773768.8795   1652506.9473   5482142.0980   2  17   0.0982   0.0896   0.1373   0.0632   0.0759   0.0979  -0.01    2.0
2017/07/23 10:04:59.200   2773768.8799   1652506.9491   5482142.1001   2  17   0.0979   0.0894   0.1368   0.0630   0.0756   0.0976  -0.01    2.0
2017/07/23 10:04:59.400   2773768.8785   1652506.9502   5482142.0993   2  17   0.0976   0.0892   0.1363   0.0628   0.0753   0.0973  -0.01    2.0
2017/07/23 10:04:59.600   2773768.8773   1652506.9519   5482142.0992   2  17   0.0974   0.0890   0.1358   0.0626   0.0751   0.0969  -0.01    2.0
2017/07/23 10:04:59.800   2773768.8795   1652506.9564   5482142.1048   2  17   0.0971   0.0888   0.1353   0.0623   0.0748   0.0966  -0.01    1.9
2017/07/23 10:05:00.000   2773768.8770   1652506.9577   5482142.1027   2  17   0.0968   0.0886   0.1348   0.0621   0.0746   0.0963  -0.01    1.9
2017/07/23 10:05:00.200   2773768.8739   1652506.9593   5482142.1026   2  17   0.0965   0.0884   0.1343   0.0619   0.0743   0.0960  -0.01    1.9
2017/07/23 10:05:00.400   2773768.8723   1652506.9621   5482142.1040   2  17   0.0962   0.0882   0.1339   0.0617   0.0741   0.0956  -0.01    1.9
2017/07/23 10:05:00.600   2773768.8698   1652506.9642   5482142.1043   2  17   0.0959   0.0880   0.1334   0.0615   0.0738   0.0953  -0.01    1.9
2017/07/23 10:05:00.800   2773768.8664   1652506.9651   5482142.1056   2  17   0.0956   0.0878   0.1329   0.0613   0.0735   0.0950  -0.01    1.9
2017/07/23 10:05:01.000   2773768.8645   1652506.9663   5482142.1057   2  17   0.0953   0.0876   0.1324   0.0611   0.0733   0.0947  -0.01    1.8
2017/07/23 10:05:01.200   2773768.8617   1652506.9668   5482142.1051   2  17   0.0950   0.0874   0.1320   0.0609   0.0730   0.0944  -0.01    1.8
2017/07/23 10:05:01.400   2773768.8588   1652506.9673   5482142.1031   2  17   0.0948   0.0872   0.1315   0.0607   0.0728   0.0941  -0.01    1.8
2017/07/23 10:05:01.600   2773768.8550   1652506.9670   5482142.1011   2  17   0.0945   0.0870   0.1310   0.0605   0.0726   0.0938  -0.01    1.8
2017/07/23 10:05:01.800   2773768.8524   1652506.9677   5482142.0997   2  17   0.0942   0.0868   0.1305   0.0603   0.0723   0.0934  -0.01    1.8
2017/07/23 10:05:02.000   2773768.8505   1652506.9688   5482142.1009   2  17   0.0939   0.0866   0.1301   0.0601   0.0721   0.0931  -0.01    1.8
2017/07/23 10:05:02.200   2773768.8464   1652506.9686   5482142.0987   2  17   0.0936   0.0864   0.1296   0.0599   0.0718   0.0928  -0.01    1.8
2017/07/23 10:05:02.400   2773768.8436   1652506.9693   5482142.0969   2  17   0.0934   0.0862   0.1292   0.0597   0.0716   0.0925  -0.01    1.7
2017/07/23 10:05:02.600   2773768.8404   1652506.9699   5482142.0977   2  17   0.0931   0.0860   0.1287   0.0594   0.0713   0.0922  -0.01    1.7
2017/07/23 10:05:02.800   2773768.8375   1652506.9706   5482142.0976   2  17   0.0928   0.0858   0.1283   0.0592   0.0711   0.0919  -0.01    1.7
2017/07/23 10:05:03.000   2773768.8350   1652506.9716   5482142.0980   2  17   0.0926   0.0856   0.1278   0.0591   0.0709   0.0916  -0.01    1.7
2017/07/23 10:05:03.200   2773768.8328   1652506.9725   5482142.0976   2  17   0.0923   0.0854   0.1274   0.0589   0.0706   0.0913  -0.01    1.7
2017/07/23 10:05:03.400   2773768.8305   1652506.9737   5482142.0984   2  17   0.0920   0.0852   0.1269   0.0587   0.0704   0.0910  -0.01    1.6
2017/07/23 10:05:03.600   2773768.8268   1652506.9733   5482142.0971   2  17   0.0917   0.0850   0.1265   0.0585   0.0702   0.0907  -0.01    1.6
2017/07/23 10:05:03.800   2773768.8244   1652506.9736   5482142.0966   2  17   0.0915   0.0848   0.1260   0.0583   0.0699   0.0904  -0.01    1.6
2017/07/23 10:05:04.000   2773768.8215   1652506.9742   5482142.0954   2  17   0.0912   0.0846   0.1256   0.0581   0.0697   0.0902  -0.01    1.6
2017/07/23 10:05:04.200   2773768.8176   1652506.9739   5482142.0935   2  17   0.0909   0.0845   0.1252   0.0579   0.0695   0.0899  -0.01    1.6
2017/07/23 10:05:04.400   2773768.8141   1652506.9742   5482142.0920   2  17   0.0907   0.0843   0.1247   0.0577   0.0692   0.0896  -0.01    1.6
2017/07/23 10:05:04.600   2773768.8095   1652506.9733   5482142.0887   2  17   0.0904   0.0841   0.1243   0.0575   0.0690   0.0893  -0.01    1.6
2017/07/23 10:05:04.800   2773768.8070   1652506.9739   5482142.0885   2  17   0.0902   0.0839   0.1239   0.0573   0.0688   0.0890  -0.01    1.5
2017/07/23 10:05:05.000   2773768.8038   1652506.9735   5482142.0868   2  17   0.0899   0.0837   0.1234   0.0571   0.0686   0.0887  -0.01    1.5
2017/07/23 10:05:05.200   2773768.8011   1652506.9731   5482142.0848   2  17   0.0896   0.0835   0.1230   0.0569   0.0683   0.0884  -0.01    1.5
2017/07/23 10:05:05.400   2773768.7991   1652506.9731   5482142.0849   2  17   0.0894   0.0833   0.1226   0.0567   0.0681   0.0882  -0.01    1.5
2017/07/23 10:05:05.600   2773768.7951   1652506.9716   5482142.0826   2  17   0.0891   0.0832   0.1222   0.0565   0.0679   0.0879  -0.01    1.5
2017/07/23 10:05:05.800   2773768.7938   1652506.9717   5482142.0821   2  17   0.0889   0.0830   0.1217   0.0564   0.0677   0.0876  -0.01    1.5
2017/07/23 10:05:06.000   2773768.7896   1652506.9700   5482142.0803   2  17   0.0886   0.0828   0.1213   0.0562   0.0674   0.0873  -0.01    1.5
2017/07/23 10:05:06.200   2773768.7852   1652506.9688   5482142.0780   2  17   0.0883   0.0826   0.1209   0.0560   0.0672   0.0870  -0.01    1.5
2017/07/23 10:05:06.400   2773768.7808   1652506.9683   5482142.0752   2  17   0.0881   0.0824   0.1205   0.0558   0.0670   0.0868  -0.01    1.4
2017/07/23 10:05:06.600   2773768.7767   1652506.9675   5482142.0733   2  17   0.0878   0.0823   0.1201   0.0556   0.0668   0.0865  -0.01    1.4
2017/07/23 10:05:06.800   2773768.7727   1652506.9669   5482142.0709   2  17   0.0876   0.0821   0.1197   0.0554   0.0666   0.0862  -0.01    1.4
2017/07/23 10:05:07.000   2773768.7696   1652506.9673   5482142.0716   2  17   0.0873   0.0819   0.1193   0.0552   0.0664   0.0860  -0.01    1.4
2017/07/23 10:05:07.200   2773768.7652   1652506.9664   5482142.0690   2  17   0.0871   0.0817   0.1189   0.0551   0.0661   0.0857  -0.01    1.4
2017/07/23 10:05:07.400   2773768.7621   1652506.9664   5482142.0690   2  17   0.0868   0.0815   0.1185   0.0549   0.0659   0.0854  -0.01    1.4
2017/07/23 10:05:07.600   2773768.7584   1652506.9663   5482142.0673   2  17   0.0866   0.0814   0.1181   0.0547   0.0657   0.0851  -0.01    1.4
2017/07/23 10:05:07.800   2773768.7563   1652506.9677   5482142.0665   2  17   0.0864   0.0812   0.1177   0.0545   0.0655   0.0849  -0.01    1.3
2017/07/23 10:05:08.000   2773768.7535   1652506.9682   5482142.0660   2  17   0.0861   0.0810   0.1173   0.0544   0.0653   0.0846  -0.01    1.3
2017/07/23 10:05:08.200   2773768.7508   1652506.9686   5482142.0667   2  17   0.0859   0.0808   0.1169   0.0542   0.0651   0.0844  -0.01    1.3
2017/07/23 10:05:08.400   2773768.7465   1652506.9682   5482142.0652   2  17   0.0856   0.0807   0.1165   0.0540   0.0649   0.0841  -0.01    1.3
2017/07/23 10:05:08.600   2773768.7422   1652506.9678   5482142.0634   2  17   0.0854   0.0805   0.1161   0.0538   0.0647   0.0838  -0.01    1.3
2017/07/23 10:05:08.800   2773768.7399   1652506.9686   5482142.0639   2  17   0.0851   0.0803   0.1157   0.0536   0.0645   0.0836  -0.01    1.3
2017/07/23 10:05:09.000   2773768.7373   1652506.9693   5482142.0635   2  17   0.0849   0.0802   0.1153   0.0535   0.0643   0.0833  -0.01    1.3
2017/07/23 10:05:09.200   2773768.7338   1652506.9691   5482142.0620   2  17   0.0847   0.0800   0.1150   0.0533   0.0641   0.0831  -0.01    1.2
2017/07/23 10:05:09.400   2773768.7303   1652506.9687   5482142.0608   2  17   0.0844   0.0798   0.1146   0.0531   0.0638   0.0828  -0.01    1.2
2017/07/23 10:05:09.600   2773768.7275   1652506.9689   5482142.0610   2  17   0.0842   0.0796   0.1142   0.0530   0.0636   0.0825  -0.01    1.2
2017/07/23 10:05:09.800   2773768.7246   1652506.9693   5482142.0594   2  17   0.0840   0.0795   0.1138   0.0528   0.0634   0.0823  -0.01    1.2
2017/07/23 10:05:10.000   2773768.7226   1652506.9702   5482142.0609   2  17   0.0837   0.0793   0.1134   0.0526   0.0632   0.0820  -0.01    1.2
2017/07/23 10:05:10.200   2773768.7205   1652506.9712   5482142.0611   2  17   0.0835   0.0791   0.1131   0.0524   0.0630   0.0818  -0.01    1.2
2017/07/23 10:05:10.400   2773768.7181   1652506.9720   5482142.0615   2  17   0.0833   0.0790   0.1127   0.0523   0.0628   0.0815  -0.01    1.2
2017/07/23 10:05:10.600   2773768.7158   1652506.9730   5482142.0613   2  17   0.0830   0.0788   0.1123   0.0521   0.0627   0.0813  -0.01    1.2
2017/07/23 10:05:10.800   2773768.7134   1652506.9738   5482142.0616   2  17   0.0828   0.0786   0.1120   0.0519   0.0625   0.0810  -0.01    1.2
2017/07/23 10:05:11.000   2773768.7104   1652506.9741   5482142.0604   2  17   0.0826   0.0785   0.1116   0.0518   0.0623   0.0808  -0.01    1.1
