% program   : RTKLIB ver.2.4.3 Emlid
% inp file  : /home/artur/RTKLIB/test/test/static/7_working_village/rover.obs
% inp file  : /home/artur/RTKLIB/test/test/static/7_working_village/base.obs
% inp file  : /home/artur/RTKLIB/test/test/static/7_working_village/rover.nav
% obs start : 2017/07/23 10:35:17.8 GPST (week1959  38117.8s)
% obs end   : 2017/07/23 10:45:29.6 GPST (week1959  38729.6s)
% pos mode  : static
% freqs     : L1
% solution  : forward
% elev mask : 15.0 deg
% dynamics  : on
% tidecorr  : off
% ionos opt : broadcast
% tropo opt : est ztd
% ephemeris : broadcast
% navi sys  : gps glonass galileo qzss beidou sbas
% amb res   : continuous
% amb glo   : off
% val thres : 3.0
% antenna1  :                       ( 0.0000  0.0000  0.0000)
% antenna2  :                       ( 0.0000  0.0000  0.0000)
% ref pos   :  2773909.8712  1654076.4507  5481627.6877
%
% (x/y/z-ecef=WGS84,Q=1:fix,2:float,3:sbas,4:dgps,5:single,6:ppp,ns=# of satellites)
%  GPST                      x-ecef(m)      y-ecef(m)      z-ecef(m)   Q  ns   sdx(m)   sdy(m)   sdz(m)  sdxy(m)  sdyz(m)  sdzx(m) age(s)  ratio
2017/07/23 10:35:17.800   2774439.7387   1653824.6603   5481438.3100   2  10   2.7282   2.0356   3.6119   1.8342   1.9676   2.5249  -0.01    0.0
2017/07/23 10:35:18.000   2774439.6311   1653824.5626   5481438.1537   2  10   2.0429   1.5056   2.7019   1.3632   1.4594   1.8907  -0.01    0.0
2017/07/23 10:35:18.200   2774439.5859   1653824.5019   5481438.1075   2  10   1.7117   1.2521   2.2783   1.1397   1.2247   1.5952  -0.01    0.0
2017/07/23 10:35:18.400   2774439.5600   1653824.4830   5481438.0430   2  10   1.5080   1.0967   2.0235   1.0035   1.0837   1.4173  -0.01    0.0
2017/07/23 10:35:18.600   2774439.5592   1653824.5079   5481438.0101   2  10   1.3671   0.9890   1.8501   0.9097   0.9878   1.2963  -0.01    0.0
2017/07/23 10:35:18.800   2774439.5898   1653824.5404   5481438.0150   2  10   1.2624   0.9090   1.7229   0.8403   0.9175   1.2075  -0.01    0.0
2017/07/23 10:35:19.000   2774439.6078   1653824.5729   5481437.9955   2  10   1.1809   0.8465   1.6250   0.7864   0.8633   1.1392  -0.01    0.0
2017/07/23 10:35:19.200   2774439.5976   1653824.5683   5481437.9441   2  10   1.1151   0.7960   1.5469   0.7430   0.8200   1.0847  -0.01    0.0
2017/07/23 10:35:19.400   2774439.6030   1653824.5614   5481437.9249   2  10   1.0608   0.7541   1.4829   0.7072   0.7845   1.0400  -0.01    0.0
2017/07/23 10:35:19.600   2774439.6124   1653824.5467   5481437.9090   2  10   1.0149   0.7187   1.4293   0.6771   0.7547   1.0026  -0.01    0.0
2017/07/23 10:35:19.800   2774439.6100   1653824.5280   5481437.8765   2  10   0.9755   0.6882   1.3837   0.6512   0.7294   0.9708  -0.01    0.0
2017/07/23 10:35:20.000   2774439.6077   1653824.5039   5481437.8414   2  10   0.9413   0.6616   1.3444   0.6288   0.7075   0.9433  -0.01    0.0
2017/07/23 10:35:20.200   2774439.6068   1653824.4890   5481437.8089   2  10   0.9113   0.6382   1.3100   0.6091   0.6884   0.9193  -0.01    0.0
2017/07/23 10:35:20.400   2774439.5980   1653824.4716   5481437.7763   2  10   0.8846   0.6174   1.2796   0.5916   0.6715   0.8982  -0.01    0.0
2017/07/23 10:35:20.600   2774439.5682   1653824.4384   5481437.7302   2  10   0.8607   0.5987   1.2526   0.5760   0.6564   0.8793  -0.01    0.0
2017/07/23 10:35:20.800   2774439.5350   1653824.4048   5481437.6720   2  10   0.8392   0.5819   1.2284   0.5620   0.6429   0.8624  -0.01    0.0
2017/07/23 10:35:21.000   2774439.5037   1653824.3707   5481437.6177   2  10   0.8196   0.5665   1.2065   0.5493   0.6307   0.8472  -0.01    0.0
2017/07/23 10:35:21.200   2774439.4865   1653824.3347   5481437.5692   2  10   0.8018   0.5525   1.1866   0.5377   0.6197   0.8333  -0.01    0.0
2017/07/23 10:35:21.400   2774439.4658   1653824.2998   5481437.5280   2  10   0.7855   0.5396   1.1684   0.5270   0.6095   0.8207  -0.01    0.0
2017/07/23 10:35:21.600   2774439.4537   1653824.2676   5481437.4920   2  10   0.7705   0.5278   1.1517   0.5172   0.6002   0.8091  -0.01    0.0
2017/07/23 10:35:21.800   2774439.4552   1653824.2464   5481437.4827   2  10   0.7566   0.5168   1.1364   0.5082   0.5917   0.7983  -0.01    0.0
2017/07/23 10:35:22.000   2774439.4517   1653824.2204   5481437.4747   2  10   0.7437   0.5065   1.1221   0.4998   0.5837   0.7884  -0.01    0.0
2017/07/23 10:35:22.200   2774439.4476   1653824.2019   5481437.4559   2  10   0.7317   0.4970   1.1088   0.4920   0.5764   0.7792  -0.01    0.0
2017/07/23 10:35:22.400   2774439.4458   1653824.1841   5481437.4479   2  10   0.7204   0.4881   1.0964   0.4847   0.5695   0.7705  -0.01    0.0
2017/07/23 10:35:22.600   2774439.4552   1653824.1747   5481437.4451   2  10   0.7099   0.4797   1.0848   0.4779   0.5630   0.7625  -0.01    0.0
2017/07/23 10:35:22.800   2774439.4693   1653824.1722   5481437.4581   2  10   0.7000   0.4719   1.0739   0.4715   0.5570   0.7549  -0.01    0.0
2017/07/23 10:35:23.000   2774439.4888   1653824.1740   5481437.4878   2  10   0.6907   0.4645   1.0636   0.4655   0.5513   0.7477  -0.01    0.0
2017/07/23 10:35:23.200   2774439.4913   1653824.1621   5481437.4963   2  10   0.6819   0.4575   1.0539   0.4598   0.5459   0.7410  -0.01    0.0
2017/07/23 10:35:23.400   2774439.4924   1653824.1496   5481437.5012   2  10   0.6736   0.4508   1.0446   0.4544   0.5408   0.7345  -0.01    0.0
2017/07/23 10:35:23.600   2774439.4872   1653824.1362   5481437.4907   2  10   0.6657   0.4445   1.0358   0.4493   0.5360   0.7284  -0.01    0.0
2017/07/23 10:35:23.800   2774439.4829   1653824.1195   5481437.4740   2  10   0.6581   0.4385   1.0275   0.4444   0.5314   0.7226  -0.01    0.0
2017/07/23 10:35:24.000   2774439.4802   1653824.1017   5481437.4752   2  10   0.6510   0.4328   1.0195   0.4398   0.5270   0.7171  -0.01    0.0
2017/07/23 10:35:24.200   2774439.4805   1653824.0878   5481437.4715   2  10   0.6441   0.4274   1.0118   0.4353   0.5228   0.7118  -0.01    0.0
2017/07/23 10:35:24.400   2774439.4864   1653824.0732   5481437.4758   2  10   0.6376   0.4222   1.0045   0.4311   0.5187   0.7067  -0.01    0.0
2017/07/23 10:35:24.600   2774439.4838   1653824.0551   5481437.4696   2  10   0.6314   0.4173   0.9974   0.4271   0.5149   0.7018  -0.01    0.0
2017/07/23 10:35:24.800   2774439.4848   1653824.0397   5481437.4603   2  10   0.6254   0.4125   0.9906   0.4232   0.5112   0.6971  -0.01    0.0
2017/07/23 10:35:25.000   2774439.4869   1653824.0256   5481437.4525   2  10   0.6196   0.4079   0.9841   0.4195   0.5076   0.6925  -0.01    0.0
2017/07/23 10:35:25.200   2774439.4903   1653824.0096   5481437.4470   2  10   0.6141   0.4036   0.9777   0.4159   0.5042   0.6881  -0.01    0.0
2017/07/23 10:35:25.400   2774439.4859   1653823.9954   5481437.4353   2  10   0.6087   0.3994   0.9716   0.4124   0.5008   0.6838  -0.01    0.0
2017/07/23 10:35:25.600   2774439.4852   1653823.9867   5481437.4249   2  10   0.6036   0.3953   0.9656   0.4091   0.4976   0.6797  -0.01    0.0
2017/07/23 10:35:25.800   2774439.4942   1653823.9849   5481437.4240   2  10   0.5986   0.3914   0.9599   0.4059   0.4945   0.6757  -0.01    0.0
2017/07/23 10:35:26.000   2774439.5094   1653823.9867   5481437.4362   2  10   0.5938   0.3876   0.9542   0.4028   0.4915   0.6718  -0.01    0.0
2017/07/23 10:35:26.200   2774439.5225   1653823.9852   5481437.4471   2  10   0.5892   0.3840   0.9488   0.3998   0.4885   0.6680  -0.01    0.0
2017/07/23 10:35:26.400   2774439.5359   1653823.9824   5481437.4586   2  10   0.5846   0.3805   0.9435   0.3969   0.4856   0.6643  -0.01    0.0
2017/07/23 10:35:26.600   2774439.5433   1653823.9776   5481437.4558   2  10   0.5803   0.3771   0.9383   0.3940   0.4829   0.6607  -0.01    0.0
2017/07/23 10:35:26.800   2774439.5516   1653823.9743   5481437.4479   2  10   0.5760   0.3738   0.9332   0.3913   0.4801   0.6572  -0.01    0.0
2017/07/23 10:35:27.000   2774439.5552   1653823.9682   5481437.4320   2  10   0.5719   0.3706   0.9282   0.3886   0.4775   0.6538  -0.01    0.0
2017/07/23 10:35:27.200   2774439.5566   1653823.9606   5481437.4245   2  10   0.5679   0.3675   0.9234   0.3860   0.4749   0.6504  -0.01    0.0
2017/07/23 10:35:27.400   2774439.5483   1653823.9473   5481437.4047   2  10   0.5640   0.3645   0.9186   0.3835   0.4724   0.6471  -0.01    0.0
2017/07/23 10:35:27.600   2774439.5363   1653823.9342   5481437.3831   2  10   0.5602   0.3615   0.9139   0.3810   0.4699   0.6439  -0.01    1.8
2017/07/23 10:35:27.800   2774439.5292   1653823.9229   5481437.3704   2  10   0.5565   0.3587   0.9094   0.3786   0.4675   0.6407  -0.01    1.8
2017/07/23 10:35:28.000   2774439.5224   1653823.9109   5481437.3548   2  10   0.5529   0.3559   0.9049   0.3763   0.4651   0.6376  -0.01    1.8
2017/07/23 10:35:28.200   2774439.5190   1653823.9041   5481437.3443   2  10   0.5494   0.3532   0.9005   0.3740   0.4628   0.6345  -0.01    1.8
2017/07/23 10:35:28.400   2774439.5199   1653823.8987   5481437.3395   2  10   0.5460   0.3506   0.8961   0.3718   0.4605   0.6315  -0.01    1.8
2017/07/23 10:35:28.600   2774439.5203   1653823.8945   5481437.3296   2  10   0.5426   0.3481   0.8919   0.3696   0.4582   0.6285  -0.01    1.8
2017/07/23 10:35:28.800   2774439.5192   1653823.8879   5481437.3226   2  10   0.5393   0.3456   0.8877   0.3674   0.4560   0.6256  -0.01    1.8
2017/07/23 10:35:29.000   2774439.5163   1653823.8792   5481437.3147   2  10   0.5361   0.3432   0.8835   0.3653   0.4538   0.6227  -0.01    1.8
2017/07/23 10:35:29.200   2774439.5167   1653823.8742   5481437.3131   2  10   0.5329   0.3408   0.8794   0.3633   0.4517   0.6199  -0.01    1.8
2017/07/23 10:35:29.400   2774439.5164   1653823.8687   5481437.3117   2  10   0.5298   0.3385   0.8754   0.3613   0.4496   0.6171  -0.01    1.8
2017/07/23 10:35:29.600   2774439.5223   1653823.8662   5481437.3249   2  10   0.5268   0.3362   0.8715   0.3593   0.4475   0.6144  -0.01    1.8
2017/07/23 10:35:29.800   2774439.5197   1653823.8602   5481437.3267   2  10   0.5239   0.3340   0.8676   0.3574   0.4455   0.6117  -0.01    1.8
2017/07/23 10:35:30.000   2774439.5135   1653823.8553   5481437.3249   2  10   0.5209   0.3318   0.8637   0.3555   0.4435   0.6090  -0.01    1.8
2017/07/23 10:35:30.200   2774439.5151   1653823.8558   5481437.3373   2  10   0.5181   0.3297   0.8599   0.3536   0.4415   0.6064  -0.01    1.8
2017/07/23 10:35:30.400   2774439.5223   1653823.8619   5481437.3567   2  10   0.5153   0.3276   0.8562   0.3518   0.4395   0.6038  -0.01    1.8
2017/07/23 10:35:30.600   2774439.5303   1653823.8683   5481437.3743   2  10   0.5125   0.3256   0.8525   0.3500   0.4376   0.6012  -0.01    1.8
2017/07/23 10:35:30.800   2774439.5434   1653823.8759   5481437.4004   2  10   0.5098   0.3236   0.8488   0.3482   0.4357   0.5986  -0.01    1.8
2017/07/23 10:35:31.000   2774439.5565   1653823.8835   5481437.4289   2  10   0.5072   0.3217   0.8452   0.3464   0.4338   0.5961  -0.01    1.8
2017/07/23 10:35:31.200   2774439.5686   1653823.8914   5481437.4535   2  10   0.5045   0.3197   0.8416   0.3447   0.4320   0.5936  -0.01    1.8
2017/07/23 10:35:31.400   2774439.5811   1653823.8986   5481437.4789   2  10   0.5020   0.3179   0.8381   0.3430   0.4301   0.5912  -0.01    1.8
2017/07/23 10:35:31.600   2774439.5897   1653823.9036   5481437.4981   2  10   0.4994   0.3160   0.8346   0.3414   0.4283   0.5888  -0.01    1.8
2017/07/23 10:35:31.800   2774439.5984   1653823.9067   5481437.5145   2  10   0.4969   0.3142   0.8311   0.3397   0.4265   0.5864  -0.01    1.8
2017/07/23 10:35:32.000   2774439.6054   1653823.9100   5481437.5248   2  10   0.4945   0.3124   0.8277   0.3381   0.4248   0.5840  -0.01    1.8
2017/07/23 10:35:32.200   2774439.6093   1653823.9140   5481437.5316   2  10   0.4921   0.3107   0.8243   0.3365   0.4230   0.5816  -0.01    1.8
2017/07/23 10:35:32.400   2774439.6169   1653823.9181   5481437.5433   2  10   0.4897   0.3090   0.8210   0.3350   0.4213   0.5793  -0.01    1.8
2017/07/23 10:35:32.600   2774439.6235   1653823.9223   5481437.5578   2  10   0.4874   0.3073   0.8177   0.3334   0.4196   0.5770  -0.01    1.8
2017/07/23 10:35:32.800   2774439.6295   1653823.9271   5481437.5674   2  10   0.4850   0.3057   0.8144   0.3319   0.4179   0.5747  -0.01    1.8
2017/07/23 10:35:33.000   2774439.6378   1653823.9333   5481437.5807   2  10   0.4828   0.3040   0.8112   0.3304   0.4162   0.5725  -0.01    1.8
2017/07/23 10:35:33.200   2774439.6452   1653823.9392   5481437.5905   2  10   0.4805   0.3024   0.8079   0.3289   0.4146   0.5702  -0.01    1.8
2017/07/23 10:35:33.400   2774439.6549   1653823.9472   5481437.6032   2  10   0.4783   0.3009   0.8048   0.3275   0.4129   0.5680  -0.01    1.8
2017/07/23 10:35:33.600   2774439.6621   1653823.9529   5481437.6130   2  10   0.4761   0.2993   0.8016   0.3260   0.4113   0.5658  -0.01    1.8
2017/07/23 10:35:33.800   2774439.6744   1653823.9624   5481437.6323   2  10   0.4740   0.2978   0.7985   0.3246   0.4097   0.5636  -0.01    1.8
2017/07/23 10:35:34.000   2774439.6901   1653823.9750   5481437.6567   2  10   0.4718   0.2963   0.7954   0.3232   0.4081   0.5615  -0.01    1.8
2017/07/23 10:35:34.200   2774439.7045   1653823.9841   5481437.6785   2  10   0.4697   0.2948   0.7923   0.3218   0.4065   0.5594  -0.01    1.8
2017/07/23 10:35:34.400   2774439.7185   1653823.9937   5481437.7010   2  10   0.4677   0.2934   0.7893   0.3204   0.4050   0.5572  -0.01    1.8
2017/07/23 10:35:34.600   2774439.7319   1653824.0021   5481437.7207   2  10   0.4656   0.2919   0.7863   0.3191   0.4034   0.5551  -0.01    1.8
2017/07/23 10:35:34.800   2774439.7484   1653824.0135   5481437.7443   2  10   0.4636   0.2905   0.7833   0.3177   0.4019   0.5531  -0.01    1.8
2017/07/23 10:35:35.000   2774439.7623   1653824.0231   5481437.7643   2  10   0.4616   0.2891   0.7804   0.3164   0.4004   0.5510  -0.01    1.9
2017/07/23 10:35:35.200   2774439.7788   1653824.0349   5481437.7871   2  10   0.4596   0.2878   0.7774   0.3151   0.3989   0.5490  -0.01    1.9
2017/07/23 10:35:35.400   2774439.7928   1653824.0474   5481437.8065   2  10   0.4577   0.2864   0.7745   0.3138   0.3974   0.5470  -0.01    1.9
2017/07/23 10:35:35.600   2774439.8068   1653824.0592   5481437.8241   2  10   0.4558   0.2851   0.7717   0.3126   0.3960   0.5450  -0.01    1.9
2017/07/23 10:35:35.800   2774439.8211   1653824.0723   5481437.8429   2  10   0.4539   0.2838   0.7688   0.3113   0.3945   0.5430  -0.01    1.9
2017/07/23 10:35:36.000   2774439.8357   1653824.0863   5481437.8625   2  10   0.4520   0.2825   0.7660   0.3100   0.3931   0.5410  -0.01    1.9
2017/07/23 10:35:36.200   2774439.8475   1653824.0984   5481437.8747   2  10   0.4501   0.2812   0.7632   0.3088   0.3916   0.5391  -0.01    1.9
2017/07/23 10:35:36.400   2774439.8637   1653824.1131   5481437.8956   2  10   0.4483   0.2799   0.7604   0.3076   0.3902   0.5371  -0.01    1.9
2017/07/23 10:35:36.600   2774439.8787   1653824.1274   5481437.9163   2  10   0.4465   0.2787   0.7577   0.3064   0.3888   0.5352  -0.01    1.9
2017/07/23 10:35:36.800   2774439.8938   1653824.1400   5481437.9345   2  10   0.4447   0.2775   0.7550   0.3052   0.3874   0.5333  -0.01    1.9
2017/07/23 10:35:37.000   2774439.9097   1653824.1525   5481437.9532   2  10   0.4429   0.2763   0.7523   0.3040   0.3860   0.5314  -0.01    1.9
2017/07/23 10:35:37.200   2774439.9269   1653824.1661   5481437.9737   2  10   0.4412   0.2751   0.7496   0.3028   0.3847   0.5295  -0.01    1.9
2017/07/23 10:35:37.400   2774439.9470   1653824.1810   5481437.9989   2  10   0.4394   0.2739   0.7469   0.3017   0.3833   0.5277  -0.01    1.9
2017/07/23 10:35:37.600   2774439.9677   1653824.1956   5481438.0265   2  10   0.4377   0.2727   0.7443   0.3005   0.3820   0.5259  -0.01    1.9
2017/07/23 10:35:37.800   2774439.9849   1653824.2080   5481438.0515   2  10   0.4360   0.2716   0.7417   0.2994   0.3806   0.5240  -0.01    1.9
2017/07/23 10:35:38.000   2774440.0101   1653824.2247   5481438.0985   2  10   0.4306   0.2690   0.7303   0.2957   0.3755   0.5163  -0.01    1.9
2017/07/23 10:35:38.200   2774440.0256   1653824.2383   5481438.1290   2  10   0.4256   0.2666   0.7199   0.2923   0.3707   0.5092  -0.01    1.9
2017/07/23 10:35:38.400   2774440.0466   1653824.2543   5481438.1698   2  10   0.4209   0.2643   0.7103   0.2891   0.3663   0.5027  -0.01    1.9
2017/07/23 10:35:38.600   2774440.0530   1653824.2660   5481438.1817   2  10   0.4166   0.2621   0.7014   0.2861   0.3622   0.4966  -0.01    1.9
2017/07/23 10:35:38.800   2774440.0705   1653824.2812   5481438.2087   2  10   0.4124   0.2600   0.6930   0.2833   0.3583   0.4910  -0.01    1.9
2017/07/23 10:35:39.000   2774440.0901   1653824.2988   5481438.2321   2  10   0.4085   0.2580   0.6852   0.2806   0.3546   0.4856  -0.01    1.9
2017/07/23 10:35:39.200   2774440.1151   1653824.3151   5481438.2721   2  10   0.4048   0.2561   0.6778   0.2780   0.3512   0.4806  -0.01    1.9
2017/07/23 10:35:39.400   2774440.1322   1653824.3278   5481438.2962   2  10   0.4013   0.2542   0.6708   0.2756   0.3479   0.4758  -0.01    1.9
2017/07/23 10:35:39.600   2774440.1591   1653824.3461   5481438.3478   2  10   0.3979   0.2524   0.6642   0.2733   0.3448   0.4713  -0.01    1.8
2017/07/23 10:35:39.800   2774440.1760   1653824.3587   5481438.3787   2  10   0.3946   0.2507   0.6578   0.2710   0.3418   0.4669  -0.01    1.8
2017/07/23 10:35:40.000   2774440.1895   1653824.3702   5481438.4064   2  10   0.3915   0.2490   0.6518   0.2688   0.3389   0.4628  -0.01    1.8
2017/07/23 10:35:40.200   2774440.2054   1653824.3815   5481438.4304   2  10   0.3885   0.2474   0.6460   0.2668   0.3361   0.4588  -0.01    1.8
2017/07/23 10:35:40.400   2774440.2105   1653824.3859   5481438.4333   2  10   0.3856   0.2458   0.6404   0.2647   0.3334   0.4550  -0.01    1.8
2017/07/23 10:35:40.600   2774440.2241   1653824.3967   5481438.4547   2  10   0.3828   0.2443   0.6350   0.2628   0.3309   0.4513  -0.01    1.7
2017/07/23 10:35:40.800   2774440.2297   1653824.4028   5481438.4662   2  10   0.3800   0.2427   0.6298   0.2609   0.3284   0.4477  -0.01    1.7
2017/07/23 10:35:41.000   2774440.2412   1653824.4113   5481438.4896   2  10   0.3774   0.2413   0.6248   0.2591   0.3259   0.4443  -0.01    1.7
2017/07/23 10:35:41.200   2774440.2525   1653824.4196   5481438.4973   2  10   0.3748   0.2398   0.6200   0.2573   0.3236   0.4409  -0.01    1.7
2017/07/23 10:35:41.400   2774440.2615   1653824.4273   5481438.5052   2  10   0.3723   0.2384   0.6153   0.2555   0.3213   0.4377  -0.01    1.7
2017/07/23 10:35:41.600   2774440.2843   1653824.4407   5481438.5369   2  10   0.3698   0.2371   0.6107   0.2538   0.3191   0.4346  -0.01    1.6
2017/07/23 10:35:41.800   2774440.3130   1653824.4589   5481438.5786   2  10   0.3675   0.2357   0.6063   0.2522   0.3169   0.4315  -0.01    1.6
2017/07/23 10:35:42.000   2774440.3295   1653824.4703   5481438.5966   2  10   0.3651   0.2344   0.6019   0.2506   0.3148   0.4285  -0.01    1.6
2017/07/23 10:35:42.200   2774440.3488   1653824.4832   5481438.6219   2  10   0.3629   0.2331   0.5977   0.2490   0.3128   0.4256  -0.01    1.6
2017/07/23 10:35:42.400   2774440.3670   1653824.4962   5481438.6477   2  10   0.3606   0.2319   0.5936   0.2475   0.3108   0.4228  -0.01    1.6
2017/07/23 10:35:42.600   2774440.3857   1653824.5093   5481438.6771   2  10   0.3585   0.2306   0.5896   0.2459   0.3088   0.4200  -0.01    1.5
2017/07/23 10:35:42.800   2774440.4049   1653824.5250   5481438.7018   2  10   0.3563   0.2294   0.5857   0.2445   0.3069   0.4173  -0.01    1.5
2017/07/23 10:35:43.000   2774440.4191   1653824.5378   5481438.7208   2  10   0.3543   0.2282   0.5819   0.2430   0.3050   0.4147  -0.01    1.5
2017/07/23 10:35:43.200   2774440.4331   1653824.5493   5481438.7365   2  10   0.3522   0.2270   0.5782   0.2416   0.3032   0.4121  -0.01    1.5
2017/07/23 10:35:43.400   2774440.4460   1653824.5611   5481438.7533   2  10   0.3502   0.2259   0.5745   0.2402   0.3014   0.4096  -0.01    1.5
2017/07/23 10:35:43.600   2774440.4619   1653824.5729   5481438.7677   2  10   0.3482   0.2247   0.5709   0.2388   0.2996   0.4071  -0.01    1.5
2017/07/23 10:35:43.800   2774440.4752   1653824.5832   5481438.7818   2  10   0.3463   0.2236   0.5674   0.2375   0.2979   0.4046  -0.01    1.5
2017/07/23 10:35:44.000   2774440.4849   1653824.5899   5481438.7881   2  10   0.3444   0.2225   0.5639   0.2362   0.2962   0.4023  -0.01    1.4
2017/07/23 10:35:44.200   2774440.4924   1653824.5965   5481438.7917   2  10   0.3425   0.2214   0.5606   0.2348   0.2945   0.3999  -0.01    1.4
2017/07/23 10:35:44.400   2774440.4978   1653824.6035   5481438.7962   2  10   0.3407   0.2203   0.5572   0.2336   0.2928   0.3976  -0.01    1.4
2017/07/23 10:35:44.600   2774440.5094   1653824.6122   5481438.8081   2  10   0.3389   0.2193   0.5540   0.2323   0.2912   0.3953  -0.01    1.4
2017/07/23 10:35:44.800   2774440.5229   1653824.6222   5481438.8248   2  10   0.3371   0.2182   0.5507   0.2311   0.2896   0.3931  -0.01    1.4
2017/07/23 10:35:45.000   2774440.5317   1653824.6299   5481438.8372   2  10   0.3353   0.2172   0.5476   0.2298   0.2880   0.3909  -0.01    1.4
2017/07/23 10:35:45.200   2774440.5372   1653824.6349   5481438.8448   2  10   0.3336   0.2162   0.5445   0.2286   0.2865   0.3887  -0.01    1.4
2017/07/23 10:35:45.400   2774440.5457   1653824.6415   5481438.8591   2  10   0.3319   0.2152   0.5414   0.2274   0.2850   0.3866  -0.01    1.4
2017/07/23 10:35:45.600   2774440.5612   1653824.6512   5481438.8843   2  10   0.3302   0.2142   0.5384   0.2263   0.2835   0.3845  -0.01    1.4
2017/07/23 10:35:45.800   2774440.5744   1653824.6595   5481438.8983   2  10   0.3285   0.2132   0.5354   0.2251   0.2820   0.3824  -0.01    1.4
2017/07/23 10:35:46.000   2774440.5854   1653824.6671   5481438.9123   2  10   0.3269   0.2123   0.5325   0.2240   0.2805   0.3804  -0.01    1.4
2017/07/23 10:35:46.200   2774440.5922   1653824.6715   5481438.9164   2  10   0.3253   0.2113   0.5296   0.2228   0.2791   0.3784  -0.01    1.4
2017/07/23 10:35:46.400   2774440.6021   1653824.6779   5481438.9317   2  10   0.3237   0.2104   0.5267   0.2217   0.2776   0.3764  -0.01    1.4
2017/07/23 10:35:46.600   2774440.6165   1653824.6866   5481438.9533   2  10   0.3221   0.2094   0.5239   0.2206   0.2762   0.3744  -0.01    1.4
2017/07/23 10:35:46.800   2774440.6301   1653824.6962   5481438.9702   2  10   0.3205   0.2085   0.5211   0.2195   0.2748   0.3725  -0.01    1.4
2017/07/23 10:35:47.000   2774440.6355   1653824.7008   5481438.9723   2  10   0.3190   0.2076   0.5184   0.2185   0.2735   0.3706  -0.01    1.3
2017/07/23 10:35:47.200   2774440.6424   1653824.7044   5481438.9753   2  10   0.3175   0.2067   0.5157   0.2174   0.2721   0.3687  -0.01    1.3
2017/07/23 10:35:47.400   2774440.6493   1653824.7083   5481438.9858   2  10   0.3160   0.2058   0.5130   0.2164   0.2708   0.3669  -0.01    1.3
2017/07/23 10:35:47.600   2774440.6574   1653824.7123   5481438.9965   2  10   0.3145   0.2049   0.5104   0.2153   0.2694   0.3650  -0.01    1.3
2017/07/23 10:35:47.800   2774440.6621   1653824.7158   5481439.0026   2  10   0.3130   0.2041   0.5077   0.2143   0.2681   0.3632  -0.01    1.3
2017/07/23 10:35:48.000   2774440.6711   1653824.7204   5481439.0113   2  10   0.3116   0.2032   0.5052   0.2133   0.2668   0.3614  -0.01    1.3
2017/07/23 10:35:48.200   2774440.6705   1653824.7192   5481439.0035   2  10   0.3101   0.2024   0.5026   0.2123   0.2655   0.3596  -0.01    1.3
2017/07/23 10:35:48.400   2774440.6740   1653824.7213   5481439.0085   2  10   0.3087   0.2015   0.5001   0.2113   0.2643   0.3579  -0.01    1.3
2017/07/23 10:35:48.600   2774440.6752   1653824.7220   5481439.0066   2  10   0.3073   0.2007   0.4976   0.2103   0.2630   0.3561  -0.01    1.3
2017/07/23 10:35:48.800   2774440.6811   1653824.7259   5481439.0133   2  10   0.3059   0.1999   0.4951   0.2093   0.2618   0.3544  -0.01    1.3
2017/07/23 10:35:49.000   2774440.6807   1653824.7260   5481439.0092   2  10   0.3045   0.1990   0.4927   0.2084   0.2605   0.3527  -0.01    1.3
2017/07/23 10:35:49.200   2774440.6899   1653824.7324   5481439.0239   2  10   0.3032   0.1982   0.4903   0.2074   0.2593   0.3510  -0.01    1.3
2017/07/23 10:35:49.400   2774440.6910   1653824.7338   5481439.0194   2  10   0.3018   0.1974   0.4879   0.2065   0.2581   0.3493  -0.01    1.3
2017/07/23 10:35:49.600   2774440.6907   1653824.7338   5481439.0150   2  10   0.3005   0.1966   0.4855   0.2055   0.2569   0.3477  -0.01    1.3
2017/07/23 10:35:49.800   2774440.6871   1653824.7331   5481439.0021   2  10   0.2991   0.1958   0.4831   0.2046   0.2557   0.3460  -0.01    1.3
2017/07/23 10:35:50.000   2774440.6875   1653824.7343   5481438.9943   2  10   0.2978   0.1950   0.4808   0.2037   0.2546   0.3444  -0.01    1.3
2017/07/23 10:35:50.200   2774440.6862   1653824.7351   5481438.9885   2  10   0.2965   0.1943   0.4785   0.2028   0.2534   0.3428  -0.01    1.3
2017/07/23 10:35:50.400   2774440.6898   1653824.7381   5481438.9862   2  10   0.2952   0.1935   0.4762   0.2019   0.2523   0.3412  -0.01    1.3
2017/07/23 10:35:50.600   2774440.6942   1653824.7427   5481438.9861   2  10   0.2939   0.1927   0.4740   0.2010   0.2511   0.3396  -0.01    1.3
2017/07/23 10:35:50.800   2774440.6939   1653824.7449   5481438.9767   2  10   0.2927   0.1920   0.4717   0.2001   0.2500   0.3381  -0.01    1.3
2017/07/23 10:35:51.000   2774440.7002   1653824.7513   5481438.9797   2  10   0.2914   0.1912   0.4695   0.1992   0.2489   0.3365  -0.01    1.3
2017/07/23 10:35:51.200   2774440.7055   1653824.7563   5481438.9745   2  10   0.2902   0.1905   0.4673   0.1983   0.2478   0.3350  -0.01    1.3
2017/07/23 10:35:51.400   2774440.7122   1653824.7621   5481438.9780   2  10   0.2889   0.1898   0.4651   0.1974   0.2466   0.3335  -0.01    1.3
2017/07/23 10:35:51.600   2774440.7164   1653824.7669   5481438.9751   2  10   0.2877   0.1890   0.4630   0.1966   0.2456   0.3319  -0.01    1.3
2017/07/23 10:35:51.800   2774440.7197   1653824.7717   5481438.9730   2  10   0.2865   0.1883   0.4608   0.1957   0.2445   0.3304  -0.01    1.3
2017/07/23 10:35:52.000   2774440.7181   1653824.7742   5481438.9640   2  10   0.2853   0.1876   0.4587   0.1949   0.2434   0.3290  -0.01    1.4
2017/07/23 10:35:52.200   2774440.7144   1653824.7744   5481438.9526   2  10   0.2841   0.1869   0.4566   0.1941   0.2423   0.3275  -0.01    1.4
2017/07/23 10:35:52.400   2774440.7118   1653824.7750   5481438.9382   2  10   0.2829   0.1862   0.4545   0.1932   0.2413   0.3260  -0.01    1.4
2017/07/23 10:35:52.600   2774440.7137   1653824.7786   5481438.9327   2  10   0.2817   0.1855   0.4524   0.1924   0.2402   0.3246  -0.01    1.4
2017/07/23 10:35:52.800   2774440.7125   1653824.7794   5481438.9243   2  10   0.2806   0.1848   0.4504   0.1916   0.2392   0.3231  -0.01    1.4
2017/07/23 10:35:53.000   2774440.7064   1653824.7788   5481438.9043   2  10   0.2794   0.1841   0.4483   0.1908   0.2381   0.3217  -0.01    1.4
2017/07/23 10:35:53.200   2774440.7034   1653824.7796   5481438.8901   2  10   0.2782   0.1834   0.4463   0.1900   0.2371   0.3203  -0.01    1.4
2017/07/23 10:35:53.400   2774440.6999   1653824.7805   5481438.8797   2  10   0.2771   0.1827   0.4443   0.1892   0.2361   0.3189  -0.01    1.4
2017/07/23 10:35:53.600   2774440.6956   1653824.7813   5481438.8646   2  10   0.2760   0.1821   0.4423   0.1884   0.2351   0.3175  -0.01    1.4
2017/07/23 10:35:53.800   2774440.6903   1653824.7807   5481438.8464   2  10   0.2748   0.1814   0.4403   0.1876   0.2341   0.3161  -0.01    1.4
2017/07/23 10:35:54.000   2774440.6851   1653824.7803   5481438.8334   2  10   0.2737   0.1807   0.4384   0.1868   0.2331   0.3147  -0.01    1.4
2017/07/23 10:35:54.200   2774440.6795   1653824.7799   5481438.8182   2  10   0.2726   0.1801   0.4364   0.1860   0.2321   0.3134  -0.01    1.4
2017/07/23 10:35:54.400   2774440.6758   1653824.7803   5481438.8057   2  10   0.2715   0.1794   0.4345   0.1852   0.2311   0.3120  -0.01    1.4
2017/07/23 10:35:54.600   2774440.6692   1653824.7810   5481438.7884   2  10   0.2704   0.1788   0.4325   0.1845   0.2302   0.3107  -0.01    1.4
2017/07/23 10:35:54.800   2774440.6664   1653824.7838   5481438.7787   2  10   0.2693   0.1781   0.4306   0.1837   0.2292   0.3093  -0.01    1.4
2017/07/23 10:35:55.000   2774440.6597   1653824.7839   5481438.7616   2  10   0.2683   0.1775   0.4287   0.1830   0.2282   0.3080  -0.01    1.4
2017/07/23 10:35:55.200   2774440.6561   1653824.7845   5481438.7461   2  10   0.2672   0.1768   0.4269   0.1822   0.2273   0.3067  -0.01    1.4
2017/07/23 10:35:55.400   2774440.6515   1653824.7846   5481438.7338   2  10   0.2661   0.1762   0.4250   0.1815   0.2263   0.3054  -0.01    1.4
2017/07/23 10:35:55.600   2774440.6450   1653824.7836   5481438.7222   2  10   0.2651   0.1756   0.4232   0.1807   0.2254   0.3041  -0.01    1.4
2017/07/23 10:35:55.800   2774440.6438   1653824.7842   5481438.7118   2  10   0.2640   0.1750   0.4213   0.1800   0.2244   0.3028  -0.01    1.4
2017/07/23 10:35:56.000   2774440.6425   1653824.7854   5481438.7075   2  10   0.2630   0.1743   0.4195   0.1793   0.2235   0.3015  -0.01    1.4
2017/07/23 10:35:56.200   2774440.6418   1653824.7871   5481438.7043   2  10   0.2620   0.1737   0.4177   0.1785   0.2226   0.3003  -0.01    1.4
2017/07/23 10:35:56.400   2774440.6363   1653824.7854   5481438.6925   2  10   0.2609   0.1731   0.4159   0.1778   0.2217   0.2990  -0.01    1.4
2017/07/23 10:35:56.600   2774440.6347   1653824.7862   5481438.6872   2  10   0.2599   0.1725   0.4141   0.1771   0.2208   0.2977  -0.01    1.4
2017/07/23 10:35:56.800   2774440.6269   1653824.7830   5481438.6715   2  10   0.2589   0.1719   0.4123   0.1764   0.2199   0.2965  -0.01    1.4
2017/07/23 10:35:57.000   2774440.6224   1653824.7823   5481438.6603   2  10   0.2579   0.1713   0.4105   0.1757   0.2190   0.2953  -0.01    1.4
2017/07/23 10:35:57.200   2774440.6173   1653824.7807   5481438.6550   2  10   0.2569   0.1707   0.4088   0.1750   0.2181   0.2940  -0.01    1.4
2017/07/23 10:35:57.400   2774440.6106   1653824.7786   5481438.6421   2  10   0.2559   0.1701   0.4070   0.1743   0.2172   0.2928  -0.01    1.4
2017/07/23 10:35:57.600   2774440.6093   1653824.7789   5481438.6411   2  10   0.2549   0.1695   0.4053   0.1736   0.2163   0.2916  -0.01    1.4
2017/07/23 10:35:57.800   2774440.6084   1653824.7798   5481438.6441   2  10   0.2539   0.1690   0.4036   0.1729   0.2154   0.2904  -0.01    1.4
2017/07/23 10:35:58.000   2774440.6081   1653824.7817   5481438.6437   2  10   0.2530   0.1684   0.4019   0.1722   0.2146   0.2892  -0.01    1.4
2017/07/23 10:35:58.200   2774440.6073   1653824.7820   5481438.6420   2  10   0.2520   0.1678   0.4002   0.1715   0.2137   0.2880  -0.01    1.4
2017/07/23 10:35:58.400   2774440.6082   1653824.7839   5481438.6449   2  10   0.2510   0.1672   0.3985   0.1708   0.2128   0.2868  -0.01    1.4
2017/07/23 10:35:58.600   2774440.6092   1653824.7862   5481438.6421   2  10   0.2501   0.1667   0.3968   0.1702   0.2120   0.2856  -0.01    1.4
2017/07/23 10:35:58.800   2774440.6034   1653824.7836   5481438.6326   2  10   0.2491   0.1661   0.3951   0.1695   0.2111   0.2845  -0.01    1.4
2017/07/23 10:35:59.000   2774440.6003   1653824.7824   5481438.6272   2  10   0.2482   0.1655   0.3935   0.1688   0.2103   0.2833  -0.01    1.4
2017/07/23 10:35:59.200   2774440.5965   1653824.7816   5481438.6243   2  10   0.2472   0.1650   0.3918   0.1682   0.2095   0.2822  -0.01    1.4
2017/07/23 10:35:59.400   2774440.5928   1653824.7810   5481438.6254   2  10   0.2463   0.1644   0.3902   0.1675   0.2086   0.2810  -0.01    1.4
2017/07/23 10:35:59.600   2774440.5948   1653824.7821   5481438.6338   2  10   0.2454   0.1639   0.3886   0.1668   0.2078   0.2799  -0.01    1.4
2017/07/23 10:35:59.800   2774440.5896   1653824.7801   5481438.6267   2  10   0.2444   0.1633   0.3870   0.1662   0.2070   0.2787  -0.01    1.4
2017/07/23 10:36:00.000   2774440.5895   1653824.7798   5481438.6268   2  10   0.2435   0.1628   0.3853   0.1655   0.2061   0.2776  -0.01    1.4
2017/07/23 10:36:00.200   2774440.5853   1653824.7783   5481438.6249   2  10   0.2426   0.1623   0.3837   0.1649   0.2053   0.2765  -0.01    1.4
2017/07/23 10:36:00.400   2774440.5843   1653824.7792   5481438.6303   2  10   0.2417   0.1617   0.3822   0.1643   0.2045   0.2754  -0.01    1.4
2017/07/23 10:36:00.600   2774440.5850   1653824.7809   5481438.6329   2  10   0.2408   0.1612   0.3806   0.1636   0.2037   0.2743  -0.01    1.4
2017/07/23 10:36:00.800   2774440.5838   1653824.7810   5481438.6332   2  10   0.2399   0.1607   0.3790   0.1630   0.2029   0.2732  -0.01    1.4
2017/07/23 10:36:01.000   2774440.5853   1653824.7830   5481438.6382   2  10   0.2390   0.1601   0.3775   0.1624   0.2021   0.2721  -0.01    1.4
2017/07/23 10:36:01.200   2774440.5838   1653824.7835   5481438.6365   2  10   0.2381   0.1596   0.3759   0.1617   0.2013   0.2710  -0.01    1.4
2017/07/23 10:36:01.400   2774440.5825   1653824.7843   5481438.6359   2  10   0.2373   0.1591   0.3744   0.1611   0.2006   0.2699  -0.01    1.4
2017/07/23 10:36:01.600   2774440.5832   1653824.7852   5481438.6385   2  10   0.2364   0.1586   0.3728   0.1605   0.1998   0.2688  -0.01    1.4
2017/07/23 10:36:01.800   2774440.5815   1653824.7854   5481438.6323   2  10   0.2355   0.1580   0.3713   0.1599   0.1990   0.2678  -0.01    1.4
2017/07/23 10:36:02.000   2774440.5822   1653824.7860   5481438.6318   2  10   0.2346   0.1575   0.3698   0.1593   0.1982   0.2667  -0.01    1.4
2017/07/23 10:36:02.200   2774440.5825   1653824.7867   5481438.6329   2  10   0.2338   0.1570   0.3683   0.1586   0.1974   0.2657  -0.01    1.4
2017/07/23 10:36:02.400   2774440.5818   1653824.7853   5481438.6274   2  10   0.2329   0.1565   0.3668   0.1580   0.1967   0.2646  -0.01    1.5
2017/07/23 10:36:02.600   2774440.5807   1653824.7839   5481438.6204   2  10   0.2321   0.1560   0.3653   0.1574   0.1959   0.2636  -0.01    1.5
2017/07/23 10:36:02.800   2774440.5788   1653824.7820   5481438.6166   2  10   0.2312   0.1555   0.3638   0.1568   0.1952   0.2625  -0.01    1.5
2017/07/23 10:36:03.000   2774440.5758   1653824.7800   5481438.6121   2  10   0.2304   0.1550   0.3624   0.1562   0.1944   0.2615  -0.01    1.5
2017/07/23 10:36:03.200   2774440.5748   1653824.7791   5481438.6073   2  10   0.2295   0.1545   0.3609   0.1556   0.1937   0.2605  -0.01    1.5
2017/07/23 10:36:03.400   2774440.5769   1653824.7804   5481438.6110   2  10   0.2287   0.1540   0.3594   0.1551   0.1929   0.2594  -0.01    1.5
2017/07/23 10:36:03.600   2774440.5762   1653824.7799   5481438.6052   2  10   0.2279   0.1535   0.3580   0.1545   0.1922   0.2584  -0.01    1.5
2017/07/23 10:36:03.800   2774440.5761   1653824.7789   5481438.6021   2  10   0.2271   0.1530   0.3566   0.1539   0.1915   0.2574  -0.01    1.5
2017/07/23 10:36:04.000   2774440.5790   1653824.7788   5481438.6026   2  10   0.2262   0.1526   0.3551   0.1533   0.1907   0.2564  -0.01    1.5
2017/07/23 10:36:04.200   2774440.5802   1653824.7794   5481438.6014   2  10   0.2254   0.1521   0.3537   0.1527   0.1900   0.2554  -0.01    1.5
2017/07/23 10:36:04.400   2774440.5819   1653824.7790   5481438.6023   2  10   0.2246   0.1516   0.3523   0.1522   0.1893   0.2544  -0.01    1.5
2017/07/23 10:36:04.600   2774440.5820   1653824.7780   5481438.6024   2  10   0.2238   0.1511   0.3509   0.1516   0.1886   0.2534  -0.01    1.5
2017/07/23 10:36:04.800   2774440.5832   1653824.7775   5481438.6027   2  10   0.2230   0.1507   0.3495   0.1510   0.1878   0.2525  -0.01    1.6
2017/07/23 10:36:05.000   2774440.5854   1653824.7784   5481438.6035   2  10   0.2222   0.1502   0.3481   0.1504   0.1871   0.2515  -0.01    1.6
2017/07/23 10:36:05.200   2774440.5848   1653824.7772   5481438.6016   2  10   0.2214   0.1497   0.3467   0.1499   0.1864   0.2505  -0.01    1.6
2017/07/23 10:36:05.400   2774440.5902   1653824.7798   5481438.6098   2  10   0.2206   0.1492   0.3454   0.1493   0.1857   0.2495  -0.01    1.6
2017/07/23 10:36:05.600   2774440.5979   1653824.7826   5481438.6185   2  10   0.2198   0.1488   0.3440   0.1488   0.1850   0.2486  -0.01    1.6
2017/07/23 10:36:05.800   2774440.6021   1653824.7834   5481438.6268   2  10   0.2190   0.1483   0.3426   0.1482   0.1843   0.2476  -0.01    1.6
2017/07/23 10:36:06.000   2774440.6059   1653824.7836   5481438.6305   2  10   0.2183   0.1479   0.3413   0.1477   0.1836   0.2467  -0.01    1.6
2017/07/23 10:36:06.200   2774440.6114   1653824.7837   5481438.6380   2  10   0.2175   0.1474   0.3399   0.1471   0.1829   0.2457  -0.01    1.6
2017/07/23 10:36:06.400   2774440.6181   1653824.7843   5481438.6439   2  10   0.2167   0.1469   0.3386   0.1466   0.1822   0.2448  -0.01    1.6
2017/07/23 10:36:06.600   2774440.6190   1653824.7820   5481438.6380   2  10   0.2160   0.1465   0.3373   0.1460   0.1816   0.2439  -0.01    1.6
2017/07/23 10:36:06.800   2774440.6217   1653824.7823   5481438.6400   2  10   0.2152   0.1460   0.3359   0.1455   0.1809   0.2429  -0.01    1.6
2017/07/23 10:36:07.000   2774440.6234   1653824.7821   5481438.6367   2  10   0.2144   0.1456   0.3346   0.1449   0.1802   0.2420  -0.01    1.6
2017/07/23 10:36:07.200   2774440.6264   1653824.7825   5481438.6394   2  10   0.2137   0.1452   0.3333   0.1444   0.1795   0.2411  -0.01    1.6
2017/07/23 10:36:07.400   2774440.6334   1653824.7856   5481438.6478   2  10   0.2129   0.1447   0.3320   0.1439   0.1789   0.2402  -0.01    1.6
2017/07/23 10:36:07.600   2774440.6414   1653824.7882   5481438.6600   2  10   0.2122   0.1443   0.3307   0.1433   0.1782   0.2393  -0.01    1.6
2017/07/23 10:36:07.800   2774440.6449   1653824.7885   5481438.6603   2  10   0.2114   0.1438   0.3294   0.1428   0.1775   0.2384  -0.01    1.6
2017/07/23 10:36:08.000   2774440.6461   1653824.7880   5481438.6594   2  10   0.2107   0.1434   0.3282   0.1423   0.1769   0.2375  -0.01    1.7
2017/07/23 10:36:08.200   2774440.6505   1653824.7879   5481438.6616   2  10   0.2100   0.1430   0.3269   0.1418   0.1762   0.2366  -0.01    1.7
2017/07/23 10:36:08.400   2774440.6600   1653824.7906   5481438.6722   2  10   0.2092   0.1425   0.3256   0.1412   0.1756   0.2357  -0.01    1.7
2017/07/23 10:36:08.600   2774440.6637   1653824.7909   5481438.6731   2  10   0.2085   0.1421   0.3244   0.1407   0.1749   0.2348  -0.01    1.7
2017/07/23 10:36:08.800   2774440.6677   1653824.7913   5481438.6750   2  10   0.2078   0.1417   0.3231   0.1402   0.1743   0.2339  -0.01    1.7
2017/07/23 10:36:09.000   2774440.6741   1653824.7924   5481438.6821   2  10   0.2071   0.1413   0.3219   0.1397   0.1737   0.2330  -0.01    1.7
2017/07/23 10:36:09.200   2774440.6803   1653824.7928   5481438.6871   2  10   0.2064   0.1408   0.3206   0.1392   0.1730   0.2321  -0.01    1.7
2017/07/23 10:36:09.400   2774440.6863   1653824.7932   5481438.6892   2  10   0.2056   0.1404   0.3194   0.1387   0.1724   0.2313  -0.01    1.7
2017/07/23 10:36:09.600   2774440.6921   1653824.7933   5481438.6965   2  10   0.2049   0.1400   0.3182   0.1382   0.1718   0.2304  -0.01    1.7
2017/07/23 10:36:09.800   2774440.6988   1653824.7944   5481438.7019   2  10   0.2042   0.1396   0.3169   0.1377   0.1711   0.2296  -0.01    1.7
2017/07/23 10:36:10.000   2774440.7057   1653824.7949   5481438.7042   2  10   0.2035   0.1392   0.3157   0.1372   0.1705   0.2287  -0.01    1.7
2017/07/23 10:36:10.200   2774440.7134   1653824.7960   5481438.7147   2  10   0.2028   0.1388   0.3145   0.1367   0.1699   0.2278  -0.01    1.7
2017/07/23 10:36:10.400   2774440.7216   1653824.7974   5481438.7226   2  10   0.2021   0.1383   0.3133   0.1362   0.1693   0.2270  -0.01    1.7
2017/07/23 10:36:10.600   2774440.7298   1653824.7990   5481438.7341   2  10   0.2014   0.1379   0.3121   0.1357   0.1686   0.2262  -0.01    1.7
2017/07/23 10:36:10.800   2774440.7366   1653824.7994   5481438.7394   2  10   0.2007   0.1375   0.3109   0.1352   0.1680   0.2253  -0.01    1.6
2017/07/23 10:36:11.000   2774440.7392   1653824.7980   5481438.7409   2  10   0.2001   0.1371   0.3098   0.1347   0.1674   0.2245  -0.01    1.6
2017/07/23 10:36:11.200   2774440.7435   1653824.7974   5481438.7425   2  10   0.1994   0.1367   0.3086   0.1342   0.1668   0.2237  -0.01    1.6
2017/07/23 10:36:11.400   2774440.7482   1653824.7972   5481438.7462   2  10   0.1987   0.1363   0.3074   0.1337   0.1662   0.2228  -0.01    1.6
2017/07/23 10:36:11.600   2774440.7517   1653824.7967   5481438.7465   2  10   0.1980   0.1359   0.3062   0.1332   0.1656   0.2220  -0.01    1.6
2017/07/23 10:36:11.800   2774440.7589   1653824.7976   5481438.7500   2  10   0.1973   0.1355   0.3051   0.1328   0.1650   0.2212  -0.01    1.6
2017/07/23 10:36:12.000   2774440.7678   1653824.8000   5481438.7622   2  10   0.1967   0.1351   0.3039   0.1323   0.1644   0.2204  -0.01    1.6
2017/07/23 10:36:12.200   2774440.7739   1653824.8008   5481438.7690   2  10   0.1960   0.1347   0.3028   0.1318   0.1638   0.2196  -0.01    1.6
2017/07/23 10:36:12.400   2774440.7783   1653824.8000   5481438.7738   2  10   0.1953   0.1344   0.3016   0.1313   0.1632   0.2188  -0.01    1.6
2017/07/23 10:36:12.600   2774440.7845   1653824.8003   5481438.7791   2  10   0.1947   0.1340   0.3005   0.1309   0.1627   0.2180  -0.01    1.6
2017/07/23 10:36:12.800   2774440.7905   1653824.8005   5481438.7864   2  10   0.1940   0.1336   0.2994   0.1304   0.1621   0.2172  -0.01    1.6
2017/07/23 10:36:13.000   2774440.7961   1653824.8010   5481438.7903   2  10   0.1934   0.1332   0.2983   0.1299   0.1615   0.2164  -0.01    1.6
2017/07/23 10:36:13.200   2774440.7982   1653824.7992   5481438.7932   2  10   0.1927   0.1328   0.2971   0.1295   0.1609   0.2156  -0.01    1.6
2017/07/23 10:36:13.400   2774440.8018   1653824.7975   5481438.7916   2  10   0.1921   0.1324   0.2960   0.1290   0.1603   0.2148  -0.01    1.6
2017/07/23 10:36:13.600   2774440.8056   1653824.7973   5481438.7944   2  10   0.1914   0.1320   0.2949   0.1285   0.1598   0.2140  -0.01    1.6
2017/07/23 10:36:13.800   2774440.8089   1653824.7970   5481438.7950   2  10   0.1908   0.1317   0.2938   0.1281   0.1592   0.2133  -0.01    1.6
2017/07/23 10:36:14.000   2774440.8129   1653824.7972   5481438.7988   2  10   0.1902   0.1313   0.2927   0.1276   0.1586   0.2125  -0.01    1.6
2017/07/23 10:36:14.200   2774440.8212   1653824.7997   5481438.8115   2  10   0.1895   0.1309   0.2916   0.1272   0.1581   0.2117  -0.01    1.6
2017/07/23 10:36:14.400   2774440.8277   1653824.8025   5481438.8187   2  10   0.1889   0.1305   0.2906   0.1267   0.1575   0.2110  -0.01    1.6
2017/07/23 10:36:14.600   2774440.8328   1653824.8037   5481438.8235   2  10   0.1883   0.1302   0.2895   0.1263   0.1570   0.2102  -0.01    1.6
2017/07/23 10:36:14.800   2774440.8366   1653824.8044   5481438.8286   2  10   0.1876   0.1298   0.2884   0.1258   0.1564   0.2094  -0.01    1.6
2017/07/23 10:36:15.000   2774440.8424   1653824.8059   5481438.8339   2  10   0.1870   0.1294   0.2874   0.1254   0.1558   0.2087  -0.01    1.6
2017/07/23 10:36:15.200   2774440.8452   1653824.8051   5481438.8378   2  10   0.1864   0.1291   0.2863   0.1249   0.1553   0.2079  -0.01    1.6
2017/07/23 10:36:15.400   2774440.8468   1653824.8037   5481438.8435   2  10   0.1858   0.1287   0.2852   0.1245   0.1548   0.2072  -0.01    1.5
2017/07/23 10:36:15.600   2774440.8510   1653824.8032   5481438.8524   2  10   0.1852   0.1284   0.2842   0.1241   0.1542   0.2065  -0.01    1.5
2017/07/23 10:36:15.800   2774440.8501   1653824.7999   5481438.8497   2  10   0.1845   0.1280   0.2831   0.1236   0.1537   0.2057  -0.01    1.5
2017/07/23 10:36:16.000   2774440.8581   1653824.8021   5481438.8620   2  10   0.1839   0.1276   0.2821   0.1232   0.1531   0.2050  -0.01    1.5
2017/07/23 10:36:16.200   2774440.8658   1653824.8043   5481438.8748   2  10   0.1833   0.1273   0.2811   0.1228   0.1526   0.2043  -0.01    1.5
2017/07/23 10:36:16.400   2774440.8715   1653824.8059   5481438.8827   2  10   0.1827   0.1269   0.2800   0.1223   0.1521   0.2035  -0.01    1.5
2017/07/23 10:36:16.600   2774440.8736   1653824.8051   5481438.8867   2  10   0.1821   0.1266   0.2790   0.1219   0.1515   0.2028  -0.01    1.5
2017/07/23 10:36:16.800   2774440.8778   1653824.8067   5481438.8959   2  10   0.1815   0.1262   0.2780   0.1215   0.1510   0.2021  -0.01    1.5
2017/07/23 10:36:17.000   2774440.8793   1653824.8064   5481438.9014   2  10   0.1809   0.1259   0.2770   0.1210   0.1505   0.2014  -0.01    1.5
2017/07/23 10:36:17.200   2774440.8806   1653824.8054   5481438.9037   2  10   0.1803   0.1255   0.2760   0.1206   0.1499   0.2007  -0.01    1.5
2017/07/23 10:36:17.400   2774440.8833   1653824.8054   5481438.9102   2  10   0.1798   0.1252   0.2750   0.1202   0.1494   0.1999  -0.01    1.5
2017/07/23 10:36:17.600   2774440.8847   1653824.8049   5481438.9146   2  10   0.1792   0.1248   0.2740   0.1198   0.1489   0.1992  -0.01    1.5
2017/07/23 10:36:17.800   2774440.8862   1653824.8036   5481438.9205   2  10   0.1786   0.1245   0.2730   0.1194   0.1484   0.1985  -0.01    1.5
2017/07/23 10:36:18.000   2774440.8899   1653824.8052   5481438.9283   2  10   0.1780   0.1241   0.2720   0.1189   0.1479   0.1978  -0.01    1.4
2017/07/23 10:36:18.200   2774440.8904   1653824.8042   5481438.9299   2  10   0.1774   0.1238   0.2710   0.1185   0.1474   0.1971  -0.01    1.4
2017/07/23 10:36:18.400   2774440.8914   1653824.8034   5481438.9309   2  10   0.1769   0.1235   0.2700   0.1181   0.1469   0.1964  -0.01    1.4
2017/07/23 10:36:18.600   2774440.8950   1653824.8054   5481438.9384   2  10   0.1763   0.1231   0.2691   0.1177   0.1464   0.1958  -0.01    1.4
2017/07/23 10:36:18.800   2774440.8969   1653824.8058   5481438.9388   2  10   0.1757   0.1228   0.2681   0.1173   0.1459   0.1951  -0.01    1.4
2017/07/23 10:36:19.000   2774440.9019   1653824.8081   5481438.9452   2  10   0.1751   0.1225   0.2671   0.1169   0.1454   0.1944  -0.01    1.4
2017/07/23 10:36:19.200   2774440.9033   1653824.8082   5481438.9498   2  10   0.1746   0.1221   0.2662   0.1165   0.1449   0.1937  -0.01    1.4
2017/07/23 10:36:19.400   2774440.9063   1653824.8101   5481438.9583   2  10   0.1740   0.1218   0.2652   0.1161   0.1444   0.1930  -0.01    1.4
2017/07/23 10:36:19.600   2774440.9055   1653824.8103   5481438.9606   2  10   0.1735   0.1215   0.2643   0.1157   0.1439   0.1924  -0.01    1.4
2017/07/23 10:36:19.800   2774440.9054   1653824.8111   5481438.9631   2  10   0.1729   0.1211   0.2633   0.1153   0.1434   0.1917  -0.01    1.4
2017/07/23 10:36:20.000   2774440.9098   1653824.8142   5481438.9710   2  10   0.1723   0.1208   0.2624   0.1149   0.1429   0.1910  -0.01    1.4
2017/07/23 10:36:20.200   2774440.9152   1653824.8182   5481438.9830   2  10   0.1718   0.1205   0.2614   0.1145   0.1424   0.1904  -0.01    1.4
2017/07/23 10:36:20.400   2774440.9187   1653824.8209   5481438.9911   2  10   0.1712   0.1202   0.2605   0.1141   0.1419   0.1897  -0.01    1.4
2017/07/23 10:36:20.600   2774440.9240   1653824.8242   5481438.9984   2  10   0.1707   0.1198   0.2596   0.1137   0.1414   0.1891  -0.01    1.4
2017/07/23 10:36:20.800   2774440.9292   1653824.8279   5481439.0097   2  10   0.1701   0.1195   0.2587   0.1133   0.1409   0.1884  -0.01    1.4
2017/07/23 10:36:21.000   2774440.9303   1653824.8286   5481439.0135   2  10   0.1696   0.1192   0.2578   0.1129   0.1405   0.1878  -0.01    1.3
2017/07/23 10:36:21.200   2774440.9323   1653824.8293   5481439.0149   2  10   0.1691   0.1189   0.2568   0.1125   0.1400   0.1871  -0.01    1.3
2017/07/23 10:36:21.400   2774440.9353   1653824.8302   5481439.0191   2  10   0.1685   0.1186   0.2559   0.1121   0.1395   0.1865  -0.01    1.3
2017/07/23 10:36:21.600   2774440.9357   1653824.8307   5481439.0189   2  10   0.1680   0.1182   0.2550   0.1117   0.1390   0.1858  -0.01    1.3
2017/07/23 10:36:21.800   2774440.9373   1653824.8315   5481439.0253   2  10   0.1675   0.1179   0.2541   0.1114   0.1386   0.1852  -0.01    1.3
2017/07/23 10:36:22.000   2774440.9413   1653824.8333   5481439.0319   2  10   0.1669   0.1176   0.2532   0.1110   0.1381   0.1846  -0.01    1.3
2017/07/23 10:36:22.200   2774440.9438   1653824.8329   5481439.0361   2  10   0.1664   0.1173   0.2523   0.1106   0.1376   0.1839  -0.01    1.3
2017/07/23 10:36:22.400   2774440.9434   1653824.8320   5481439.0396   2  10   0.1659   0.1170   0.2515   0.1102   0.1372   0.1833  -0.01    1.3
2017/07/23 10:36:22.600   2774440.9454   1653824.8331   5481439.0484   2  10   0.1654   0.1167   0.2506   0.1098   0.1367   0.1827  -0.01    1.3
2017/07/23 10:36:22.800   2774440.9469   1653824.8336   5481439.0534   2  10   0.1648   0.1164   0.2497   0.1095   0.1363   0.1820  -0.01    1.3
2017/07/23 10:36:23.000   2774440.9483   1653824.8334   5481439.0571   2  10   0.1643   0.1161   0.2488   0.1091   0.1358   0.1814  -0.01    1.3
2017/07/23 10:36:23.200   2774440.9502   1653824.8341   5481439.0611   2  10   0.1638   0.1158   0.2480   0.1087   0.1354   0.1808  -0.01    1.3
2017/07/23 10:36:23.400   2774440.9519   1653824.8348   5481439.0624   2  10   0.1633   0.1155   0.2471   0.1084   0.1349   0.1802  -0.01    1.3
2017/07/23 10:36:23.600   2774440.9513   1653824.8346   5481439.0635   2  10   0.1628   0.1152   0.2462   0.1080   0.1345   0.1796  -0.01    1.3
2017/07/23 10:36:23.800   2774440.9518   1653824.8353   5481439.0697   2  10   0.1623   0.1149   0.2454   0.1076   0.1340   0.1790  -0.01    1.3
2017/07/23 10:36:24.000   2774440.9541   1653824.8366   5481439.0740   2  10   0.1618   0.1146   0.2445   0.1073   0.1336   0.1784  -0.01    1.3
2017/07/23 10:36:24.200   2774440.9594   1653824.8396   5481439.0846   2  10   0.1613   0.1143   0.2437   0.1069   0.1331   0.1778  -0.01    1.3
2017/07/23 10:36:24.400   2774440.9597   1653824.8400   5481439.0873   2  10   0.1607   0.1140   0.2428   0.1065   0.1327   0.1772  -0.01    1.3
2017/07/23 10:36:24.600   2774440.9603   1653824.8408   5481439.0924   2  10   0.1602   0.1137   0.2420   0.1062   0.1322   0.1766  -0.01    1.2
2017/07/23 10:36:24.800   2774440.9594   1653824.8392   5481439.0934   2  10   0.1598   0.1134   0.2412   0.1058   0.1318   0.1760  -0.01    1.2
2017/07/23 10:36:25.000   2774440.9631   1653824.8412   5481439.1020   2  10   0.1593   0.1131   0.2403   0.1055   0.1314   0.1754  -0.01    1.2
2017/07/23 10:36:25.200   2774440.9642   1653824.8416   5481439.1061   2  10   0.1588   0.1128   0.2395   0.1051   0.1309   0.1748  -0.01    1.2
2017/07/23 10:36:25.400   2774440.9676   1653824.8433   5481439.1143   2  10   0.1583   0.1125   0.2387   0.1047   0.1305   0.1742  -0.01    1.2
2017/07/23 10:36:25.600   2774440.9699   1653824.8447   5481439.1228   2  10   0.1578   0.1122   0.2379   0.1044   0.1301   0.1736  -0.01    1.2
2017/07/23 10:36:25.800   2774440.9717   1653824.8456   5481439.1273   2  10   0.1573   0.1119   0.2371   0.1040   0.1296   0.1731  -0.01    1.2
2017/07/23 10:36:26.000   2774440.9735   1653824.8456   5481439.1324   2  10   0.1568   0.1116   0.2363   0.1037   0.1292   0.1725  -0.01    1.2
2017/07/23 10:36:26.200   2774440.9757   1653824.8455   5481439.1357   2  10   0.1563   0.1114   0.2354   0.1033   0.1288   0.1719  -0.01    1.2
2017/07/23 10:36:26.400   2774440.9780   1653824.8459   5481439.1410   2  10   0.1558   0.1111   0.2346   0.1030   0.1284   0.1713  -0.01    1.2
2017/07/23 10:36:26.600   2774440.9803   1653824.8459   5481439.1497   2  10   0.1554   0.1108   0.2338   0.1027   0.1279   0.1708  -0.01    1.2
2017/07/23 10:36:26.800   2774440.9823   1653824.8461   5481439.1550   2  10   0.1549   0.1105   0.2330   0.1023   0.1275   0.1702  -0.01    1.2
2017/07/23 10:36:27.000   2774440.9847   1653824.8455   5481439.1623   2  10   0.1544   0.1102   0.2323   0.1020   0.1271   0.1696  -0.01    1.2
2017/07/23 10:36:27.200   2774440.9876   1653824.8449   5481439.1691   2  10   0.1539   0.1100   0.2315   0.1016   0.1267   0.1691  -0.01    1.2
2017/07/23 10:36:27.400   2774440.9879   1653824.8442   5481439.1758   2  10   0.1535   0.1097   0.2307   0.1013   0.1263   0.1685  -0.01    1.2
2017/07/23 10:36:27.600   2774440.9906   1653824.8440   5481439.1835   2  10   0.1530   0.1094   0.2299   0.1009   0.1259   0.1680  -0.01    1.2
2017/07/23 10:36:27.800   2774440.9926   1653824.8432   5481439.1903   2  10   0.1525   0.1091   0.2291   0.1006   0.1255   0.1674  -0.01    1.2
2017/07/23 10:36:28.000   2774440.9971   1653824.8448   5481439.2010   2  10   0.1521   0.1088   0.2284   0.1003   0.1251   0.1669  -0.01    1.2
2017/07/23 10:36:28.200   2774441.0015   1653824.8459   5481439.2126   2  10   0.1516   0.1086   0.2276   0.0999   0.1247   0.1663  -0.01    1.2
2017/07/23 10:36:28.400   2774440.9999   1653824.8443   5481439.2149   2  10   0.1512   0.1083   0.2268   0.0996   0.1243   0.1658  -0.01    1.2
2017/07/23 10:36:28.600   2774441.0021   1653824.8441   5481439.2228   2  10   0.1507   0.1080   0.2261   0.0993   0.1239   0.1652  -0.01    1.2
2017/07/23 10:36:28.800   2774441.0018   1653824.8420   5481439.2279   2  10   0.1502   0.1078   0.2253   0.0990   0.1235   0.1647  -0.01    1.2
2017/07/23 10:36:29.000   2774441.0038   1653824.8412   5481439.2357   2  10   0.1498   0.1075   0.2246   0.0986   0.1231   0.1642  -0.01    1.1
2017/07/23 10:36:29.200   2774441.0053   1653824.8399   5481439.2443   2  10   0.1493   0.1072   0.2238   0.0983   0.1227   0.1636  -0.01    1.1
2017/07/23 10:36:29.400   2774441.0045   1653824.8366   5481439.2474   2  10   0.1489   0.1070   0.2231   0.0980   0.1223   0.1631  -0.01    1.1
2017/07/23 10:36:29.600   2774441.0047   1653824.8350   5481439.2542   2  10   0.1484   0.1067   0.2223   0.0976   0.1219   0.1626  -0.01    1.1
2017/07/23 10:36:29.800   2774441.0040   1653824.8325   5481439.2581   2  10   0.1480   0.1064   0.2216   0.0973   0.1215   0.1620  -0.01    1.1
2017/07/23 10:36:30.000   2774441.0041   1653824.8293   5481439.2620   2  10   0.1475   0.1062   0.2208   0.0970   0.1211   0.1615  -0.01    1.1
2017/07/23 10:36:30.200   2774441.0030   1653824.8261   5481439.2668   2  10   0.1471   0.1059   0.2201   0.0967   0.1207   0.1610  -0.01    1.1
2017/07/23 10:36:30.400   2774441.0042   1653824.8240   5481439.2739   2  10   0.1467   0.1056   0.2194   0.0964   0.1203   0.1605  -0.01    1.1
2017/07/23 10:36:30.600   2774441.0072   1653824.8227   5481439.2819   2  10   0.1462   0.1054   0.2187   0.0960   0.1199   0.1600  -0.01    1.1
2017/07/23 10:36:30.800   2774441.0092   1653824.8209   5481439.2885   2  10   0.1458   0.1051   0.2179   0.0957   0.1196   0.1594  -0.01    1.1
2017/07/23 10:36:31.000   2774441.0101   1653824.8186   5481439.2924   2  10   0.1454   0.1049   0.2172   0.0954   0.1192   0.1589  -0.01    1.1
2017/07/23 10:36:31.200   2774441.0106   1653824.8158   5481439.2986   2  10   0.1449   0.1046   0.2165   0.0951   0.1188   0.1584  -0.01    1.1
2017/07/23 10:36:31.400   2774441.0117   1653824.8139   5481439.3053   2  10   0.1445   0.1044   0.2158   0.0948   0.1184   0.1579  -0.01    1.1
2017/07/23 10:36:31.600   2774441.0123   1653824.8122   5481439.3103   2  10   0.1441   0.1041   0.2151   0.0945   0.1181   0.1574  -0.01    1.1
2017/07/23 10:36:31.800   2774441.0146   1653824.8125   5481439.3185   2  10   0.1436   0.1038   0.2144   0.0942   0.1177   0.1569  -0.01    1.1
2017/07/23 10:36:32.000   2774441.0159   1653824.8115   5481439.3234   2  10   0.1432   0.1036   0.2137   0.0939   0.1173   0.1564  -0.01    1.1
2017/07/23 10:36:32.200   2774441.0165   1653824.8100   5481439.3267   2  10   0.1428   0.1033   0.2130   0.0936   0.1169   0.1559  -0.01    1.1
2017/07/23 10:36:32.400   2774441.0186   1653824.8089   5481439.3336   2  10   0.1424   0.1031   0.2123   0.0933   0.1166   0.1554  -0.01    1.1
2017/07/23 10:36:32.600   2774441.0194   1653824.8071   5481439.3363   2  10   0.1419   0.1028   0.2116   0.0930   0.1162   0.1549  -0.01    1.1
2017/07/23 10:36:32.800   2774441.0209   1653824.8057   5481439.3414   2  10   0.1415   0.1026   0.2109   0.0926   0.1158   0.1544  -0.01    1.1
2017/07/23 10:36:33.000   2774441.0210   1653824.8029   5481439.3415   2  10   0.1411   0.1023   0.2102   0.0923   0.1155   0.1539  -0.01    1.1
2017/07/23 10:36:33.200   2774441.0216   1653824.8002   5481439.3435   2  10   0.1407   0.1021   0.2095   0.0920   0.1151   0.1534  -0.01    1.1
2017/07/23 10:36:33.400   2774441.0223   1653824.7984   5481439.3486   2  10   0.1403   0.1019   0.2088   0.0917   0.1148   0.1530  -0.01    1.1
2017/07/23 10:36:33.600   2774441.0213   1653824.7955   5481439.3497   2  10   0.1399   0.1016   0.2082   0.0915   0.1144   0.1525  -0.01    1.1
2017/07/23 10:36:33.800   2774441.0230   1653824.7948   5481439.3562   2  10   0.1395   0.1014   0.2075   0.0912   0.1141   0.1520  -0.01    1.0
2017/07/23 10:36:34.000   2774441.0229   1653824.7927   5481439.3580   2  10   0.1391   0.1011   0.2068   0.0909   0.1137   0.1515  -0.01    1.0
2017/07/23 10:36:34.200   2774441.0232   1653824.7905   5481439.3585   2  10   0.1386   0.1009   0.2062   0.0906   0.1133   0.1510  -0.01    1.0
2017/07/23 10:36:34.400   2774441.0244   1653824.7888   5481439.3603   2  10   0.1382   0.1006   0.2055   0.0903   0.1130   0.1506  -0.01    1.0
2017/07/23 10:36:34.600   2774441.0275   1653824.7881   5481439.3667   2  10   0.1378   0.1004   0.2048   0.0900   0.1126   0.1501  -0.01    1.0
2017/07/23 10:36:34.800   2774441.0299   1653824.7868   5481439.3742   2  10   0.1374   0.1002   0.2042   0.0897   0.1123   0.1496  -0.01    1.0
2017/07/23 10:36:35.000   2774441.0320   1653824.7850   5481439.3778   2  10   0.1370   0.0999   0.2035   0.0894   0.1119   0.1492  -0.01    1.0
2017/07/23 10:36:35.200   2774441.0350   1653824.7838   5481439.3835   2  10   0.1366   0.0997   0.2029   0.0891   0.1116   0.1487  -0.01    1.0
2017/07/23 10:36:35.400   2774441.0351   1653824.7804   5481439.3845   2  10   0.1362   0.0995   0.2022   0.0888   0.1113   0.1482  -0.01    1.0
2017/07/23 10:36:35.600   2774441.0382   1653824.7791   5481439.3920   2  10   0.1359   0.0992   0.2016   0.0885   0.1109   0.1478  -0.01    1.0
2017/07/23 10:36:35.800   2774441.0418   1653824.7779   5481439.4001   2  10   0.1355   0.0990   0.2009   0.0883   0.1106   0.1473  -0.01    1.0
2017/07/23 10:36:36.000   2774441.0457   1653824.7770   5481439.4082   2  10   0.1351   0.0988   0.2003   0.0880   0.1102   0.1469  -0.01    1.0
2017/07/23 10:36:36.200   2774441.0494   1653824.7756   5481439.4195   2  10   0.1347   0.0985   0.1997   0.0877   0.1099   0.1464  -0.01    1.0
2017/07/23 10:36:36.400   2774441.0552   1653824.7758   5481439.4321   2  10   0.1343   0.0983   0.1990   0.0874   0.1096   0.1459  -0.01    1.0
2017/07/23 10:36:36.600   2774441.0578   1653824.7744   5481439.4390   2  10   0.1339   0.0981   0.1984   0.0871   0.1092   0.1455  -0.01    1.0
2017/07/23 10:36:36.800   2774441.0610   1653824.7732   5481439.4476   2  10   0.1335   0.0978   0.1978   0.0869   0.1089   0.1450  -0.01    1.0
2017/07/23 10:36:37.000   2774441.0659   1653824.7727   5481439.4565   2  10   0.1331   0.0976   0.1972   0.0866   0.1086   0.1446  -0.01    1.0
2017/07/23 10:36:37.200   2774441.0701   1653824.7724   5481439.4664   2  10   0.1328   0.0974   0.1965   0.0863   0.1082   0.1442  -0.01    1.0
2017/07/23 10:36:37.400   2774441.0748   1653824.7722   5481439.4749   2  10   0.1324   0.0972   0.1959   0.0860   0.1079   0.1437  -0.01    1.0
2017/07/23 10:36:37.600   2774441.0804   1653824.7723   5481439.4849   2  10   0.1320   0.0969   0.1953   0.0858   0.1076   0.1433  -0.01    1.0
2017/07/23 10:36:37.800   2774441.0841   1653824.7720   5481439.4919   2  10   0.1316   0.0967   0.1947   0.0855   0.1072   0.1428  -0.01    1.0
2017/07/23 10:36:38.000   2774441.0866   1653824.7700   5481439.4993   2  10   0.1313   0.0965   0.1941   0.0852   0.1069   0.1424  -0.01    1.1
2017/07/23 10:36:38.200   2774441.0899   1653824.7695   5481439.5080   2  10   0.1309   0.0963   0.1935   0.0849   0.1066   0.1420  -0.01    1.1
2017/07/23 10:36:38.400   2774441.0947   1653824.7693   5481439.5161   2  10   0.1305   0.0960   0.1929   0.0847   0.1063   0.1415  -0.01    1.1
2017/07/23 10:36:38.600   2774441.0983   1653824.7689   5481439.5237   2  10   0.1301   0.0958   0.1923   0.0844   0.1060   0.1411  -0.01    1.1
2017/07/23 10:36:38.800   2774441.0996   1653824.7681   5481439.5273   2  10   0.1298   0.0956   0.1917   0.0841   0.1056   0.1407  -0.01    1.1
