% program   : RTKLIB ver.2.4.3 Emlid
% inp file  : /home/artur/RTKLIB/test/test/static/5_new_bridge/rover.obs
% inp file  : /home/artur/RTKLIB/test/test/static/5_new_bridge/base.obs
% inp file  : /home/artur/RTKLIB/test/test/static/5_new_bridge/rover.nav
% obs start : 2017/07/23 11:50:45.6 GPST (week1959  42645.6s)
% obs end   : 2017/07/23 12:01:22.2 GPST (week1959  43282.2s)
% pos mode  : static
% freqs     : L1
% solution  : combined
% elev mask : 15.0 deg
% dynamics  : on
% tidecorr  : off
% ionos opt : broadcast
% tropo opt : est ztd
% ephemeris : broadcast
% navi sys  : gps glonass galileo qzss beidou sbas
% amb res   : continuous
% amb glo   : off
% val thres : 3.0
% antenna1  :                       ( 0.0000  0.0000  0.0000)
% antenna2  :                       ( 0.0000  0.0000  0.0000)
% ref pos   :  2773909.8712  1654076.4507  5481627.6877
%
% (x/y/z-ecef=WGS84,Q=1:fix,2:float,3:sbas,4:dgps,5:single,6:ppp,ns=# of satellites)
%  GPST                      x-ecef(m)      y-ecef(m)      z-ecef(m)   Q  ns   sdx(m)   sdy(m)   sdz(m)  sdxy(m)  sdyz(m)  sdzx(m) age(s)  ratio
2017/07/23 11:50:45.600   2773840.7241   1653189.4644   5481929.5447   2  15   0.0049   0.0048   0.0065   0.0019   0.0038   0.0049  -0.01    0.0
2017/07/23 11:50:45.800   2773840.7240   1653189.4646   5481929.5447   2  15   0.0049   0.0048   0.0065   0.0019   0.0038   0.0049  -0.01    0.0
2017/07/23 11:50:46.000   2773840.7239   1653189.4647   5481929.5447   2  15   0.0049   0.0048   0.0065   0.0019   0.0038   0.0049  -0.01    0.0
2017/07/23 11:50:46.200   2773840.7239   1653189.4648   5481929.5448   2  16   0.0049   0.0048   0.0065   0.0019   0.0038   0.0049  -0.01    0.0
2017/07/23 11:50:46.400   2773840.7239   1653189.4650   5481929.5449   2  16   0.0049   0.0048   0.0065   0.0019   0.0038   0.0049  -0.01    0.0
2017/07/23 11:50:46.600   2773840.7239   1653189.4651   5481929.5450   2  16   0.0049   0.0048   0.0065   0.0019   0.0038   0.0049  -0.01    0.0
2017/07/23 11:50:46.800   2773840.7239   1653189.4653   5481929.5451   2  16   0.0049   0.0048   0.0065   0.0019   0.0038   0.0049  -0.01    0.0
2017/07/23 11:50:47.000   2773840.7238   1653189.4655   5481929.5451   2  16   0.0049   0.0048   0.0065   0.0019   0.0038   0.0049  -0.01    0.0
2017/07/23 11:50:47.200   2773840.7237   1653189.4656   5481929.5452   2  16   0.0049   0.0048   0.0065   0.0019   0.0038   0.0049  -0.01    0.0
2017/07/23 11:50:47.400   2773840.7237   1653189.4658   5481929.5452   2  16   0.0049   0.0048   0.0065   0.0019   0.0038   0.0049  -0.01    0.0
2017/07/23 11:50:47.600   2773840.7236   1653189.4659   5481929.5452   2  17   0.0049   0.0048   0.0066   0.0019   0.0038   0.0049  -0.01    0.0
2017/07/23 11:50:47.800   2773840.7235   1653189.4660   5481929.5452   2  17   0.0049   0.0048   0.0066   0.0019   0.0038   0.0049  -0.01    0.0
2017/07/23 11:50:48.000   2773840.7235   1653189.4662   5481929.5452   2  16   0.0049   0.0048   0.0066   0.0019   0.0038   0.0049  -0.01    0.0
2017/07/23 11:50:48.200   2773840.7234   1653189.4662   5481929.5452   2  16   0.0049   0.0048   0.0066   0.0019   0.0038   0.0049  -0.01    0.0
2017/07/23 11:50:48.400   2773840.7233   1653189.4663   5481929.5451   2  16   0.0049   0.0048   0.0066   0.0019   0.0038   0.0049  -0.01    0.0
2017/07/23 11:50:48.600   2773840.7232   1653189.4664   5481929.5451   2  16   0.0049   0.0048   0.0066   0.0019   0.0038   0.0049  -0.01    0.0
2017/07/23 11:50:48.800   2773840.7231   1653189.4666   5481929.5452   2  17   0.0049   0.0048   0.0066   0.0019   0.0038   0.0049  -0.01    0.0
2017/07/23 11:50:49.000   2773840.7230   1653189.4667   5481929.5452   2  17   0.0049   0.0049   0.0066   0.0019   0.0038   0.0049  -0.01    0.0
2017/07/23 11:50:49.200   2773840.7230   1653189.4667   5481929.5452   2  17   0.0049   0.0049   0.0066   0.0019   0.0038   0.0049  -0.01    0.0
2017/07/23 11:50:49.400   2773840.7229   1653189.4668   5481929.5452   2  17   0.0049   0.0049   0.0066   0.0019   0.0038   0.0049  -0.01    0.0
2017/07/23 11:50:49.600   2773840.7228   1653189.4669   5481929.5452   2  17   0.0049   0.0049   0.0066   0.0019   0.0038   0.0049  -0.01    0.0
2017/07/23 11:50:49.800   2773840.7228   1653189.4670   5481929.5453   2  16   0.0049   0.0049   0.0066   0.0019   0.0038   0.0049  -0.01    0.0
2017/07/23 11:50:50.000   2773840.7228   1653189.4671   5481929.5453   2  16   0.0049   0.0049   0.0066   0.0019   0.0038   0.0049  -0.01    0.0
2017/07/23 11:50:50.200   2773840.7228   1653189.4672   5481929.5453   2  17   0.0049   0.0049   0.0066   0.0019   0.0038   0.0049  -0.01    0.0
2017/07/23 11:50:50.400   2773840.7227   1653189.4673   5481929.5453   2  17   0.0049   0.0049   0.0066   0.0019   0.0038   0.0049  -0.01    0.0
2017/07/23 11:50:50.600   2773840.7226   1653189.4673   5481929.5453   2  17   0.0049   0.0049   0.0066   0.0019   0.0038   0.0049  -0.01    0.0
2017/07/23 11:50:50.800   2773840.7226   1653189.4674   5481929.5453   2  17   0.0049   0.0049   0.0066   0.0019   0.0038   0.0049  -0.01    0.0
2017/07/23 11:50:51.000   2773840.7226   1653189.4675   5481929.5453   2  16   0.0049   0.0049   0.0066   0.0019   0.0038   0.0049  -0.01    0.0
2017/07/23 11:50:51.200   2773840.7225   1653189.4676   5481929.5453   2  16   0.0049   0.0049   0.0066   0.0019   0.0038   0.0049  -0.01    0.0
2017/07/23 11:50:51.400   2773840.7225   1653189.4677   5481929.5454   2  16   0.0049   0.0049   0.0066   0.0019   0.0038   0.0049  -0.01    0.0
2017/07/23 11:50:51.600   2773840.7224   1653189.4678   5481929.5454   2  17   0.0049   0.0049   0.0066   0.0019   0.0038   0.0049  -0.01    0.0
2017/07/23 11:50:51.800   2773840.7224   1653189.4679   5481929.5454   2  17   0.0049   0.0049   0.0066   0.0019   0.0038   0.0049  -0.01    0.0
2017/07/23 11:50:52.000   2773840.7224   1653189.4680   5481929.5454   2  17   0.0049   0.0049   0.0066   0.0019   0.0038   0.0049  -0.01    0.0
2017/07/23 11:50:52.200   2773840.7223   1653189.4681   5481929.5454   2  17   0.0049   0.0049   0.0066   0.0019   0.0038   0.0049  -0.01    0.0
2017/07/23 11:50:52.400   2773840.7223   1653189.4682   5481929.5454   2  17   0.0049   0.0049   0.0066   0.0019   0.0038   0.0049  -0.01    0.0
2017/07/23 11:50:52.600   2773840.7222   1653189.4683   5481929.5455   2  17   0.0049   0.0049   0.0066   0.0019   0.0038   0.0049  -0.01    0.0
2017/07/23 11:50:52.800   2773840.7222   1653189.4683   5481929.5455   2  17   0.0049   0.0049   0.0066   0.0019   0.0038   0.0049  -0.01    0.0
2017/07/23 11:50:53.000   2773840.7222   1653189.4684   5481929.5455   2  17   0.0049   0.0049   0.0066   0.0019   0.0038   0.0049  -0.01    0.0
2017/07/23 11:50:53.200   2773840.7221   1653189.4685   5481929.5455   2  17   0.0049   0.0049   0.0066   0.0019   0.0038   0.0049  -0.01    0.0
2017/07/23 11:50:53.400   2773840.7221   1653189.4686   5481929.5455   2  17   0.0049   0.0049   0.0066   0.0019   0.0038   0.0049  -0.01    0.0
2017/07/23 11:50:53.600   2773840.7221   1653189.4686   5481929.5455   2  17   0.0049   0.0049   0.0066   0.0019   0.0038   0.0049  -0.01    0.0
2017/07/23 11:50:53.800   2773840.7221   1653189.4687   5481929.5455   2  17   0.0049   0.0049   0.0066   0.0019   0.0038   0.0049  -0.01    0.0
2017/07/23 11:50:54.000   2773840.7220   1653189.4688   5481929.5456   2  16   0.0049   0.0049   0.0066   0.0019   0.0038   0.0049  -0.01    0.0
2017/07/23 11:50:54.200   2773840.7220   1653189.4688   5481929.5456   2  16   0.0049   0.0049   0.0066   0.0019   0.0038   0.0049  -0.01    0.0
2017/07/23 11:50:54.400   2773840.7220   1653189.4689   5481929.5456   2  17   0.0049   0.0049   0.0066   0.0019   0.0038   0.0049  -0.01    0.0
2017/07/23 11:50:54.600   2773840.7220   1653189.4690   5481929.5456   2  17   0.0049   0.0049   0.0066   0.0019   0.0038   0.0049  -0.01    0.0
2017/07/23 11:50:54.800   2773840.7220   1653189.4691   5481929.5456   2  17   0.0049   0.0049   0.0066   0.0019   0.0038   0.0049  -0.01    0.0
2017/07/23 11:50:55.000   2773840.7220   1653189.4692   5481929.5457   2  17   0.0049   0.0049   0.0066   0.0019   0.0038   0.0049  -0.01    0.0
2017/07/23 11:50:55.200   2773840.7219   1653189.4692   5481929.5457   2  17   0.0049   0.0049   0.0066   0.0019   0.0038   0.0049  -0.01    0.0
2017/07/23 11:50:55.400   2773840.7219   1653189.4693   5481929.5457   2  17   0.0049   0.0049   0.0066   0.0019   0.0038   0.0049  -0.01    2.4
2017/07/23 11:50:55.600   2773840.7219   1653189.4693   5481929.5457   2  17   0.0049   0.0049   0.0066   0.0019   0.0038   0.0049  -0.01    2.4
2017/07/23 11:50:55.800   2773840.7218   1653189.4693   5481929.5456   2  17   0.0049   0.0049   0.0066   0.0019   0.0038   0.0049  -0.01    2.4
2017/07/23 11:50:56.000   2773840.7218   1653189.4694   5481929.5455   2  16   0.0049   0.0049   0.0066   0.0019   0.0038   0.0049  -0.01    2.3
2017/07/23 11:50:56.200   2773840.7217   1653189.4694   5481929.5455   2  16   0.0049   0.0049   0.0066   0.0019   0.0038   0.0049  -0.01    2.3
2017/07/23 11:50:56.400   2773840.8720   1653189.0989   5481928.8819   1  17   0.0099   0.0057   0.0175   0.0074   0.0099   0.0131  -0.01    4.8
2017/07/23 11:50:56.600   2773840.8718   1653189.0988   5481928.8816   1  17   0.0098   0.0057   0.0175   0.0074   0.0098   0.0130  -0.01    4.8
2017/07/23 11:50:56.800   2773840.8716   1653189.0987   5481928.8812   1  17   0.0098   0.0057   0.0174   0.0074   0.0098   0.0130  -0.01    4.9
2017/07/23 11:50:57.000   2773840.8714   1653189.0986   5481928.8810   1  17   0.0098   0.0056   0.0174   0.0074   0.0098   0.0129  -0.01    4.8
2017/07/23 11:50:57.200   2773840.8713   1653189.0986   5481928.8808   1  17   0.0098   0.0056   0.0173   0.0073   0.0097   0.0129  -0.01    4.3
2017/07/23 11:50:57.400   2773840.8710   1653189.0984   5481928.8802   1  17   0.0097   0.0056   0.0173   0.0073   0.0097   0.0129  -0.01    3.8
2017/07/23 11:50:57.600   2773840.8709   1653189.0984   5481928.8801   1  17   0.0097   0.0056   0.0173   0.0073   0.0097   0.0128  -0.01    3.5
2017/07/23 11:50:57.800   2773840.8708   1653189.0984   5481928.8799   1  17   0.0097   0.0056   0.0172   0.0073   0.0097   0.0128  -0.01    3.2
2017/07/23 11:50:58.000   2773840.8706   1653189.0982   5481928.8796   1  17   0.0097   0.0056   0.0172   0.0073   0.0096   0.0128  -0.01    3.0
2017/07/23 11:50:58.200   2773840.7214   1653189.4698   5481929.5454   2  17   0.0049   0.0049   0.0066   0.0019   0.0038   0.0049  -0.01    2.9
2017/07/23 11:50:58.400   2773840.7214   1653189.4698   5481929.5454   2  17   0.0049   0.0049   0.0066   0.0019   0.0038   0.0049  -0.01    2.9
2017/07/23 11:50:58.600   2773840.7214   1653189.4698   5481929.5454   2  17   0.0049   0.0049   0.0066   0.0019   0.0038   0.0049  -0.01    2.9
2017/07/23 11:50:58.800   2773840.7214   1653189.4699   5481929.5454   2  17   0.0049   0.0049   0.0066   0.0019   0.0038   0.0049  -0.01    2.8
2017/07/23 11:50:59.000   2773840.7214   1653189.4699   5481929.5454   2  17   0.0049   0.0049   0.0066   0.0019   0.0038   0.0049  -0.01    2.8
2017/07/23 11:50:59.200   2773840.7213   1653189.4699   5481929.5454   2  17   0.0049   0.0049   0.0066   0.0019   0.0038   0.0049  -0.01    2.7
2017/07/23 11:50:59.400   2773840.7213   1653189.4699   5481929.5454   2  17   0.0049   0.0049   0.0066   0.0019   0.0038   0.0049  -0.01    2.7
2017/07/23 11:50:59.600   2773840.7213   1653189.4699   5481929.5453   2  17   0.0049   0.0049   0.0066   0.0019   0.0038   0.0049  -0.01    2.6
2017/07/23 11:50:59.800   2773840.7213   1653189.4699   5481929.5453   2  17   0.0049   0.0049   0.0066   0.0019   0.0038   0.0049  -0.01    2.6
2017/07/23 11:51:00.000   2773840.7212   1653189.4699   5481929.5453   2  17   0.0049   0.0049   0.0066   0.0019   0.0038   0.0049  -0.01    2.6
2017/07/23 11:51:00.200   2773840.7212   1653189.4699   5481929.5453   2  17   0.0049   0.0049   0.0066   0.0019   0.0038   0.0049  -0.01    2.6
2017/07/23 11:51:00.400   2773840.7212   1653189.4699   5481929.5453   2  17   0.0049   0.0049   0.0066   0.0019   0.0038   0.0049  -0.01    2.7
2017/07/23 11:51:00.600   2773840.7212   1653189.4699   5481929.5453   2  16   0.0049   0.0049   0.0066   0.0019   0.0038   0.0049  -0.01    2.7
2017/07/23 11:51:00.800   2773840.7211   1653189.4699   5481929.5453   2  16   0.0049   0.0049   0.0066   0.0019   0.0038   0.0049  -0.01    2.8
2017/07/23 11:51:01.000   2773840.7211   1653189.4699   5481929.5452   2  17   0.0049   0.0049   0.0066   0.0019   0.0038   0.0049  -0.01    2.8
2017/07/23 11:51:01.200   2773840.7211   1653189.4699   5481929.5452   2  17   0.0049   0.0049   0.0066   0.0019   0.0038   0.0049  -0.01    2.9
2017/07/23 11:51:01.400   2773840.7211   1653189.4699   5481929.5452   2  17   0.0049   0.0049   0.0066   0.0019   0.0038   0.0049  -0.01    2.9
2017/07/23 11:51:01.600   2773840.7210   1653189.4699   5481929.5451   2  17   0.0049   0.0049   0.0066   0.0019   0.0038   0.0049  -0.01    2.9
2017/07/23 11:51:01.800   2773840.7210   1653189.4699   5481929.5451   2  17   0.0049   0.0049   0.0066   0.0019   0.0038   0.0049  -0.01    2.9
2017/07/23 11:51:02.000   2773840.7210   1653189.4700   5481929.5451   2  17   0.0049   0.0049   0.0066   0.0019   0.0038   0.0049  -0.01    2.8
2017/07/23 11:51:02.200   2773840.7209   1653189.4700   5481929.5451   2  17   0.0049   0.0049   0.0066   0.0019   0.0038   0.0049  -0.01    2.8
2017/07/23 11:51:02.400   2773840.7209   1653189.4700   5481929.5450   2  17   0.0049   0.0049   0.0066   0.0019   0.0038   0.0049  -0.01    2.8
2017/07/23 11:51:02.600   2773840.7209   1653189.4700   5481929.5450   2  17   0.0049   0.0049   0.0066   0.0019   0.0038   0.0049  -0.01    2.8
2017/07/23 11:51:02.800   2773840.7209   1653189.4700   5481929.5450   2  16   0.0049   0.0049   0.0066   0.0019   0.0038   0.0049  -0.01    2.8
2017/07/23 11:51:03.000   2773840.7208   1653189.4700   5481929.5450   2  17   0.0049   0.0049   0.0066   0.0019   0.0038   0.0049  -0.01    2.8
2017/07/23 11:51:03.200   2773840.7208   1653189.4700   5481929.5450   2  17   0.0049   0.0049   0.0066   0.0019   0.0038   0.0049  -0.01    2.8
2017/07/23 11:51:03.400   2773840.7208   1653189.4700   5481929.5450   2  17   0.0049   0.0049   0.0066   0.0019   0.0038   0.0049  -0.01    2.8
2017/07/23 11:51:03.600   2773840.7208   1653189.4700   5481929.5450   2  17   0.0049   0.0049   0.0066   0.0019   0.0038   0.0049  -0.01    2.8
2017/07/23 11:51:03.800   2773840.7208   1653189.4700   5481929.5449   2  17   0.0049   0.0049   0.0066   0.0019   0.0038   0.0049  -0.01    2.8
2017/07/23 11:51:04.000   2773840.7208   1653189.4700   5481929.5449   2  17   0.0049   0.0049   0.0066   0.0019   0.0038   0.0049  -0.01    2.8
2017/07/23 11:51:04.200   2773840.7207   1653189.4700   5481929.5449   2  17   0.0049   0.0049   0.0066   0.0019   0.0038   0.0049  -0.01    2.7
2017/07/23 11:51:04.400   2773840.7207   1653189.4700   5481929.5449   2  17   0.0049   0.0049   0.0066   0.0019   0.0038   0.0049  -0.01    2.6
2017/07/23 11:51:04.600   2773840.7207   1653189.4700   5481929.5449   2  17   0.0049   0.0049   0.0066   0.0019   0.0038   0.0049  -0.01    2.6
2017/07/23 11:51:04.800   2773840.7207   1653189.4700   5481929.5448   2  17   0.0049   0.0049   0.0066   0.0019   0.0038   0.0049  -0.01    2.6
2017/07/23 11:51:05.000   2773840.7207   1653189.4700   5481929.5448   2  17   0.0049   0.0049   0.0066   0.0019   0.0038   0.0049  -0.01    2.7
2017/07/23 11:51:05.200   2773840.7207   1653189.4700   5481929.5448   2  16   0.0049   0.0049   0.0066   0.0019   0.0038   0.0049  -0.01    2.0
2017/07/23 11:51:05.400   2773840.7207   1653189.4700   5481929.5448   2  16   0.0049   0.0049   0.0066   0.0019   0.0038   0.0049  -0.01    2.1
2017/07/23 11:51:05.600   2773840.7206   1653189.4700   5481929.5448   2  17   0.0049   0.0049   0.0066   0.0019   0.0038   0.0049  -0.01    2.7
2017/07/23 11:51:05.800   2773840.8728   1653189.1001   5481928.8836   1  17   0.0090   0.0052   0.0160   0.0068   0.0090   0.0119  -0.01    3.1
2017/07/23 11:51:06.000   2773840.8737   1653189.1006   5481928.8849   1  17   0.0089   0.0051   0.0158   0.0067   0.0089   0.0118  -0.01    3.2
2017/07/23 11:51:06.200   2773840.8724   1653189.0999   5481928.8826   1  17   0.0088   0.0050   0.0156   0.0066   0.0087   0.0116  -0.01    3.1
2017/07/23 11:51:06.400   2773840.8724   1653189.1000   5481928.8827   1  17   0.0086   0.0050   0.0154   0.0065   0.0086   0.0114  -0.01    3.3
2017/07/23 11:51:06.600   2773840.7199   1653189.4703   5481929.5442   2  16   0.0049   0.0049   0.0066   0.0019   0.0038   0.0049  -0.01    2.2
2017/07/23 11:51:06.800   2773840.8682   1653189.0976   5481928.8758   1  17   0.0084   0.0049   0.0150   0.0063   0.0084   0.0111  -0.01    3.2
2017/07/23 11:51:07.000   2773840.8675   1653189.0972   5481928.8743   1  17   0.0083   0.0048   0.0148   0.0063   0.0083   0.0110  -0.01    3.1
2017/07/23 11:51:07.200   2773840.8674   1653189.0972   5481928.8736   1  17   0.0082   0.0047   0.0146   0.0062   0.0082   0.0109  -0.01    3.1
2017/07/23 11:51:07.400   2773840.7194   1653189.4704   5481929.5437   2  17   0.0049   0.0049   0.0066   0.0019   0.0038   0.0049  -0.01    2.9
2017/07/23 11:51:07.600   2773840.7191   1653189.4703   5481929.5434   2  16   0.0049   0.0049   0.0066   0.0019   0.0038   0.0049  -0.01    2.8
2017/07/23 11:51:07.800   2773840.7188   1653189.4704   5481929.5432   2  17   0.0049   0.0049   0.0066   0.0019   0.0038   0.0049  -0.01    2.9
2017/07/23 11:51:08.000   2773840.8721   1653189.1007   5481928.8811   1  17   0.0078   0.0045   0.0139   0.0059   0.0078   0.0104  -0.01    3.1
2017/07/23 11:51:08.200   2773840.8721   1653189.1009   5481928.8812   1  16   0.0077   0.0045   0.0138   0.0058   0.0077   0.0103  -0.01    3.3
2017/07/23 11:51:08.400   2773840.8718   1653189.1008   5481928.8808   1  16   0.0077   0.0044   0.0136   0.0058   0.0077   0.0101  -0.01    3.1
2017/07/23 11:51:08.600   2773840.7180   1653189.4705   5481929.5425   2  15   0.0049   0.0049   0.0066   0.0020   0.0038   0.0049  -0.01    1.9
2017/07/23 11:51:08.800   2773840.8719   1653189.1011   5481928.8808   1  17   0.0075   0.0043   0.0134   0.0056   0.0075   0.0099  -0.01    3.2
2017/07/23 11:51:09.000   2773840.8722   1653189.1013   5481928.8812   1  17   0.0074   0.0043   0.0132   0.0056   0.0074   0.0098  -0.01    3.3
2017/07/23 11:51:09.200   2773840.8721   1653189.1012   5481928.8810   1  17   0.0074   0.0042   0.0131   0.0055   0.0073   0.0097  -0.01    3.3
2017/07/23 11:51:09.400   2773840.8715   1653189.1009   5481928.8800   1  17   0.0073   0.0042   0.0130   0.0055   0.0073   0.0096  -0.01    3.3
2017/07/23 11:51:09.600   2773840.8717   1653189.1012   5481928.8806   1  17   0.0072   0.0042   0.0128   0.0054   0.0072   0.0095  -0.01    3.4
2017/07/23 11:51:09.800   2773840.8716   1653189.1012   5481928.8805   1  17   0.0071   0.0041   0.0127   0.0054   0.0071   0.0095  -0.01    3.4
2017/07/23 11:51:10.000   2773840.8705   1653189.1006   5481928.8784   1  16   0.0071   0.0041   0.0126   0.0053   0.0071   0.0094  -0.01    3.4
2017/07/23 11:51:10.200   2773840.8694   1653189.0999   5481928.8765   1  17   0.0070   0.0040   0.0125   0.0053   0.0070   0.0093  -0.01    3.3
2017/07/23 11:51:10.400   2773840.8693   1653189.1000   5481928.8765   1  17   0.0070   0.0040   0.0124   0.0052   0.0069   0.0092  -0.01    3.5
2017/07/23 11:51:10.600   2773840.8690   1653189.0998   5481928.8758   1  17   0.0069   0.0040   0.0123   0.0052   0.0069   0.0091  -0.01    3.7
2017/07/23 11:51:10.800   2773840.8685   1653189.0995   5481928.8750   1  17   0.0068   0.0039   0.0122   0.0051   0.0068   0.0090  -0.01    3.7
2017/07/23 11:51:11.000   2773840.8676   1653189.0989   5481928.8734   1  17   0.0068   0.0039   0.0121   0.0051   0.0068   0.0090  -0.01    3.8
2017/07/23 11:51:11.200   2773840.8667   1653189.0984   5481928.8720   1  17   0.0067   0.0039   0.0120   0.0051   0.0067   0.0089  -0.01    3.7
2017/07/23 11:51:11.400   2773840.8657   1653189.0978   5481928.8704   1  17   0.0067   0.0038   0.0119   0.0050   0.0067   0.0088  -0.01    3.6
2017/07/23 11:51:11.600   2773840.8651   1653189.0975   5481928.8694   1  17   0.0066   0.0038   0.0118   0.0050   0.0066   0.0088  -0.01    3.6
2017/07/23 11:51:11.800   2773840.8645   1653189.0972   5481928.8684   1  17   0.0066   0.0038   0.0117   0.0049   0.0066   0.0087  -0.01    3.6
2017/07/23 11:51:12.000   2773840.8641   1653189.0969   5481928.8677   1  17   0.0065   0.0038   0.0116   0.0049   0.0065   0.0086  -0.01    3.6
2017/07/23 11:51:12.200   2773840.8639   1653189.0969   5481928.8674   1  17   0.0065   0.0037   0.0115   0.0049   0.0065   0.0086  -0.01    3.5
2017/07/23 11:51:12.400   2773840.8633   1653189.0965   5481928.8666   1  17   0.0064   0.0037   0.0114   0.0048   0.0064   0.0085  -0.01    3.5
2017/07/23 11:51:12.600   2773840.7155   1653189.4707   5481929.5405   2  16   0.0050   0.0049   0.0066   0.0020   0.0038   0.0049  -0.01    1.9
2017/07/23 11:51:12.800   2773840.7153   1653189.4707   5481929.5404   2  15   0.0050   0.0049   0.0066   0.0020   0.0038   0.0049  -0.01    1.8
2017/07/23 11:51:13.000   2773840.7152   1653189.4707   5481929.5403   2  16   0.0050   0.0049   0.0066   0.0020   0.0038   0.0049  -0.01    1.8
2017/07/23 11:51:13.200   2773840.7150   1653189.4707   5481929.5401   2  16   0.0050   0.0049   0.0066   0.0020   0.0038   0.0049  -0.01    1.9
2017/07/23 11:51:13.400   2773840.7148   1653189.4707   5481929.5399   2  16   0.0050   0.0049   0.0066   0.0020   0.0038   0.0049  -0.01    2.0
2017/07/23 11:51:13.600   2773840.8615   1653189.0956   5481928.8634   1  17   0.0061   0.0035   0.0110   0.0046   0.0061   0.0081  -0.01    4.0
2017/07/23 11:51:13.800   2773840.8611   1653189.0953   5481928.8628   1  17   0.0061   0.0035   0.0109   0.0046   0.0061   0.0081  -0.01    4.0
2017/07/23 11:51:14.000   2773840.8607   1653189.0951   5481928.8623   1  17   0.0061   0.0035   0.0108   0.0046   0.0061   0.0080  -0.01    4.0
2017/07/23 11:51:14.200   2773840.8600   1653189.0946   5481928.8613   1  17   0.0060   0.0035   0.0107   0.0045   0.0060   0.0080  -0.01    4.0
2017/07/23 11:51:14.400   2773840.8593   1653189.0942   5481928.8604   1  17   0.0060   0.0034   0.0107   0.0045   0.0060   0.0079  -0.01    3.9
2017/07/23 11:51:14.600   2773840.8586   1653189.0937   5481928.8593   1  16   0.0059   0.0034   0.0106   0.0045   0.0059   0.0079  -0.01    3.8
2017/07/23 11:51:14.800   2773840.8580   1653189.0934   5481928.8586   1  16   0.0059   0.0034   0.0105   0.0044   0.0059   0.0078  -0.01    3.8
2017/07/23 11:51:15.000   2773840.8576   1653189.0931   5481928.8580   1  17   0.0059   0.0034   0.0105   0.0044   0.0059   0.0078  -0.01    3.8
2017/07/23 11:51:15.200   2773840.8575   1653189.0929   5481928.8579   1  17   0.0058   0.0034   0.0104   0.0044   0.0058   0.0077  -0.01    3.9
2017/07/23 11:51:15.400   2773840.8573   1653189.0928   5481928.8578   1  16   0.0058   0.0033   0.0103   0.0044   0.0058   0.0077  -0.01    4.1
2017/07/23 11:51:15.600   2773840.8569   1653189.0926   5481928.8572   1  16   0.0058   0.0033   0.0103   0.0043   0.0058   0.0076  -0.01    4.2
2017/07/23 11:51:15.800   2773840.8562   1653189.0922   5481928.8561   1  16   0.0057   0.0033   0.0102   0.0043   0.0057   0.0076  -0.01    4.5
2017/07/23 11:51:16.000   2773840.8558   1653189.0919   5481928.8554   1  16   0.0057   0.0033   0.0102   0.0043   0.0057   0.0075  -0.01    4.7
2017/07/23 11:51:16.200   2773840.8553   1653189.0916   5481928.8547   1  16   0.0057   0.0033   0.0101   0.0043   0.0057   0.0075  -0.01    5.0
2017/07/23 11:51:16.400   2773840.8549   1653189.0913   5481928.8540   1  16   0.0056   0.0032   0.0100   0.0042   0.0056   0.0074  -0.01    5.2
2017/07/23 11:51:16.600   2773840.8545   1653189.0911   5481928.8535   1  16   0.0056   0.0032   0.0100   0.0042   0.0056   0.0074  -0.01    5.3
2017/07/23 11:51:16.800   2773840.8538   1653189.0907   5481928.8524   1  16   0.0056   0.0032   0.0099   0.0042   0.0056   0.0074  -0.01    5.4
2017/07/23 11:51:17.000   2773840.8532   1653189.0903   5481928.8515   1  16   0.0055   0.0032   0.0099   0.0042   0.0055   0.0073  -0.01    5.4
2017/07/23 11:51:17.200   2773840.8527   1653189.0899   5481928.8507   1  16   0.0055   0.0032   0.0098   0.0041   0.0055   0.0073  -0.01    5.5
2017/07/23 11:51:17.400   2773840.8520   1653189.0894   5481928.8495   1  17   0.0055   0.0032   0.0098   0.0041   0.0055   0.0072  -0.01    5.5
2017/07/23 11:51:17.600   2773840.8513   1653189.0889   5481928.8483   1  17   0.0054   0.0031   0.0097   0.0041   0.0054   0.0072  -0.01    5.6
2017/07/23 11:51:17.800   2773840.8505   1653189.0885   5481928.8470   1  16   0.0054   0.0031   0.0097   0.0041   0.0054   0.0072  -0.01    5.6
2017/07/23 11:51:18.000   2773840.8500   1653189.0881   5481928.8462   1  17   0.0054   0.0031   0.0096   0.0040   0.0054   0.0071  -0.01    5.7
2017/07/23 11:51:18.200   2773840.8494   1653189.0877   5481928.8452   1  17   0.0053   0.0031   0.0096   0.0040   0.0054   0.0071  -0.01    5.8
2017/07/23 11:51:18.400   2773840.8486   1653189.0872   5481928.8439   1  16   0.0053   0.0031   0.0095   0.0040   0.0053   0.0071  -0.01    5.7
2017/07/23 11:51:18.600   2773840.8481   1653189.0869   5481928.8431   1  17   0.0053   0.0031   0.0095   0.0040   0.0053   0.0070  -0.01    5.7
2017/07/23 11:51:18.800   2773840.8478   1653189.0866   5481928.8426   1  17   0.0053   0.0030   0.0094   0.0040   0.0053   0.0070  -0.01    5.6
2017/07/23 11:51:19.000   2773840.8474   1653189.0864   5481928.8420   1  17   0.0052   0.0030   0.0094   0.0039   0.0052   0.0069  -0.01    5.5
2017/07/23 11:51:19.200   2773840.8470   1653189.0861   5481928.8415   1  17   0.0052   0.0030   0.0093   0.0039   0.0052   0.0069  -0.01    5.5
2017/07/23 11:51:19.400   2773840.8466   1653189.0859   5481928.8408   1  17   0.0052   0.0030   0.0093   0.0039   0.0052   0.0069  -0.01    5.6
2017/07/23 11:51:19.600   2773840.8464   1653189.0857   5481928.8404   1  17   0.0052   0.0030   0.0092   0.0039   0.0052   0.0068  -0.01    5.7
2017/07/23 11:51:19.800   2773840.8464   1653189.0857   5481928.8402   1  17   0.0051   0.0030   0.0092   0.0039   0.0051   0.0068  -0.01    5.8
2017/07/23 11:51:20.000   2773840.8464   1653189.0857   5481928.8403   1  17   0.0051   0.0030   0.0091   0.0038   0.0051   0.0068  -0.01    5.8
2017/07/23 11:51:20.200   2773840.8464   1653189.0858   5481928.8404   1  17   0.0051   0.0029   0.0091   0.0038   0.0051   0.0067  -0.01    6.0
2017/07/23 11:51:20.400   2773840.8463   1653189.0857   5481928.8401   1  17   0.0051   0.0029   0.0091   0.0038   0.0051   0.0067  -0.01    6.1
2017/07/23 11:51:20.600   2773840.8460   1653189.0855   5481928.8395   1  17   0.0050   0.0029   0.0090   0.0038   0.0051   0.0067  -0.01    6.2
2017/07/23 11:51:20.800   2773840.8459   1653189.0854   5481928.8393   1  17   0.0050   0.0029   0.0090   0.0038   0.0050   0.0067  -0.01    6.3
2017/07/23 11:51:21.000   2773840.8461   1653189.0855   5481928.8395   1  16   0.0050   0.0029   0.0089   0.0038   0.0050   0.0066  -0.01    6.5
2017/07/23 11:51:21.200   2773840.8460   1653189.0855   5481928.8394   1  16   0.0050   0.0029   0.0089   0.0037   0.0050   0.0066  -0.01    6.6
2017/07/23 11:51:21.400   2773840.8459   1653189.0854   5481928.8393   1  16   0.0049   0.0029   0.0088   0.0037   0.0050   0.0066  -0.01    6.8
2017/07/23 11:51:21.600   2773840.8461   1653189.0855   5481928.8395   1  16   0.0049   0.0028   0.0088   0.0037   0.0049   0.0065  -0.01    7.0
2017/07/23 11:51:21.800   2773840.8456   1653189.0852   5481928.8387   1  16   0.0049   0.0028   0.0088   0.0037   0.0049   0.0065  -0.01    7.1
2017/07/23 11:51:22.000   2773840.8452   1653189.0849   5481928.8380   1  16   0.0049   0.0028   0.0087   0.0037   0.0049   0.0065  -0.01    7.2
2017/07/23 11:51:22.200   2773840.8446   1653189.0845   5481928.8369   1  16   0.0049   0.0028   0.0087   0.0037   0.0049   0.0064  -0.01    7.1
2017/07/23 11:51:22.400   2773840.8439   1653189.0841   5481928.8357   1  16   0.0048   0.0028   0.0087   0.0036   0.0049   0.0064  -0.01    7.0
2017/07/23 11:51:22.600   2773840.8435   1653189.0838   5481928.8350   1  16   0.0048   0.0028   0.0086   0.0036   0.0048   0.0064  -0.01    6.8
2017/07/23 11:51:22.800   2773840.8430   1653189.0835   5481928.8342   1  16   0.0048   0.0028   0.0086   0.0036   0.0048   0.0064  -0.01    6.6
2017/07/23 11:51:23.000   2773840.8426   1653189.0832   5481928.8335   1  16   0.0048   0.0028   0.0086   0.0036   0.0048   0.0063  -0.01    6.4
2017/07/23 11:51:23.200   2773840.8424   1653189.0831   5481928.8330   1  16   0.0048   0.0028   0.0085   0.0036   0.0048   0.0063  -0.01    6.3
2017/07/23 11:51:23.400   2773840.8422   1653189.0830   5481928.8327   1  16   0.0047   0.0027   0.0085   0.0036   0.0048   0.0063  -0.01    6.2
2017/07/23 11:51:23.600   2773840.8420   1653189.0828   5481928.8322   1  17   0.0047   0.0027   0.0084   0.0036   0.0047   0.0063  -0.01    6.1
2017/07/23 11:51:23.800   2773840.8424   1653189.0830   5481928.8328   1  16   0.0047   0.0027   0.0084   0.0035   0.0047   0.0062  -0.01    6.1
2017/07/23 11:51:24.000   2773840.8427   1653189.0832   5481928.8332   1  17   0.0047   0.0027   0.0084   0.0035   0.0047   0.0062  -0.01    6.2
2017/07/23 11:51:24.200   2773840.8430   1653189.0834   5481928.8337   1  17   0.0047   0.0027   0.0083   0.0035   0.0047   0.0062  -0.01    6.1
2017/07/23 11:51:24.400   2773840.8432   1653189.0835   5481928.8338   1  16   0.0046   0.0027   0.0083   0.0035   0.0047   0.0062  -0.01    6.0
2017/07/23 11:51:24.600   2773840.8434   1653189.0836   5481928.8342   1  17   0.0046   0.0027   0.0083   0.0035   0.0046   0.0061  -0.01    5.9
2017/07/23 11:51:24.800   2773840.8433   1653189.0836   5481928.8341   1  17   0.0046   0.0027   0.0082   0.0035   0.0046   0.0061  -0.01    5.9
2017/07/23 11:51:25.000   2773840.8434   1653189.0836   5481928.8342   1  17   0.0046   0.0027   0.0082   0.0035   0.0046   0.0061  -0.01    5.9
2017/07/23 11:51:25.200   2773840.8434   1653189.0836   5481928.8343   1  17   0.0046   0.0026   0.0082   0.0034   0.0046   0.0061  -0.01    5.9
2017/07/23 11:51:25.400   2773840.8432   1653189.0834   5481928.8338   1  17   0.0046   0.0026   0.0082   0.0034   0.0046   0.0060  -0.01    6.0
2017/07/23 11:51:25.600   2773840.8428   1653189.0832   5481928.8332   1  17   0.0045   0.0026   0.0081   0.0034   0.0046   0.0060  -0.01    6.0
2017/07/23 11:51:25.800   2773840.8426   1653189.0831   5481928.8328   1  16   0.0045   0.0026   0.0081   0.0034   0.0045   0.0060  -0.01    6.0
2017/07/23 11:51:26.000   2773840.8424   1653189.0830   5481928.8325   1  17   0.0045   0.0026   0.0081   0.0034   0.0045   0.0060  -0.01    5.9
2017/07/23 11:51:26.200   2773840.8420   1653189.0827   5481928.8318   1  17   0.0045   0.0026   0.0080   0.0034   0.0045   0.0060  -0.01    6.0
2017/07/23 11:51:26.400   2773840.8415   1653189.0825   5481928.8310   1  17   0.0045   0.0026   0.0080   0.0034   0.0045   0.0059  -0.01    6.0
2017/07/23 11:51:26.600   2773840.8411   1653189.0822   5481928.8303   1  17   0.0045   0.0026   0.0080   0.0034   0.0045   0.0059  -0.01    6.1
2017/07/23 11:51:26.800   2773840.8408   1653189.0820   5481928.8297   1  17   0.0044   0.0026   0.0079   0.0033   0.0045   0.0059  -0.01    6.1
2017/07/23 11:51:27.000   2773840.8406   1653189.0819   5481928.8296   1  17   0.0044   0.0026   0.0079   0.0033   0.0044   0.0059  -0.01    6.2
2017/07/23 11:51:27.200   2773840.8405   1653189.0819   5481928.8295   1  17   0.0044   0.0025   0.0079   0.0033   0.0044   0.0059  -0.01    6.2
2017/07/23 11:51:27.400   2773840.8406   1653189.0819   5481928.8296   1  17   0.0044   0.0025   0.0079   0.0033   0.0044   0.0058  -0.01    6.3
2017/07/23 11:51:27.600   2773840.7099   1653189.4760   5481929.5368   2  16   0.0050   0.0050   0.0067   0.0020   0.0039   0.0050  -0.01    1.6
2017/07/23 11:51:27.800   2773840.7099   1653189.4761   5481929.5368   2  16   0.0050   0.0050   0.0067   0.0020   0.0039   0.0050  -0.01    1.6
2017/07/23 11:51:28.000   2773840.7098   1653189.4761   5481929.5367   2  15   0.0050   0.0050   0.0067   0.0020   0.0039   0.0050  -0.01    1.7
2017/07/23 11:51:28.200   2773840.7097   1653189.4761   5481929.5367   2  15   0.0050   0.0050   0.0067   0.0020   0.0039   0.0050  -0.01    1.8
2017/07/23 11:51:28.400   2773840.7097   1653189.4761   5481929.5366   2  15   0.0050   0.0050   0.0067   0.0020   0.0039   0.0050  -0.01    1.8
2017/07/23 11:51:28.600   2773840.7096   1653189.4761   5481929.5365   2  15   0.0050   0.0050   0.0067   0.0020   0.0039   0.0050  -0.01    1.9
2017/07/23 11:51:28.800   2773840.7096   1653189.4762   5481929.5365   2  15   0.0050   0.0050   0.0067   0.0020   0.0039   0.0050  -0.01    1.9
2017/07/23 11:51:29.000   2773840.7095   1653189.4762   5481929.5365   2  15   0.0050   0.0050   0.0067   0.0020   0.0039   0.0050  -0.01    2.0
2017/07/23 11:51:29.200   2773840.7094   1653189.4762   5481929.5364   2  15   0.0050   0.0050   0.0067   0.0020   0.0039   0.0050  -0.01    2.0
2017/07/23 11:51:29.400   2773840.7094   1653189.4762   5481929.5364   2  15   0.0050   0.0050   0.0067   0.0020   0.0039   0.0050  -0.01    2.1
2017/07/23 11:51:29.600   2773840.7093   1653189.4762   5481929.5363   2  15   0.0050   0.0050   0.0067   0.0020   0.0039   0.0050  -0.01    2.1
2017/07/23 11:51:29.800   2773840.7093   1653189.4762   5481929.5363   2  15   0.0050   0.0050   0.0067   0.0020   0.0039   0.0050  -0.01    2.2
2017/07/23 11:51:30.000   2773840.8415   1653189.0822   5481928.8311   1  17   0.0042   0.0024   0.0075   0.0032   0.0042   0.0056  -0.01    7.4
2017/07/23 11:51:30.200   2773840.8415   1653189.0821   5481928.8309   1  17   0.0042   0.0024   0.0075   0.0032   0.0042   0.0056  -0.01    7.4
2017/07/23 11:51:30.400   2773840.8415   1653189.0821   5481928.8310   1  16   0.0042   0.0024   0.0075   0.0031   0.0042   0.0055  -0.01    7.4
2017/07/23 11:51:30.600   2773840.8416   1653189.0822   5481928.8312   1  16   0.0042   0.0024   0.0075   0.0031   0.0042   0.0055  -0.01    7.5
2017/07/23 11:51:30.800   2773840.8416   1653189.0821   5481928.8312   1  16   0.0042   0.0024   0.0074   0.0031   0.0042   0.0055  -0.01    7.4
2017/07/23 11:51:31.000   2773840.8416   1653189.0821   5481928.8312   1  16   0.0041   0.0024   0.0074   0.0031   0.0042   0.0055  -0.01    7.4
2017/07/23 11:51:31.200   2773840.7092   1653189.4763   5481929.5362   2  15   0.0050   0.0050   0.0068   0.0020   0.0039   0.0050  -0.01    2.2
2017/07/23 11:51:31.400   2773840.7091   1653189.4762   5481929.5362   2  15   0.0050   0.0050   0.0068   0.0020   0.0039   0.0050  -0.01    2.2
2017/07/23 11:51:31.600   2773840.7091   1653189.4762   5481929.5362   2  15   0.0050   0.0050   0.0068   0.0020   0.0039   0.0050  -0.01    2.3
2017/07/23 11:51:31.800   2773840.7091   1653189.4763   5481929.5362   2  16   0.0050   0.0050   0.0068   0.0020   0.0039   0.0050  -0.01    2.3
2017/07/23 11:51:32.000   2773840.7091   1653189.4762   5481929.5361   2  16   0.0050   0.0050   0.0068   0.0020   0.0039   0.0050  -0.01    2.3
2017/07/23 11:51:32.200   2773840.8415   1653189.0819   5481928.8313   1  17   0.0041   0.0024   0.0073   0.0031   0.0041   0.0054  -0.01    6.9
2017/07/23 11:51:32.400   2773840.8415   1653189.0818   5481928.8312   1  17   0.0041   0.0023   0.0073   0.0031   0.0041   0.0054  -0.01    6.8
2017/07/23 11:51:32.600   2773840.8416   1653189.0819   5481928.8313   1  17   0.0040   0.0023   0.0072   0.0030   0.0041   0.0054  -0.01    6.7
2017/07/23 11:51:32.800   2773840.8414   1653189.0818   5481928.8311   1  17   0.0040   0.0023   0.0072   0.0030   0.0040   0.0053  -0.01    6.5
2017/07/23 11:51:33.000   2773840.8413   1653189.0817   5481928.8309   1  17   0.0040   0.0023   0.0072   0.0030   0.0040   0.0053  -0.01    6.3
2017/07/23 11:51:33.200   2773840.8413   1653189.0816   5481928.8309   1  17   0.0040   0.0023   0.0072   0.0030   0.0040   0.0053  -0.01    6.2
2017/07/23 11:51:33.400   2773840.8411   1653189.0815   5481928.8306   1  17   0.0040   0.0023   0.0072   0.0030   0.0040   0.0053  -0.01    6.0
2017/07/23 11:51:33.600   2773840.8408   1653189.0813   5481928.8301   1  17   0.0040   0.0023   0.0071   0.0030   0.0040   0.0053  -0.01    6.0
2017/07/23 11:51:33.800   2773840.8405   1653189.0811   5481928.8296   1  17   0.0040   0.0023   0.0071   0.0030   0.0040   0.0053  -0.01    6.0
2017/07/23 11:51:34.000   2773840.8402   1653189.0809   5481928.8292   1  17   0.0040   0.0023   0.0071   0.0030   0.0040   0.0053  -0.01    6.0
2017/07/23 11:51:34.200   2773840.8399   1653189.0807   5481928.8286   1  17   0.0039   0.0023   0.0071   0.0030   0.0040   0.0052  -0.01    5.9
2017/07/23 11:51:34.400   2773840.8395   1653189.0805   5481928.8281   1  17   0.0039   0.0023   0.0071   0.0030   0.0040   0.0052  -0.01    5.9
2017/07/23 11:51:34.600   2773840.8392   1653189.0803   5481928.8275   1  17   0.0039   0.0023   0.0070   0.0030   0.0039   0.0052  -0.01    6.0
2017/07/23 11:51:34.800   2773840.8388   1653189.0800   5481928.8269   1  17   0.0039   0.0023   0.0070   0.0029   0.0039   0.0052  -0.01    6.0
2017/07/23 11:51:35.000   2773840.8385   1653189.0798   5481928.8264   1  17   0.0039   0.0023   0.0070   0.0029   0.0039   0.0052  -0.01    6.0
2017/07/23 11:51:35.200   2773840.8382   1653189.0796   5481928.8258   1  17   0.0039   0.0023   0.0070   0.0029   0.0039   0.0052  -0.01    6.0
2017/07/23 11:51:35.400   2773840.8379   1653189.0794   5481928.8254   1  17   0.0039   0.0022   0.0070   0.0029   0.0039   0.0052  -0.01    6.0
2017/07/23 11:51:35.600   2773840.8377   1653189.0793   5481928.8251   1  17   0.0039   0.0022   0.0069   0.0029   0.0039   0.0051  -0.01    6.0
2017/07/23 11:51:35.800   2773840.8376   1653189.0792   5481928.8249   1  17   0.0039   0.0022   0.0069   0.0029   0.0039   0.0051  -0.01    6.0
2017/07/23 11:51:36.000   2773840.8376   1653189.0792   5481928.8250   1  17   0.0039   0.0022   0.0069   0.0029   0.0039   0.0051  -0.01    6.0
2017/07/23 11:51:36.200   2773840.8375   1653189.0791   5481928.8248   1  17   0.0038   0.0022   0.0069   0.0029   0.0039   0.0051  -0.01    6.0
2017/07/23 11:51:36.400   2773840.8374   1653189.0790   5481928.8247   1  17   0.0038   0.0022   0.0069   0.0029   0.0038   0.0051  -0.01    5.9
2017/07/23 11:51:36.600   2773840.8375   1653189.0790   5481928.8247   1  17   0.0038   0.0022   0.0068   0.0029   0.0038   0.0051  -0.01    5.9
2017/07/23 11:51:36.800   2773840.8374   1653189.0790   5481928.8247   1  17   0.0038   0.0022   0.0068   0.0029   0.0038   0.0051  -0.01    5.9
2017/07/23 11:51:37.000   2773840.8375   1653189.0790   5481928.8248   1  17   0.0038   0.0022   0.0068   0.0029   0.0038   0.0050  -0.01    5.8
2017/07/23 11:51:37.200   2773840.8375   1653189.0790   5481928.8248   1  17   0.0038   0.0022   0.0068   0.0029   0.0038   0.0050  -0.01    5.7
2017/07/23 11:51:37.400   2773840.8375   1653189.0789   5481928.8248   1  17   0.0038   0.0022   0.0068   0.0028   0.0038   0.0050  -0.01    5.6
2017/07/23 11:51:37.600   2773840.8375   1653189.0789   5481928.8248   1  17   0.0038   0.0022   0.0068   0.0028   0.0038   0.0050  -0.01    5.6
2017/07/23 11:51:37.800   2773840.8376   1653189.0790   5481928.8250   1  17   0.0038   0.0022   0.0067   0.0028   0.0038   0.0050  -0.01    5.5
2017/07/23 11:51:38.000   2773840.8375   1653189.0789   5481928.8248   1  17   0.0038   0.0022   0.0067   0.0028   0.0038   0.0050  -0.01    5.3
2017/07/23 11:51:38.200   2773840.8376   1653189.0789   5481928.8249   1  17   0.0037   0.0022   0.0067   0.0028   0.0038   0.0050  -0.01    5.2
2017/07/23 11:51:38.400   2773840.8374   1653189.0788   5481928.8247   1  17   0.0037   0.0022   0.0067   0.0028   0.0037   0.0050  -0.01    5.1
2017/07/23 11:51:38.600   2773840.8373   1653189.0788   5481928.8245   1  17   0.0037   0.0022   0.0067   0.0028   0.0037   0.0049  -0.01    4.9
2017/07/23 11:51:38.800   2773840.8373   1653189.0787   5481928.8244   1  16   0.0037   0.0022   0.0067   0.0028   0.0037   0.0049  -0.01    4.8
2017/07/23 11:51:39.000   2773840.8371   1653189.0786   5481928.8242   1  16   0.0037   0.0021   0.0066   0.0028   0.0037   0.0049  -0.01    4.6
2017/07/23 11:51:39.200   2773840.8371   1653189.0786   5481928.8242   1  16   0.0037   0.0021   0.0066   0.0028   0.0037   0.0049  -0.01    4.5
2017/07/23 11:51:39.400   2773840.8369   1653189.0785   5481928.8239   1  16   0.0037   0.0021   0.0066   0.0028   0.0037   0.0049  -0.01    4.4
2017/07/23 11:51:39.600   2773840.8367   1653189.0783   5481928.8236   1  16   0.0037   0.0021   0.0066   0.0028   0.0037   0.0049  -0.01    4.2
2017/07/23 11:51:39.800   2773840.8366   1653189.0782   5481928.8233   1  16   0.0037   0.0021   0.0066   0.0028   0.0037   0.0049  -0.01    4.2
2017/07/23 11:51:40.000   2773840.7098   1653189.4786   5481929.5378   2  15   0.0051   0.0050   0.0068   0.0020   0.0040   0.0050  -0.01    1.3
2017/07/23 11:51:40.200   2773840.8366   1653189.0782   5481928.8236   1  16   0.0037   0.0021   0.0065   0.0028   0.0037   0.0048  -0.01    4.1
2017/07/23 11:51:40.400   2773840.8365   1653189.0781   5481928.8234   1  16   0.0036   0.0021   0.0065   0.0027   0.0037   0.0048  -0.01    4.0
2017/07/23 11:51:40.600   2773840.7099   1653189.4788   5481929.5379   2  15   0.0051   0.0050   0.0068   0.0020   0.0040   0.0050  -0.01    1.2
2017/07/23 11:51:40.800   2773840.8362   1653189.0779   5481928.8231   1  17   0.0036   0.0021   0.0065   0.0027   0.0036   0.0048  -0.01    3.9
2017/07/23 11:51:41.000   2773840.8361   1653189.0778   5481928.8230   1  17   0.0036   0.0021   0.0065   0.0027   0.0036   0.0048  -0.01    3.8
2017/07/23 11:51:41.200   2773840.8361   1653189.0778   5481928.8230   1  17   0.0036   0.0021   0.0065   0.0027   0.0036   0.0048  -0.01    3.8
2017/07/23 11:51:41.400   2773840.8361   1653189.0778   5481928.8231   1  17   0.0036   0.0021   0.0065   0.0027   0.0036   0.0048  -0.01    3.8
2017/07/23 11:51:41.600   2773840.8363   1653189.0779   5481928.8234   1  17   0.0036   0.0021   0.0064   0.0027   0.0036   0.0048  -0.01    3.8
2017/07/23 11:51:41.800   2773840.8366   1653189.0781   5481928.8238   1  17   0.0036   0.0021   0.0064   0.0027   0.0036   0.0048  -0.01    3.9
2017/07/23 11:51:42.000   2773840.8367   1653189.0782   5481928.8240   1  16   0.0036   0.0021   0.0064   0.0027   0.0036   0.0047  -0.01    3.9
2017/07/23 11:51:42.200   2773840.8368   1653189.0782   5481928.8242   1  16   0.0036   0.0021   0.0064   0.0027   0.0036   0.0047  -0.01    3.9
2017/07/23 11:51:42.400   2773840.8368   1653189.0782   5481928.8243   1  17   0.0036   0.0021   0.0064   0.0027   0.0036   0.0047  -0.01    3.9
2017/07/23 11:51:42.600   2773840.8368   1653189.0782   5481928.8243   1  17   0.0036   0.0021   0.0064   0.0027   0.0036   0.0047  -0.01    3.9
2017/07/23 11:51:42.800   2773840.8367   1653189.0782   5481928.8242   1  17   0.0035   0.0021   0.0063   0.0027   0.0036   0.0047  -0.01    3.9
2017/07/23 11:51:43.000   2773840.7096   1653189.4794   5481929.5378   2  16   0.0051   0.0051   0.0068   0.0021   0.0040   0.0051  -0.01    1.1
2017/07/23 11:51:43.200   2773840.8365   1653189.0781   5481928.8241   1  17   0.0035   0.0020   0.0063   0.0027   0.0035   0.0047  -0.01    3.7
2017/07/23 11:51:43.400   2773840.8365   1653189.0781   5481928.8242   1  17   0.0035   0.0020   0.0063   0.0027   0.0035   0.0047  -0.01    3.6
2017/07/23 11:51:43.600   2773840.8364   1653189.0780   5481928.8241   1  16   0.0035   0.0020   0.0063   0.0026   0.0035   0.0047  -0.01    3.5
2017/07/23 11:51:43.800   2773840.8363   1653189.0779   5481928.8240   1  16   0.0035   0.0020   0.0063   0.0026   0.0035   0.0047  -0.01    3.5
2017/07/23 11:51:44.000   2773840.8361   1653189.0778   5481928.8238   1  15   0.0035   0.0020   0.0063   0.0026   0.0035   0.0046  -0.01    3.4
2017/07/23 11:51:44.200   2773840.8362   1653189.0778   5481928.8239   1  17   0.0035   0.0020   0.0063   0.0026   0.0035   0.0046  -0.01    3.3
2017/07/23 11:51:44.400   2773840.8361   1653189.0778   5481928.8238   1  17   0.0035   0.0020   0.0062   0.0026   0.0035   0.0046  -0.01    3.3
2017/07/23 11:51:44.600   2773840.8360   1653189.0777   5481928.8236   1  15   0.0035   0.0020   0.0062   0.0026   0.0035   0.0046  -0.01    3.2
2017/07/23 11:51:44.800   2773840.8360   1653189.0778   5481928.8237   1  15   0.0035   0.0020   0.0062   0.0026   0.0035   0.0046  -0.01    3.2
2017/07/23 11:51:45.000   2773840.8360   1653189.0777   5481928.8236   1  15   0.0035   0.0020   0.0062   0.0026   0.0035   0.0046  -0.01    3.2
2017/07/23 11:51:45.200   2773840.8359   1653189.0777   5481928.8235   1  16   0.0035   0.0020   0.0062   0.0026   0.0035   0.0046  -0.01    3.2
2017/07/23 11:51:45.400   2773840.8357   1653189.0776   5481928.8233   1  17   0.0034   0.0020   0.0062   0.0026   0.0035   0.0046  -0.01    3.1
2017/07/23 11:51:45.600   2773840.8357   1653189.0776   5481928.8233   1  16   0.0034   0.0020   0.0062   0.0026   0.0035   0.0046  -0.01    3.2
2017/07/23 11:51:45.800   2773840.8356   1653189.0775   5481928.8232   1  17   0.0034   0.0020   0.0061   0.0026   0.0034   0.0046  -0.01    3.1
2017/07/23 11:51:46.000   2773840.8355   1653189.0774   5481928.8230   1  17   0.0034   0.0020   0.0061   0.0026   0.0034   0.0045  -0.01    3.1
2017/07/23 11:51:46.200   2773840.8356   1653189.0775   5481928.8231   1  17   0.0034   0.0020   0.0061   0.0026   0.0034   0.0045  -0.01    3.1
2017/07/23 11:51:46.400   2773840.8357   1653189.0775   5481928.8233   1  16   0.0034   0.0020   0.0061   0.0026   0.0034   0.0045  -0.01    3.1
2017/07/23 11:51:46.600   2773840.8357   1653189.0775   5481928.8234   1  17   0.0034   0.0020   0.0061   0.0026   0.0034   0.0045  -0.01    3.1
2017/07/23 11:51:46.800   2773840.8356   1653189.0775   5481928.8233   1  17   0.0034   0.0020   0.0061   0.0026   0.0034   0.0045  -0.01    3.1
2017/07/23 11:51:47.000   2773840.8356   1653189.0774   5481928.8232   1  16   0.0034   0.0020   0.0061   0.0026   0.0034   0.0045  -0.01    3.0
2017/07/23 11:51:47.200   2773840.7102   1653189.4809   5481929.5396   2  17   0.0051   0.0051   0.0068   0.0021   0.0040   0.0051  -0.01    3.0
2017/07/23 11:51:47.400   2773840.7102   1653189.4810   5481929.5397   2  16   0.0051   0.0051   0.0068   0.0021   0.0040   0.0051  -0.01    3.0
2017/07/23 11:51:47.600   2773840.7103   1653189.4810   5481929.5398   2  16   0.0051   0.0051   0.0069   0.0021   0.0040   0.0051  -0.01    2.9
2017/07/23 11:51:47.800   2773840.7103   1653189.4811   5481929.5399   2  16   0.0051   0.0051   0.0069   0.0021   0.0040   0.0051  -0.01    2.9
2017/07/23 11:51:48.000   2773840.7103   1653189.4811   5481929.5399   2  15   0.0051   0.0051   0.0069   0.0021   0.0040   0.0051  -0.01    2.9
2017/07/23 11:51:48.200   2773840.7103   1653189.4811   5481929.5400   2  16   0.0051   0.0051   0.0069   0.0021   0.0040   0.0051  -0.01    2.8
2017/07/23 11:51:48.400   2773840.7103   1653189.4812   5481929.5401   2  16   0.0051   0.0051   0.0069   0.0021   0.0040   0.0051  -0.01    2.7
2017/07/23 11:51:48.600   2773840.7102   1653189.4812   5481929.5402   2  16   0.0051   0.0051   0.0069   0.0021   0.0040   0.0051  -0.01    2.6
2017/07/23 11:51:48.800   2773840.7102   1653189.4812   5481929.5402   2  17   0.0051   0.0051   0.0069   0.0021   0.0040   0.0051  -0.01    2.6
2017/07/23 11:51:49.000   2773840.7102   1653189.4812   5481929.5402   2  17   0.0051   0.0051   0.0069   0.0021   0.0040   0.0051  -0.01    2.6
2017/07/23 11:51:49.200   2773840.7102   1653189.4812   5481929.5402   2  17   0.0051   0.0051   0.0069   0.0021   0.0040   0.0051  -0.01    2.5
2017/07/23 11:51:49.400   2773840.7101   1653189.4812   5481929.5402   2  17   0.0051   0.0051   0.0069   0.0021   0.0040   0.0051  -0.01    2.5
2017/07/23 11:51:49.600   2773840.7101   1653189.4812   5481929.5402   2  17   0.0051   0.0051   0.0069   0.0021   0.0040   0.0051  -0.01    2.4
2017/07/23 11:51:49.800   2773840.7100   1653189.4812   5481929.5402   2  16   0.0051   0.0051   0.0069   0.0021   0.0040   0.0051  -0.01    2.4
2017/07/23 11:51:50.000   2773840.7100   1653189.4812   5481929.5402   2  16   0.0051   0.0051   0.0069   0.0021   0.0040   0.0051  -0.01    2.4
2017/07/23 11:51:50.200   2773840.7100   1653189.4813   5481929.5403   2  16   0.0051   0.0051   0.0069   0.0021   0.0040   0.0051  -0.01    2.3
2017/07/23 11:51:50.400   2773840.7100   1653189.4814   5481929.5404   2  17   0.0051   0.0051   0.0069   0.0021   0.0040   0.0051  -0.01    2.3
2017/07/23 11:51:50.600   2773840.7100   1653189.4814   5481929.5405   2  17   0.0051   0.0051   0.0069   0.0021   0.0040   0.0051  -0.01    2.2
2017/07/23 11:51:50.800   2773840.7101   1653189.4815   5481929.5406   2  17   0.0051   0.0051   0.0069   0.0021   0.0040   0.0051  -0.01    2.2
2017/07/23 11:51:51.000   2773840.7101   1653189.4816   5481929.5407   2  16   0.0051   0.0051   0.0069   0.0021   0.0040   0.0051  -0.01    2.2
2017/07/23 11:51:51.200   2773840.7100   1653189.4817   5481929.5407   2  17   0.0051   0.0051   0.0069   0.0021   0.0040   0.0051  -0.01    2.1
2017/07/23 11:51:51.400   2773840.7100   1653189.4817   5481929.5407   2  17   0.0051   0.0051   0.0069   0.0021   0.0040   0.0051  -0.01    2.1
2017/07/23 11:51:51.600   2773840.7099   1653189.4818   5481929.5407   2  17   0.0051   0.0051   0.0069   0.0021   0.0040   0.0051  -0.01    2.1
2017/07/23 11:51:51.800   2773840.7098   1653189.4819   5481929.5408   2  17   0.0051   0.0051   0.0069   0.0021   0.0040   0.0051  -0.01    2.0
2017/07/23 11:51:52.000   2773840.7098   1653189.4820   5481929.5408   2  17   0.0051   0.0051   0.0069   0.0021   0.0040   0.0051  -0.01    2.0
2017/07/23 11:51:52.200   2773840.7097   1653189.4821   5481929.5409   2  17   0.0051   0.0051   0.0069   0.0021   0.0040   0.0051  -0.01    1.9
2017/07/23 11:51:52.400   2773840.7098   1653189.4822   5481929.5411   2  17   0.0051   0.0051   0.0069   0.0021   0.0040   0.0051  -0.01    1.9
2017/07/23 11:51:52.600   2773840.7098   1653189.4823   5481929.5412   2  17   0.0051   0.0051   0.0069   0.0021   0.0040   0.0051  -0.01    1.9
2017/07/23 11:51:52.800   2773840.7097   1653189.4823   5481929.5412   2  17   0.0051   0.0051   0.0069   0.0021   0.0040   0.0051  -0.01    1.8
2017/07/23 11:51:53.000   2773840.7097   1653189.4823   5481929.5413   2  17   0.0051   0.0051   0.0069   0.0021   0.0040   0.0051  -0.01    1.8
2017/07/23 11:51:53.200   2773840.7098   1653189.4824   5481929.5415   2  17   0.0051   0.0051   0.0069   0.0021   0.0040   0.0051  -0.01    1.8
2017/07/23 11:51:53.400   2773840.7098   1653189.4825   5481929.5416   2  17   0.0051   0.0051   0.0069   0.0021   0.0040   0.0051  -0.01    1.8
2017/07/23 11:51:53.600   2773840.7098   1653189.4826   5481929.5418   2  16   0.0051   0.0051   0.0069   0.0021   0.0040   0.0051  -0.01    1.7
2017/07/23 11:51:53.800   2773840.7099   1653189.4827   5481929.5419   2  16   0.0051   0.0051   0.0069   0.0021   0.0040   0.0051  -0.01    1.7
2017/07/23 11:51:54.000   2773840.7099   1653189.4828   5481929.5421   2  17   0.0051   0.0051   0.0069   0.0021   0.0040   0.0051  -0.01    1.7
2017/07/23 11:51:54.200   2773840.7100   1653189.4829   5481929.5423   2  17   0.0051   0.0051   0.0069   0.0021   0.0040   0.0051  -0.01    1.7
2017/07/23 11:51:54.400   2773840.7101   1653189.4829   5481929.5424   2  17   0.0051   0.0051   0.0069   0.0021   0.0040   0.0051  -0.01    1.6
2017/07/23 11:51:54.600   2773840.7101   1653189.4830   5481929.5425   2  16   0.0051   0.0051   0.0069   0.0021   0.0040   0.0051  -0.01    1.6
2017/07/23 11:51:54.800   2773840.7102   1653189.4831   5481929.5427   2  16   0.0051   0.0051   0.0069   0.0021   0.0040   0.0051  -0.01    1.6
2017/07/23 11:51:55.000   2773840.7102   1653189.4831   5481929.5427   2  16   0.0051   0.0051   0.0069   0.0021   0.0040   0.0051  -0.01    1.6
2017/07/23 11:51:55.200   2773840.7103   1653189.4832   5481929.5429   2  16   0.0051   0.0051   0.0069   0.0021   0.0040   0.0051  -0.01    1.6
2017/07/23 11:51:55.400   2773840.7103   1653189.4833   5481929.5430   2  16   0.0051   0.0051   0.0069   0.0021   0.0040   0.0051  -0.01    1.6
2017/07/23 11:51:55.600   2773840.7105   1653189.4835   5481929.5432   2  16   0.0051   0.0051   0.0069   0.0021   0.0040   0.0051  -0.01    1.6
2017/07/23 11:51:55.800   2773840.7105   1653189.4836   5481929.5434   2  16   0.0051   0.0051   0.0069   0.0021   0.0040   0.0051  -0.01    1.5
2017/07/23 11:51:56.000   2773840.7106   1653189.4837   5481929.5435   2  17   0.0051   0.0051   0.0069   0.0021   0.0040   0.0051  -0.01    1.5
2017/07/23 11:51:56.200   2773840.7106   1653189.4838   5481929.5436   2  16   0.0051   0.0051   0.0069   0.0021   0.0040   0.0051  -0.01    1.5
2017/07/23 11:51:56.400   2773840.7106   1653189.4839   5481929.5437   2  16   0.0051   0.0051   0.0069   0.0021   0.0040   0.0051  -0.01    1.5
2017/07/23 11:51:56.600   2773840.7107   1653189.4840   5481929.5439   2  16   0.0051   0.0051   0.0069   0.0021   0.0040   0.0051  -0.01    1.5
2017/07/23 11:51:56.800   2773840.7108   1653189.4841   5481929.5441   2  17   0.0051   0.0051   0.0069   0.0021   0.0040   0.0051  -0.01    1.4
2017/07/23 11:51:57.000   2773840.7108   1653189.4842   5481929.5443   2  16   0.0051   0.0051   0.0069   0.0021   0.0040   0.0051  -0.01    1.4
2017/07/23 11:51:57.200   2773840.7109   1653189.4843   5481929.5445   2  17   0.0051   0.0051   0.0069   0.0021   0.0040   0.0051  -0.01    1.4
2017/07/23 11:51:57.400   2773840.7110   1653189.4844   5481929.5446   2  17   0.0051   0.0051   0.0069   0.0021   0.0040   0.0051  -0.01    1.4
2017/07/23 11:51:57.600   2773840.7111   1653189.4845   5481929.5448   2  17   0.0051   0.0051   0.0069   0.0021   0.0040   0.0051  -0.01    1.4
2017/07/23 11:51:57.800   2773840.7112   1653189.4846   5481929.5450   2  17   0.0051   0.0051   0.0069   0.0021   0.0040   0.0051  -0.01    1.4
2017/07/23 11:51:58.000   2773840.7113   1653189.4847   5481929.5452   2  17   0.0051   0.0051   0.0069   0.0021   0.0040   0.0051  -0.01    1.4
2017/07/23 11:51:58.200   2773840.7113   1653189.4847   5481929.5452   2  16   0.0051   0.0051   0.0069   0.0021   0.0040   0.0051  -0.01    1.3
2017/07/23 11:51:58.400   2773840.7113   1653189.4848   5481929.5453   2  16   0.0051   0.0051   0.0069   0.0021   0.0040   0.0051  -0.01    1.3
2017/07/23 11:51:58.600   2773840.7113   1653189.4849   5481929.5454   2  17   0.0051   0.0051   0.0069   0.0021   0.0040   0.0051  -0.01    1.3
2017/07/23 11:51:58.800   2773840.7112   1653189.4849   5481929.5454   2  17   0.0051   0.0051   0.0069   0.0021   0.0040   0.0051  -0.01    1.3
2017/07/23 11:51:59.000   2773840.7112   1653189.4849   5481929.5454   2  17   0.0051   0.0051   0.0069   0.0021   0.0040   0.0051  -0.01    1.3
2017/07/23 11:51:59.200   2773840.7113   1653189.4850   5481929.5456   2  17   0.0051   0.0051   0.0069   0.0021   0.0040   0.0051  -0.01    1.3
2017/07/23 11:51:59.400   2773840.7114   1653189.4852   5481929.5458   2  16   0.0051   0.0051   0.0069   0.0021   0.0040   0.0051  -0.01    1.3
2017/07/23 11:51:59.600   2773840.7115   1653189.4853   5481929.5459   2  16   0.0051   0.0051   0.0069   0.0021   0.0040   0.0051  -0.01    1.3
2017/07/23 11:51:59.800   2773840.7116   1653189.4855   5481929.5461   2  17   0.0051   0.0051   0.0069   0.0021   0.0040   0.0051  -0.01    1.3
2017/07/23 11:52:00.000   2773840.7117   1653189.4856   5481929.5463   2  16   0.0051   0.0051   0.0069   0.0021   0.0041   0.0051  -0.01    1.3
2017/07/23 11:52:00.200   2773840.7117   1653189.4857   5481929.5464   2  16   0.0051   0.0051   0.0069   0.0021   0.0041   0.0051  -0.01    1.3
2017/07/23 11:52:00.400   2773840.7117   1653189.4858   5481929.5466   2  17   0.0051   0.0051   0.0069   0.0021   0.0041   0.0051  -0.01    1.3
2017/07/23 11:52:00.600   2773840.7118   1653189.4859   5481929.5467   2  17   0.0051   0.0051   0.0069   0.0021   0.0041   0.0051  -0.01    1.3
2017/07/23 11:52:00.800   2773840.7118   1653189.4861   5481929.5469   2  16   0.0052   0.0051   0.0069   0.0021   0.0041   0.0051  -0.01    1.3
2017/07/23 11:52:01.000   2773840.7119   1653189.4862   5481929.5471   2  16   0.0052   0.0051   0.0069   0.0021   0.0041   0.0051  -0.01    1.3
2017/07/23 11:52:01.200   2773840.7119   1653189.4863   5481929.5473   2  16   0.0052   0.0051   0.0069   0.0021   0.0041   0.0051  -0.01    1.3
2017/07/23 11:52:01.400   2773840.7119   1653189.4864   5481929.5474   2  16   0.0052   0.0051   0.0069   0.0021   0.0041   0.0051  -0.01    1.3
2017/07/23 11:52:01.600   2773840.7119   1653189.4865   5481929.5475   2  16   0.0052   0.0051   0.0069   0.0021   0.0041   0.0051  -0.01    1.3
2017/07/23 11:52:01.800   2773840.7120   1653189.4866   5481929.5476   2  16   0.0052   0.0051   0.0069   0.0021   0.0041   0.0051  -0.01    1.3
2017/07/23 11:52:02.000   2773840.7121   1653189.4866   5481929.5478   2  16   0.0052   0.0051   0.0069   0.0021   0.0041   0.0051  -0.01    1.2
2017/07/23 11:52:02.200   2773840.7121   1653189.4867   5481929.5480   2  16   0.0052   0.0051   0.0069   0.0021   0.0041   0.0051  -0.01    1.2
2017/07/23 11:52:02.400   2773840.7122   1653189.4867   5481929.5481   2  15   0.0052   0.0051   0.0069   0.0021   0.0041   0.0051  -0.01    1.2
2017/07/23 11:52:02.600   2773840.7122   1653189.4868   5481929.5482   2  16   0.0052   0.0051   0.0069   0.0021   0.0041   0.0051  -0.01    1.2
2017/07/23 11:52:02.800   2773840.7123   1653189.4868   5481929.5483   2  16   0.0052   0.0051   0.0069   0.0021   0.0041   0.0051  -0.01    1.2
2017/07/23 11:52:03.000   2773840.7123   1653189.4869   5481929.5483   2  15   0.0052   0.0051   0.0069   0.0021   0.0041   0.0051  -0.01    1.2
2017/07/23 11:52:03.200   2773840.7123   1653189.4869   5481929.5484   2  17   0.0052   0.0051   0.0069   0.0021   0.0041   0.0051  -0.01    1.2
2017/07/23 11:52:03.400   2773840.7124   1653189.4870   5481929.5485   2  17   0.0052   0.0051   0.0069   0.0021   0.0041   0.0051  -0.01    1.2
2017/07/23 11:52:03.600   2773840.7124   1653189.4870   5481929.5485   2  17   0.0052   0.0051   0.0069   0.0021   0.0041   0.0051  -0.01    1.2
2017/07/23 11:52:03.800   2773840.7125   1653189.4871   5481929.5486   2  17   0.0052   0.0051   0.0069   0.0021   0.0041   0.0051  -0.01    1.3
2017/07/23 11:52:04.000   2773840.7124   1653189.4871   5481929.5485   2  17   0.0052   0.0051   0.0069   0.0021   0.0041   0.0051  -0.01    1.2
2017/07/23 11:52:04.200   2773840.7123   1653189.4871   5481929.5485   2  17   0.0052   0.0051   0.0069   0.0021   0.0041   0.0051  -0.01    1.2
2017/07/23 11:52:04.400   2773840.7122   1653189.4872   5481929.5486   2  17   0.0052   0.0051   0.0069   0.0021   0.0041   0.0051  -0.01    1.2
2017/07/23 11:52:04.600   2773840.7122   1653189.4873   5481929.5487   2  17   0.0052   0.0051   0.0070   0.0021   0.0041   0.0051  -0.01    1.2
2017/07/23 11:52:04.800   2773840.7122   1653189.4873   5481929.5488   2  17   0.0052   0.0052   0.0070   0.0021   0.0041   0.0051  -0.01    1.2
2017/07/23 11:52:05.000   2773840.7122   1653189.4874   5481929.5488   2  16   0.0052   0.0052   0.0070   0.0021   0.0041   0.0051  -0.01    1.2
2017/07/23 11:52:05.200   2773840.7122   1653189.4874   5481929.5489   2  16   0.0052   0.0052   0.0070   0.0021   0.0041   0.0051  -0.01    1.2
2017/07/23 11:52:05.400   2773840.7121   1653189.4873   5481929.5488   2  16   0.0052   0.0052   0.0070   0.0021   0.0041   0.0052  -0.01    1.2
2017/07/23 11:52:05.600   2773840.7121   1653189.4873   5481929.5488   2  15   0.0052   0.0052   0.0070   0.0021   0.0041   0.0052  -0.01    1.2
2017/07/23 11:52:05.800   2773840.7121   1653189.4873   5481929.5489   2  16   0.0052   0.0052   0.0070   0.0021   0.0041   0.0052  -0.01    1.2
2017/07/23 11:52:06.000   2773840.7120   1653189.4873   5481929.5489   2  16   0.0052   0.0052   0.0070   0.0021   0.0041   0.0052  -0.01    1.2
2017/07/23 11:52:06.200   2773840.7120   1653189.4874   5481929.5490   2  16   0.0052   0.0052   0.0070   0.0021   0.0041   0.0052  -0.01    1.2
2017/07/23 11:52:06.400   2773840.7120   1653189.4874   5481929.5491   2  17   0.0052   0.0052   0.0070   0.0021   0.0041   0.0052  -0.01    1.2
2017/07/23 11:52:06.600   2773840.7120   1653189.4875   5481929.5492   2  17   0.0052   0.0052   0.0070   0.0021   0.0041   0.0052  -0.01    1.2
