% program   : RTKLIB ver.2.4.3 Emlid
% inp file  : /home/artur/RTKLIB/test/test/static/3_kalinino/rover.obs
% inp file  : /home/artur/RTKLIB/test/test/static/3_kalinino/base.obs
% inp file  : /home/artur/RTKLIB/test/test/static/3_kalinino/rover.nav
% obs start : 2017/07/23 11:08:08.4 GPST (week1959  40088.4s)
% obs end   : 2017/07/23 11:18:11.4 GPST (week1959  40691.4s)
% pos mode  : static
% freqs     : L1
% solution  : forward
% elev mask : 15.0 deg
% dynamics  : on
% tidecorr  : off
% ionos opt : broadcast
% tropo opt : est ztd
% ephemeris : broadcast
% navi sys  : gps glonass galileo qzss beidou sbas
% amb res   : continuous
% amb glo   : off
% val thres : 3.0
% antenna1  :                       ( 0.0000  0.0000  0.0000)
% antenna2  :                       ( 0.0000  0.0000  0.0000)
% ref pos   :  2773909.8712  1654076.4507  5481627.6877
%
% (x/y/z-ecef=WGS84,Q=1:fix,2:float,3:sbas,4:dgps,5:single,6:ppp,ns=# of satellites)
%  GPST                      x-ecef(m)      y-ecef(m)      z-ecef(m)   Q  ns   sdx(m)   sdy(m)   sdz(m)  sdxy(m)  sdyz(m)  sdzx(m) age(s)  ratio
2017/07/23 11:08:08.400   2774817.3399   1654157.2464   5481147.1816   2  11   2.3893   1.7951   3.5291   1.6279   1.7979   2.1336  -0.01    0.0
2017/07/23 11:08:08.600   2774817.2847   1654157.2076   5481146.9310   2  11   1.8192   1.3499   2.7608   1.2422   1.3970   1.6808  -0.01    0.0
2017/07/23 11:08:08.800   2774817.2229   1654157.1607   5481146.7186   2  10   1.5430   1.1492   2.4342   1.0598   1.2420   1.4705  -0.01    0.0
2017/07/23 11:08:09.000   2774817.1884   1654157.1746   5481146.6629   2  11   1.3731   1.0113   2.1880   0.9452   1.1132   1.3371  -0.01    0.0
2017/07/23 11:08:09.200   2774817.1482   1654157.1788   5481146.5718   2  11   1.2558   0.9168   2.0222   0.8667   1.0277   1.2467  -0.01    0.0
2017/07/23 11:08:09.400   2774817.0937   1654157.2072   5481146.5362   2  11   1.1689   0.8470   1.9013   0.8088   0.9659   1.1805  -0.01    0.0
2017/07/23 11:08:09.600   2774817.0505   1654157.2266   5481146.4895   2  11   1.1012   0.7929   1.8083   0.7639   0.9187   1.1295  -0.01    0.0
2017/07/23 11:08:09.800   2774817.0439   1654157.2586   5481146.5186   2  11   1.0467   0.7493   1.7339   0.7278   0.8811   1.0885  -0.01    0.0
2017/07/23 11:08:10.000   2774817.0300   1654157.2790   5481146.5015   2  11   1.0016   0.7132   1.6726   0.6980   0.8503   1.0547  -0.01    0.0
2017/07/23 11:08:10.200   2774817.0176   1654157.3050   5481146.5123   2  11   0.9635   0.6827   1.6209   0.6728   0.8244   1.0260  -0.01    0.0
2017/07/23 11:08:10.400   2774816.9965   1654157.3247   5481146.4918   2  11   0.9306   0.6565   1.5764   0.6512   0.8021   1.0013  -0.01    0.0
2017/07/23 11:08:10.600   2774817.0064   1654157.3438   5481146.5049   2  11   0.9019   0.6337   1.5376   0.6323   0.7828   0.9796  -0.01    0.0
2017/07/23 11:08:10.800   2774817.0016   1654157.3445   5481146.4884   2  11   0.8766   0.6136   1.5032   0.6156   0.7656   0.9603  -0.01    0.0
2017/07/23 11:08:11.000   2774816.9961   1654157.3485   5481146.4833   2  11   0.8539   0.5956   1.4724   0.6007   0.7502   0.9429  -0.01    0.0
2017/07/23 11:08:11.200   2774816.9842   1654157.3436   5481146.4798   2  11   0.8335   0.5795   1.4445   0.5872   0.7363   0.9271  -0.01    0.0
2017/07/23 11:08:11.400   2774816.9636   1654157.3407   5481146.4710   2  11   0.8150   0.5648   1.4190   0.5749   0.7237   0.9126  -0.01    0.0
2017/07/23 11:08:11.600   2774816.9315   1654157.3320   5481146.4417   2  10   0.7981   0.5521   1.3967   0.5636   0.7130   0.8989  -0.01    0.0
2017/07/23 11:08:11.800   2774816.9009   1654157.3214   5481146.4236   2  10   0.7826   0.5403   1.3759   0.5531   0.7030   0.8862  -0.01    0.0
2017/07/23 11:08:12.000   2774816.8899   1654157.3127   5481146.4191   2  10   0.7682   0.5294   1.3563   0.5434   0.6935   0.8743  -0.01    0.0
2017/07/23 11:08:12.200   2774816.8843   1654157.3120   5481146.4117   2  10   0.7549   0.5192   1.3377   0.5343   0.6845   0.8631  -0.01    0.0
2017/07/23 11:08:12.400   2774816.8792   1654157.3106   5481146.4152   2  10   0.7424   0.5096   1.3201   0.5258   0.6759   0.8525  -0.01    0.0
2017/07/23 11:08:12.600   2774816.8801   1654157.3044   5481146.4021   2  11   0.7305   0.5003   1.3026   0.5179   0.6670   0.8425  -0.01    0.0
2017/07/23 11:08:12.800   2774816.8868   1654157.3079   5481146.4026   2  11   0.7193   0.4915   1.2860   0.5104   0.6585   0.8329  -0.01    0.0
2017/07/23 11:08:13.000   2774816.8872   1654157.3065   5481146.4014   2  11   0.7087   0.4833   1.2701   0.5034   0.6505   0.8237  -0.01    0.0
2017/07/23 11:08:13.200   2774816.8863   1654157.3100   5481146.4022   2  10   0.6988   0.4758   1.2556   0.4966   0.6434   0.8149  -0.01    0.0
2017/07/23 11:08:13.400   2774816.8872   1654157.3171   5481146.4039   2  10   0.6895   0.4687   1.2416   0.4901   0.6365   0.8064  -0.01    0.0
2017/07/23 11:08:13.600   2774816.8830   1654157.3209   5481146.4086   2  10   0.6805   0.4619   1.2281   0.4839   0.6298   0.7982  -0.01    0.0
2017/07/23 11:08:13.800   2774816.8813   1654157.3291   5481146.4274   2  10   0.6720   0.4554   1.2151   0.4780   0.6233   0.7902  -0.01    0.0
2017/07/23 11:08:14.000   2774816.8795   1654157.3398   5481146.4488   2  10   0.6638   0.4493   1.2025   0.4723   0.6170   0.7825  -0.01    0.0
2017/07/23 11:08:14.200   2774816.8814   1654157.3473   5481146.4673   2  11   0.6556   0.4431   1.1897   0.4668   0.6105   0.7749  -0.01    0.0
2017/07/23 11:08:14.400   2774816.8919   1654157.3598   5481146.4927   2  11   0.6477   0.4372   1.1772   0.4615   0.6042   0.7674  -0.01    0.0
2017/07/23 11:08:14.600   2774816.8986   1654157.3700   5481146.5323   2  11   0.6402   0.4316   1.1651   0.4564   0.5980   0.7601  -0.01    0.0
2017/07/23 11:08:14.800   2774816.9195   1654157.3873   5481146.5987   2  11   0.6328   0.4261   1.1534   0.4515   0.5920   0.7530  -0.01    0.0
2017/07/23 11:08:15.000   2774816.9253   1654157.3976   5481146.6254   2  11   0.6257   0.4209   1.1419   0.4467   0.5862   0.7460  -0.01    0.0
2017/07/23 11:08:15.200   2774816.9378   1654157.4110   5481146.6502   2  11   0.6188   0.4159   1.1308   0.4420   0.5806   0.7391  -0.01    0.0
2017/07/23 11:08:15.400   2774816.9566   1654157.4289   5481146.6990   2  10   0.6125   0.4112   1.1204   0.4375   0.5754   0.7327  -0.01    0.0
2017/07/23 11:08:15.600   2774816.9742   1654157.4466   5481146.7508   2  10   0.6063   0.4067   1.1103   0.4331   0.5703   0.7263  -0.01    0.0
2017/07/23 11:08:15.800   2774817.0043   1654157.4644   5481146.8188   2  11   0.5999   0.4021   1.0999   0.4288   0.5650   0.7198  -0.01    0.0
2017/07/23 11:08:16.000   2774817.0191   1654157.4773   5481146.8656   2  11   0.5938   0.3977   1.0896   0.4246   0.5598   0.7135  -0.01    0.0
2017/07/23 11:08:16.200   2774817.0335   1654157.4875   5481146.9116   2  11   0.5878   0.3934   1.0796   0.4205   0.5547   0.7072  -0.01    0.0
2017/07/23 11:08:16.400   2774817.0439   1654157.4947   5481146.9545   2  11   0.5819   0.3893   1.0698   0.4165   0.5497   0.7011  -0.01    0.0
2017/07/23 11:08:16.600   2774817.0561   1654157.5035   5481147.0088   2  11   0.5762   0.3852   1.0603   0.4126   0.5448   0.6950  -0.01    0.0
2017/07/23 11:08:16.800   2774817.0581   1654157.5076   5481147.0409   2  11   0.5707   0.3813   1.0508   0.4088   0.5400   0.6891  -0.01    0.0
2017/07/23 11:08:17.000   2774817.0686   1654157.5164   5481147.0796   2  11   0.5652   0.3775   1.0416   0.4051   0.5353   0.6833  -0.01    0.0
2017/07/23 11:08:17.200   2774817.0827   1654157.5293   5481147.1245   2  11   0.5599   0.3738   1.0326   0.4014   0.5307   0.6775  -0.01    0.0
2017/07/23 11:08:17.400   2774817.0965   1654157.5451   5481147.1731   2  11   0.5548   0.3702   1.0237   0.3978   0.5262   0.6719  -0.01    0.0
2017/07/23 11:08:17.600   2774817.0917   1654157.5509   5481147.1890   2  10   0.5500   0.3668   1.0154   0.3944   0.5221   0.6666  -0.01    0.0
2017/07/23 11:08:17.800   2774817.0928   1654157.5599   5481147.2204   2  10   0.5453   0.3636   1.0073   0.3910   0.5180   0.6614  -0.01    0.0
2017/07/23 11:08:18.000   2774817.0947   1654157.5681   5481147.2495   2  10   0.5407   0.3603   0.9994   0.3878   0.5140   0.6563  -0.01    0.0
2017/07/23 11:08:18.200   2774817.0951   1654157.5735   5481147.2693   2  10   0.5362   0.3572   0.9915   0.3845   0.5100   0.6512  -0.01    1.0
2017/07/23 11:08:18.400   2774817.1023   1654157.5824   5481147.3052   2  10   0.5318   0.3541   0.9838   0.3814   0.5061   0.6463  -0.01    1.0
2017/07/23 11:08:18.600   2774817.1069   1654157.5885   5481147.3384   2  10   0.5275   0.3511   0.9762   0.3783   0.5023   0.6414  -0.01    1.0
2017/07/23 11:08:18.800   2774817.1163   1654157.5974   5481147.3872   2  10   0.5233   0.3482   0.9687   0.3753   0.4985   0.6366  -0.01    1.0
2017/07/23 11:08:19.000   2774817.1282   1654157.6055   5481147.4288   2  10   0.5191   0.3453   0.9614   0.3723   0.4948   0.6318  -0.01    1.0
2017/07/23 11:08:19.200   2774817.1301   1654157.6059   5481147.4472   2  10   0.5151   0.3425   0.9542   0.3694   0.4911   0.6271  -0.01    1.0
2017/07/23 11:08:19.400   2774817.1336   1654157.6061   5481147.4657   2  10   0.5111   0.3398   0.9470   0.3665   0.4875   0.6225  -0.01    1.0
2017/07/23 11:08:19.600   2774817.1357   1654157.6022   5481147.4825   2  10   0.5071   0.3371   0.9400   0.3637   0.4840   0.6180  -0.01    1.0
2017/07/23 11:08:19.800   2774817.1383   1654157.5976   5481147.4949   2  10   0.5033   0.3345   0.9331   0.3609   0.4805   0.6135  -0.01    1.0
2017/07/23 11:08:20.000   2774817.1390   1654157.5940   5481147.5053   2  10   0.4995   0.3319   0.9263   0.3582   0.4770   0.6091  -0.01    1.0
2017/07/23 11:08:20.200   2774817.1352   1654157.5873   5481147.5075   2  10   0.4958   0.3294   0.9196   0.3555   0.4736   0.6047  -0.01    1.1
2017/07/23 11:08:20.400   2774817.1334   1654157.5818   5481147.5131   2  10   0.4921   0.3269   0.9130   0.3529   0.4703   0.6004  -0.01    1.1
2017/07/23 11:08:20.600   2774817.1296   1654157.5759   5481147.5140   2  10   0.4885   0.3244   0.9065   0.3503   0.4670   0.5962  -0.01    1.1
2017/07/23 11:08:20.800   2774817.1333   1654157.5763   5481147.5338   2  10   0.4850   0.3220   0.9001   0.3478   0.4638   0.5920  -0.01    1.1
2017/07/23 11:08:21.000   2774817.1420   1654157.5781   5481147.5617   2  10   0.4815   0.3197   0.8938   0.3453   0.4606   0.5879  -0.01    1.1
2017/07/23 11:08:21.200   2774817.1542   1654157.5834   5481147.5976   2  10   0.4781   0.3174   0.8876   0.3428   0.4574   0.5839  -0.01    1.1
2017/07/23 11:08:21.400   2774817.1634   1654157.5865   5481147.6297   2  10   0.4748   0.3151   0.8815   0.3404   0.4543   0.5799  -0.01    1.1
2017/07/23 11:08:21.600   2774817.1588   1654157.5832   5481147.6376   2  10   0.4715   0.3129   0.8755   0.3380   0.4512   0.5759  -0.01    1.1
2017/07/23 11:08:21.800   2774817.1543   1654157.5814   5481147.6459   2  10   0.4682   0.3107   0.8695   0.3357   0.4482   0.5720  -0.01    1.1
2017/07/23 11:08:22.000   2774817.1381   1654157.5765   5481147.6368   2  11   0.4647   0.3085   0.8631   0.3332   0.4449   0.5678  -0.01    1.1
2017/07/23 11:08:22.200   2774817.1191   1654157.5692   5481147.6153   2  11   0.4612   0.3062   0.8568   0.3308   0.4417   0.5636  -0.01    1.1
2017/07/23 11:08:22.400   2774817.0957   1654157.5601   5481147.5910   2  11   0.4578   0.3040   0.8506   0.3284   0.4385   0.5595  -0.01    1.1
2017/07/23 11:08:22.600   2774817.0701   1654157.5528   5481147.5638   2  11   0.4544   0.3019   0.8446   0.3261   0.4354   0.5555  -0.01    1.1
2017/07/23 11:08:22.800   2774817.0666   1654157.5508   5481147.5583   2  10   0.4515   0.2999   0.8391   0.3239   0.4326   0.5519  -0.01    1.1
2017/07/23 11:08:23.000   2774817.0641   1654157.5467   5481147.5467   2  10   0.4485   0.2979   0.8337   0.3218   0.4299   0.5484  -0.01    1.1
2017/07/23 11:08:23.200   2774817.0603   1654157.5438   5481147.5338   2  10   0.4456   0.2960   0.8283   0.3197   0.4272   0.5449  -0.01    1.1
2017/07/23 11:08:23.400   2774817.0536   1654157.5393   5481147.5165   2  10   0.4428   0.2941   0.8231   0.3176   0.4245   0.5414  -0.01    1.1
2017/07/23 11:08:23.600   2774817.0468   1654157.5347   5481147.5000   2  10   0.4400   0.2923   0.8179   0.3156   0.4218   0.5380  -0.01    1.1
2017/07/23 11:08:23.800   2774817.0428   1654157.5309   5481147.4892   2  10   0.4372   0.2904   0.8128   0.3136   0.4192   0.5346  -0.01    1.1
2017/07/23 11:08:24.000   2774817.0354   1654157.5266   5481147.4747   2  10   0.4345   0.2886   0.8077   0.3117   0.4167   0.5313  -0.01    1.1
2017/07/23 11:08:24.200   2774817.0257   1654157.5258   5481147.4663   2  11   0.4315   0.2868   0.8023   0.3096   0.4139   0.5277  -0.01    1.1
2017/07/23 11:08:24.400   2774817.0104   1654157.5260   5481147.4580   2  11   0.4286   0.2849   0.7969   0.3075   0.4111   0.5241  -0.01    1.1
2017/07/23 11:08:24.600   2774816.9995   1654157.5265   5481147.4558   2  11   0.4257   0.2831   0.7917   0.3055   0.4084   0.5206  -0.01    1.1
2017/07/23 11:08:24.800   2774816.9850   1654157.5216   5481147.4409   2  11   0.4229   0.2813   0.7865   0.3036   0.4058   0.5172  -0.01    1.1
2017/07/23 11:08:25.000   2774816.9709   1654157.5134   5481147.4203   2  11   0.4201   0.2795   0.7814   0.3016   0.4031   0.5138  -0.01    1.1
2017/07/23 11:08:25.200   2774816.9657   1654157.5014   5481147.3915   2  11   0.4174   0.2778   0.7764   0.2997   0.4006   0.5104  -0.01    1.1
2017/07/23 11:08:25.400   2774816.9508   1654157.4933   5481147.3631   2  11   0.4147   0.2761   0.7715   0.2978   0.3980   0.5072  -0.01    1.1
2017/07/23 11:08:25.600   2774816.9378   1654157.4859   5481147.3395   2  11   0.4121   0.2744   0.7666   0.2960   0.3955   0.5039  -0.01    1.0
2017/07/23 11:08:25.800   2774816.9276   1654157.4808   5481147.3229   2  11   0.4095   0.2727   0.7618   0.2942   0.3931   0.5008  -0.01    1.0
2017/07/23 11:08:26.000   2774816.9137   1654157.4739   5481147.2996   2  11   0.4070   0.2711   0.7571   0.2924   0.3907   0.4976  -0.01    1.0
2017/07/23 11:08:26.200   2774816.9038   1654157.4695   5481147.2820   2  11   0.4045   0.2695   0.7525   0.2906   0.3883   0.4946  -0.01    1.0
2017/07/23 11:08:26.400   2774816.8867   1654157.4632   5481147.2544   2  11   0.4020   0.2679   0.7479   0.2889   0.3859   0.4915  -0.01    1.0
2017/07/23 11:08:26.600   2774816.8795   1654157.4621   5481147.2395   2  11   0.3996   0.2664   0.7434   0.2872   0.3836   0.4885  -0.01    1.0
2017/07/23 11:08:26.800   2774816.8733   1654157.4570   5481147.2185   2  11   0.3972   0.2649   0.7390   0.2855   0.3814   0.4856  -0.01    1.0
2017/07/23 11:08:27.000   2774816.8739   1654157.4514   5481147.1982   2  11   0.3949   0.2634   0.7346   0.2838   0.3791   0.4827  -0.01    1.0
2017/07/23 11:08:27.200   2774816.8630   1654157.4401   5481147.1595   2  11   0.3926   0.2619   0.7303   0.2822   0.3769   0.4798  -0.01    1.0
2017/07/23 11:08:27.400   2774816.8500   1654157.4306   5481147.1220   2  11   0.3903   0.2604   0.7261   0.2806   0.3747   0.4770  -0.01    1.0
2017/07/23 11:08:27.600   2774816.8421   1654157.4251   5481147.0941   2  11   0.3881   0.2590   0.7219   0.2790   0.3726   0.4743  -0.01    1.0
2017/07/23 11:08:27.800   2774816.8334   1654157.4232   5481147.0734   2  11   0.3859   0.2576   0.7178   0.2774   0.3705   0.4715  -0.01    1.0
2017/07/23 11:08:28.000   2774816.8217   1654157.4217   5481147.0459   2  11   0.3837   0.2562   0.7138   0.2759   0.3684   0.4688  -0.01    1.0
2017/07/23 11:08:28.200   2774816.8138   1654157.4229   5481147.0318   2  11   0.3816   0.2548   0.7098   0.2744   0.3663   0.4662  -0.01    1.0
2017/07/23 11:08:28.400   2774816.8094   1654157.4245   5481147.0242   2  11   0.3795   0.2535   0.7058   0.2729   0.3643   0.4636  -0.01    1.1
2017/07/23 11:08:28.600   2774816.8084   1654157.4281   5481147.0186   2  11   0.3712   0.2490   0.6859   0.2665   0.3545   0.4504  -0.01    1.1
2017/07/23 11:08:28.800   2774816.7852   1654157.4227   5481146.9803   2  11   0.3638   0.2450   0.6682   0.2608   0.3457   0.4387  -0.01    1.1
2017/07/23 11:08:29.000   2774816.7798   1654157.4240   5481146.9604   2  11   0.3571   0.2414   0.6523   0.2556   0.3378   0.4282  -0.01    1.1
2017/07/23 11:08:29.200   2774816.7608   1654157.4161   5481146.9118   2  11   0.3511   0.2380   0.6379   0.2509   0.3307   0.4188  -0.01    1.1
2017/07/23 11:08:29.400   2774816.7713   1654157.4284   5481146.9416   2  11   0.3455   0.2349   0.6248   0.2466   0.3242   0.4101  -0.01    1.1
2017/07/23 11:08:29.600   2774816.7784   1654157.4380   5481146.9641   2  11   0.3404   0.2320   0.6127   0.2426   0.3182   0.4022  -0.01    1.1
2017/07/23 11:08:29.800   2774816.7733   1654157.4435   5481146.9576   2  11   0.3356   0.2293   0.6015   0.2389   0.3127   0.3949  -0.01    1.1
2017/07/23 11:08:30.000   2774816.7773   1654157.4553   5481146.9939   2  11   0.3311   0.2268   0.5912   0.2354   0.3075   0.3881  -0.01    1.2
2017/07/23 11:08:30.200   2774816.7762   1654157.4657   5481147.0409   2  11   0.3269   0.2244   0.5816   0.2322   0.3027   0.3818  -0.01    1.2
2017/07/23 11:08:30.400   2774816.7617   1654157.4698   5481147.0550   2  11   0.3230   0.2221   0.5725   0.2291   0.2982   0.3759  -0.01    1.2
2017/07/23 11:08:30.600   2774816.7506   1654157.4725   5481147.0562   2  11   0.3193   0.2199   0.5640   0.2263   0.2940   0.3703  -0.01    1.2
2017/07/23 11:08:30.800   2774816.7327   1654157.4698   5481147.0404   2  11   0.3157   0.2179   0.5560   0.2235   0.2900   0.3651  -0.01    1.2
2017/07/23 11:08:31.000   2774816.7424   1654157.4826   5481147.0567   2  11   0.3123   0.2159   0.5484   0.2209   0.2862   0.3602  -0.01    1.2
2017/07/23 11:08:31.200   2774816.7534   1654157.4975   5481147.0795   2  11   0.3091   0.2140   0.5412   0.2184   0.2826   0.3555  -0.01    1.2
2017/07/23 11:08:31.400   2774816.7355   1654157.4939   5481147.0528   2  11   0.3061   0.2122   0.5344   0.2161   0.2791   0.3510  -0.01    1.2
2017/07/23 11:08:31.600   2774816.7233   1654157.4936   5481147.0307   2  11   0.3031   0.2104   0.5279   0.2138   0.2759   0.3467  -0.01    1.2
2017/07/23 11:08:31.800   2774816.7368   1654157.5085   5481147.0508   2  11   0.3003   0.2087   0.5216   0.2116   0.2727   0.3427  -0.01    1.2
2017/07/23 11:08:32.000   2774816.7717   1654157.5361   5481147.1263   2  11   0.2976   0.2071   0.5157   0.2095   0.2697   0.3388  -0.01    1.2
2017/07/23 11:08:32.200   2774816.7909   1654157.5579   5481147.1883   2  11   0.2949   0.2055   0.5099   0.2075   0.2669   0.3350  -0.01    1.2
2017/07/23 11:08:32.400   2774816.7991   1654157.5747   5481147.2294   2  11   0.2924   0.2039   0.5044   0.2056   0.2641   0.3315  -0.01    1.2
2017/07/23 11:08:32.600   2774816.8229   1654157.5975   5481147.2857   2  11   0.2899   0.2024   0.4991   0.2037   0.2614   0.3280  -0.01    1.2
2017/07/23 11:08:32.800   2774816.8221   1654157.6062   5481147.2938   2  11   0.2876   0.2010   0.4940   0.2019   0.2588   0.3247  -0.01    1.2
2017/07/23 11:08:33.000   2774816.8172   1654157.6107   5481147.2846   2  10   0.2854   0.1997   0.4893   0.2002   0.2565   0.3216  -0.01    1.1
2017/07/23 11:08:33.200   2774816.8183   1654157.6184   5481147.3078   2  10   0.2833   0.1983   0.4848   0.1986   0.2542   0.3187  -0.01    1.1
2017/07/23 11:08:33.400   2774816.8129   1654157.6218   5481147.3108   2  10   0.2812   0.1971   0.4804   0.1970   0.2520   0.3159  -0.01    1.1
2017/07/23 11:08:33.600   2774816.8065   1654157.6265   5481147.3020   2  11   0.2791   0.1957   0.4758   0.1953   0.2497   0.3129  -0.01    1.2
2017/07/23 11:08:33.800   2774816.8062   1654157.6347   5481147.3022   2  11   0.2770   0.1945   0.4714   0.1938   0.2475   0.3100  -0.01    1.2
2017/07/23 11:08:34.000   2774816.8049   1654157.6415   5481147.2985   2  11   0.2749   0.1932   0.4672   0.1922   0.2453   0.3072  -0.01    1.2
2017/07/23 11:08:34.200   2774816.8085   1654157.6538   5481147.3097   2  11   0.2730   0.1920   0.4630   0.1907   0.2432   0.3045  -0.01    1.2
2017/07/23 11:08:34.400   2774816.8005   1654157.6573   5481147.3047   2  10   0.2711   0.1908   0.4592   0.1893   0.2413   0.3020  -0.01    1.1
2017/07/23 11:08:34.600   2774816.7847   1654157.6548   5481147.2812   2  10   0.2693   0.1897   0.4554   0.1879   0.2394   0.2996  -0.01    1.1
2017/07/23 11:08:34.800   2774816.7676   1654157.6512   5481147.2506   2  10   0.2676   0.1886   0.4518   0.1866   0.2376   0.2972  -0.01    1.2
2017/07/23 11:08:35.000   2774816.7553   1654157.6495   5481147.2334   2  10   0.2659   0.1875   0.4482   0.1852   0.2358   0.2949  -0.01    1.2
2017/07/23 11:08:35.200   2774816.7425   1654157.6461   5481147.2152   2  10   0.2642   0.1865   0.4447   0.1839   0.2340   0.2927  -0.01    1.2
2017/07/23 11:08:35.400   2774816.7174   1654157.6354   5481147.1699   2  10   0.2625   0.1854   0.4413   0.1827   0.2323   0.2904  -0.01    1.2
2017/07/23 11:08:35.600   2774816.6943   1654157.6290   5481147.1402   2  10   0.2609   0.1844   0.4380   0.1814   0.2306   0.2883  -0.01    1.2
2017/07/23 11:08:35.800   2774816.6780   1654157.6256   5481147.1238   2  10   0.2593   0.1834   0.4347   0.1802   0.2290   0.2861  -0.01    1.2
2017/07/23 11:08:36.000   2774816.6664   1654157.6238   5481147.0994   2  10   0.2577   0.1824   0.4314   0.1790   0.2274   0.2840  -0.01    1.2
2017/07/23 11:08:36.200   2774816.6552   1654157.6213   5481147.0770   2  10   0.2562   0.1814   0.4283   0.1778   0.2258   0.2820  -0.01    1.2
2017/07/23 11:08:36.400   2774816.6431   1654157.6203   5481147.0615   2  11   0.2546   0.1804   0.4250   0.1766   0.2241   0.2798  -0.01    1.2
2017/07/23 11:08:36.600   2774816.6338   1654157.6192   5481147.0395   2  11   0.2529   0.1794   0.4217   0.1754   0.2224   0.2777  -0.01    1.2
2017/07/23 11:08:36.800   2774816.6271   1654157.6200   5481147.0226   2  11   0.2514   0.1784   0.4186   0.1742   0.2208   0.2756  -0.01    1.2
2017/07/23 11:08:37.000   2774816.6269   1654157.6256   5481147.0164   2  11   0.2498   0.1774   0.4155   0.1730   0.2192   0.2736  -0.01    1.2
2017/07/23 11:08:37.200   2774816.6185   1654157.6252   5481146.9903   2  11   0.2483   0.1765   0.4124   0.1719   0.2177   0.2716  -0.01    1.2
2017/07/23 11:08:37.400   2774816.6119   1654157.6262   5481146.9727   2  10   0.2469   0.1756   0.4096   0.1708   0.2162   0.2697  -0.01    1.2
2017/07/23 11:08:37.600   2774816.6001   1654157.6245   5481146.9423   2  10   0.2455   0.1747   0.4068   0.1698   0.2148   0.2679  -0.01    1.3
2017/07/23 11:08:37.800   2774816.5873   1654157.6221   5481146.9119   2  10   0.2442   0.1738   0.4041   0.1687   0.2134   0.2661  -0.01    1.3
2017/07/23 11:08:38.000   2774816.5802   1654157.6244   5481146.8975   2  11   0.2428   0.1729   0.4012   0.1676   0.2120   0.2643  -0.01    1.2
2017/07/23 11:08:38.200   2774816.5753   1654157.6280   5481146.8933   2  11   0.2413   0.1720   0.3984   0.1666   0.2105   0.2624  -0.01    1.2
2017/07/23 11:08:38.400   2774816.5653   1654157.6279   5481146.8822   2  11   0.2400   0.1712   0.3957   0.1655   0.2091   0.2606  -0.01    1.2
2017/07/23 11:08:38.600   2774816.5551   1654157.6274   5481146.8727   2  11   0.2386   0.1703   0.3930   0.1645   0.2077   0.2588  -0.01    1.2
2017/07/23 11:08:38.800   2774816.5443   1654157.6258   5481146.8535   2  11   0.2372   0.1694   0.3903   0.1635   0.2064   0.2571  -0.01    1.2
2017/07/23 11:08:39.000   2774816.5383   1654157.6269   5481146.8483   2  10   0.2360   0.1686   0.3878   0.1626   0.2051   0.2555  -0.01    1.3
2017/07/23 11:08:39.200   2774816.5338   1654157.6282   5481146.8468   2  10   0.2348   0.1679   0.3854   0.1616   0.2039   0.2539  -0.01    1.3
2017/07/23 11:08:39.400   2774816.5374   1654157.6355   5481146.8625   2  11   0.2335   0.1670   0.3828   0.1606   0.2025   0.2522  -0.01    1.1
2017/07/23 11:08:39.600   2774816.5340   1654157.6389   5481146.8783   2  11   0.2322   0.1662   0.3803   0.1597   0.2013   0.2506  -0.01    1.1
2017/07/23 11:08:39.800   2774816.5338   1654157.6441   5481146.8925   2  11   0.2309   0.1654   0.3778   0.1587   0.2000   0.2489  -0.01    1.1
2017/07/23 11:08:40.000   2774816.5280   1654157.6467   5481146.8892   2  11   0.2297   0.1646   0.3754   0.1578   0.1987   0.2473  -0.01    1.1
2017/07/23 11:08:40.200   2774816.5281   1654157.6531   5481146.8961   2  11   0.2285   0.1638   0.3730   0.1569   0.1975   0.2458  -0.01    1.1
2017/07/23 11:08:40.400   2774816.5264   1654157.6572   5481146.8964   2  11   0.2273   0.1631   0.3706   0.1560   0.1963   0.2442  -0.01    1.1
2017/07/23 11:08:40.600   2774816.5151   1654157.6564   5481146.8880   2  11   0.2261   0.1623   0.3682   0.1551   0.1951   0.2427  -0.01    1.1
2017/07/23 11:08:40.800   2774816.5110   1654157.6595   5481146.8913   2  10   0.2250   0.1616   0.3660   0.1542   0.1939   0.2413  -0.01    1.3
2017/07/23 11:08:41.000   2774816.5085   1654157.6634   5481146.8919   2  10   0.2239   0.1609   0.3638   0.1534   0.1928   0.2398  -0.01    1.3
2017/07/23 11:08:41.200   2774816.5113   1654157.6695   5481146.8994   2  10   0.2228   0.1601   0.3617   0.1525   0.1917   0.2384  -0.01    1.3
2017/07/23 11:08:41.400   2774816.5107   1654157.6746   5481146.9067   2  10   0.2217   0.1594   0.3596   0.1517   0.1907   0.2370  -0.01    1.3
2017/07/23 11:08:41.600   2774816.5160   1654157.6834   5481146.9174   2  10   0.2206   0.1588   0.3574   0.1509   0.1896   0.2357  -0.01    1.3
2017/07/23 11:08:41.800   2774816.5172   1654157.6903   5481146.9232   2  10   0.2195   0.1581   0.3553   0.1501   0.1885   0.2343  -0.01    1.3
2017/07/23 11:08:42.000   2774816.5137   1654157.6931   5481146.9264   2  10   0.2185   0.1574   0.3533   0.1493   0.1875   0.2330  -0.01    1.4
2017/07/23 11:08:42.200   2774816.5215   1654157.7011   5481146.9452   2  10   0.2174   0.1567   0.3512   0.1485   0.1864   0.2316  -0.01    1.4
2017/07/23 11:08:42.400   2774816.5181   1654157.7020   5481146.9478   2  10   0.2164   0.1560   0.3492   0.1477   0.1854   0.2303  -0.01    1.3
2017/07/23 11:08:42.600   2774816.5171   1654157.7059   5481146.9687   2  10   0.2154   0.1554   0.3472   0.1469   0.1844   0.2290  -0.01    1.4
2017/07/23 11:08:42.800   2774816.5125   1654157.7075   5481146.9840   2  10   0.2144   0.1547   0.3452   0.1461   0.1834   0.2277  -0.01    1.4
2017/07/23 11:08:43.000   2774816.5073   1654157.7076   5481146.9851   2  10   0.2134   0.1541   0.3432   0.1454   0.1824   0.2265  -0.01    1.4
2017/07/23 11:08:43.200   2774816.5072   1654157.7120   5481146.9970   2  10   0.2124   0.1534   0.3413   0.1446   0.1814   0.2252  -0.01    1.4
2017/07/23 11:08:43.400   2774816.5041   1654157.7153   5481147.0054   2  10   0.2114   0.1528   0.3394   0.1438   0.1804   0.2239  -0.01    1.4
2017/07/23 11:08:43.600   2774816.5063   1654157.7218   5481147.0187   2  10   0.2104   0.1522   0.3374   0.1431   0.1794   0.2227  -0.01    1.4
2017/07/23 11:08:43.800   2774816.5085   1654157.7259   5481147.0247   2  10   0.2094   0.1515   0.3355   0.1424   0.1785   0.2215  -0.01    1.4
2017/07/23 11:08:44.000   2774816.5096   1654157.7309   5481147.0371   2  10   0.2085   0.1509   0.3337   0.1416   0.1775   0.2202  -0.01    1.4
2017/07/23 11:08:44.200   2774816.5116   1654157.7363   5481147.0449   2  10   0.2075   0.1503   0.3318   0.1409   0.1766   0.2190  -0.01    1.4
2017/07/23 11:08:44.400   2774816.5059   1654157.7367   5481147.0429   2  11   0.2065   0.1496   0.3299   0.1401   0.1756   0.2177  -0.01    1.0
2017/07/23 11:08:44.600   2774816.4992   1654157.7374   5481147.0453   2  10   0.2056   0.1490   0.3280   0.1394   0.1746   0.2166  -0.01    1.4
2017/07/23 11:08:44.800   2774816.4936   1654157.7368   5481147.0417   2  10   0.2046   0.1484   0.3262   0.1387   0.1737   0.2154  -0.01    1.4
2017/07/23 11:08:45.000   2774816.4916   1654157.7388   5481147.0552   2  10   0.2037   0.1478   0.3244   0.1380   0.1728   0.2142  -0.01    1.4
2017/07/23 11:08:45.200   2774816.4866   1654157.7398   5481147.0557   2  11   0.2027   0.1472   0.3226   0.1373   0.1718   0.2130  -0.01    1.0
2017/07/23 11:08:45.400   2774816.4850   1654157.7426   5481147.0653   2  10   0.2018   0.1466   0.3208   0.1366   0.1709   0.2119  -0.01    1.4
2017/07/23 11:08:45.600   2774816.4853   1654157.7453   5481147.0761   2  10   0.2009   0.1460   0.3191   0.1359   0.1700   0.2107  -0.01    1.4
2017/07/23 11:08:45.800   2774816.4796   1654157.7436   5481147.0774   2  11   0.2000   0.1454   0.3172   0.1352   0.1691   0.2095  -0.01    1.0
2017/07/23 11:08:46.000   2774816.4765   1654157.7444   5481147.0907   2  11   0.1990   0.1448   0.3154   0.1345   0.1682   0.2083  -0.01    1.1
2017/07/23 11:08:46.200   2774816.4743   1654157.7433   5481147.0969   2  11   0.1981   0.1442   0.3137   0.1338   0.1672   0.2072  -0.01    1.1
2017/07/23 11:08:46.400   2774816.4736   1654157.7446   5481147.1103   2  11   0.1972   0.1436   0.3119   0.1331   0.1663   0.2060  -0.01    1.1
2017/07/23 11:08:46.600   2774816.4660   1654157.7419   5481147.1104   2  11   0.1963   0.1430   0.3102   0.1324   0.1654   0.2049  -0.01    1.1
2017/07/23 11:08:46.800   2774816.4644   1654157.7415   5481147.1165   2  10   0.1954   0.1425   0.3085   0.1317   0.1646   0.2038  -0.01    1.5
2017/07/23 11:08:47.000   2774816.4658   1654157.7429   5481147.1309   2  10   0.1946   0.1419   0.3069   0.1311   0.1638   0.2028  -0.01    1.5
2017/07/23 11:08:47.200   2774816.4632   1654157.7417   5481147.1353   2  10   0.1937   0.1414   0.3052   0.1304   0.1629   0.2017  -0.01    1.5
2017/07/23 11:08:47.400   2774816.4641   1654157.7426   5481147.1457   2  10   0.1929   0.1409   0.3036   0.1298   0.1621   0.2007  -0.01    1.5
2017/07/23 11:08:47.600   2774816.4602   1654157.7392   5481147.1485   2  10   0.1921   0.1403   0.3020   0.1292   0.1613   0.1996  -0.01    1.5
2017/07/23 11:08:47.800   2774816.4610   1654157.7399   5481147.1634   2  10   0.1913   0.1398   0.3005   0.1285   0.1605   0.1986  -0.01    1.5
2017/07/23 11:08:48.000   2774816.4539   1654157.7342   5481147.1622   2  11   0.1904   0.1392   0.2988   0.1279   0.1596   0.1975  -0.01    1.1
2017/07/23 11:08:48.200   2774816.4450   1654157.7265   5481147.1496   2  11   0.1895   0.1387   0.2972   0.1272   0.1588   0.1965  -0.01    1.1
2017/07/23 11:08:48.400   2774816.4376   1654157.7208   5481147.1417   2  11   0.1887   0.1381   0.2956   0.1266   0.1579   0.1954  -0.01    1.1
2017/07/23 11:08:48.600   2774816.4332   1654157.7166   5481147.1322   2  11   0.1879   0.1376   0.2940   0.1260   0.1571   0.1944  -0.01    1.2
2017/07/23 11:08:48.800   2774816.4340   1654157.7165   5481147.1421   2  11   0.1870   0.1370   0.2924   0.1253   0.1563   0.1933  -0.01    1.2
2017/07/23 11:08:49.000   2774816.4354   1654157.7165   5481147.1555   2  11   0.1862   0.1365   0.2908   0.1247   0.1555   0.1923  -0.01    1.2
2017/07/23 11:08:49.200   2774816.4313   1654157.7138   5481147.1596   2  10   0.1854   0.1360   0.2893   0.1241   0.1547   0.1914  -0.01    1.5
2017/07/23 11:08:49.400   2774816.4288   1654157.7123   5481147.1669   2  10   0.1847   0.1355   0.2878   0.1235   0.1540   0.1904  -0.01    1.5
2017/07/23 11:08:49.600   2774816.4237   1654157.7091   5481147.1664   2  10   0.1839   0.1350   0.2864   0.1229   0.1532   0.1894  -0.01    1.5
2017/07/23 11:08:49.800   2774816.4213   1654157.7058   5481147.1688   2  11   0.1831   0.1345   0.2848   0.1223   0.1524   0.1885  -0.01    1.2
2017/07/23 11:08:50.000   2774816.4229   1654157.7064   5481147.1703   2  10   0.1823   0.1340   0.2834   0.1217   0.1517   0.1875  -0.01    1.5
2017/07/23 11:08:50.200   2774816.4221   1654157.7066   5481147.1729   2  10   0.1816   0.1335   0.2820   0.1212   0.1509   0.1866  -0.01    1.5
2017/07/23 11:08:50.400   2774816.4203   1654157.7048   5481147.1693   2  10   0.1808   0.1330   0.2805   0.1206   0.1502   0.1857  -0.01    1.5
2017/07/23 11:08:50.600   2774816.4171   1654157.7021   5481147.1655   2  10   0.1801   0.1325   0.2791   0.1200   0.1495   0.1847  -0.01    1.5
2017/07/23 11:08:50.800   2774816.4156   1654157.7007   5481147.1696   2  10   0.1794   0.1320   0.2777   0.1194   0.1488   0.1838  -0.01    1.5
2017/07/23 11:08:51.000   2774816.4089   1654157.6971   5481147.1676   2  10   0.1786   0.1316   0.2763   0.1189   0.1480   0.1829  -0.01    1.5
2017/07/23 11:08:51.200   2774816.4035   1654157.6954   5481147.1723   2  10   0.1779   0.1311   0.2749   0.1183   0.1473   0.1820  -0.01    1.5
2017/07/23 11:08:51.400   2774816.3989   1654157.6925   5481147.1720   2  10   0.1772   0.1306   0.2735   0.1178   0.1466   0.1811  -0.01    1.5
2017/07/23 11:08:51.600   2774816.3957   1654157.6893   5481147.1691   2  10   0.1765   0.1302   0.2722   0.1172   0.1459   0.1803  -0.01    1.5
2017/07/23 11:08:51.800   2774816.3822   1654157.6789   5481147.1446   2  11   0.1757   0.1297   0.2707   0.1166   0.1452   0.1793  -0.01    1.3
2017/07/23 11:08:52.000   2774816.3668   1654157.6674   5481147.1160   2  11   0.1750   0.1292   0.2693   0.1161   0.1445   0.1784  -0.01    1.4
2017/07/23 11:08:52.200   2774816.3567   1654157.6598   5481147.0967   2  11   0.1742   0.1287   0.2680   0.1155   0.1437   0.1775  -0.01    1.4
2017/07/23 11:08:52.400   2774816.3505   1654157.6565   5481147.0934   2  10   0.1735   0.1283   0.2666   0.1150   0.1431   0.1767  -0.01    1.5
2017/07/23 11:08:52.600   2774816.3467   1654157.6545   5481147.0904   2  10   0.1729   0.1278   0.2653   0.1144   0.1424   0.1758  -0.01    1.5
2017/07/23 11:08:52.800   2774816.3438   1654157.6525   5481147.0867   2  10   0.1722   0.1274   0.2640   0.1139   0.1417   0.1750  -0.01    1.5
2017/07/23 11:08:53.000   2774816.3390   1654157.6467   5481147.0770   2  10   0.1715   0.1269   0.2627   0.1134   0.1410   0.1741  -0.01    1.5
2017/07/23 11:08:53.200   2774816.3381   1654157.6443   5481147.0687   2  10   0.1708   0.1265   0.2614   0.1129   0.1404   0.1733  -0.01    1.5
2017/07/23 11:08:53.400   2774816.3410   1654157.6446   5481147.0727   2  10   0.1701   0.1260   0.2601   0.1123   0.1397   0.1725  -0.01    1.5
2017/07/23 11:08:53.600   2774816.3366   1654157.6398   5481147.0677   2  10   0.1695   0.1256   0.2588   0.1118   0.1391   0.1716  -0.01    1.5
2017/07/23 11:08:53.800   2774816.3358   1654157.6365   5481147.0591   2  10   0.1688   0.1251   0.2576   0.1113   0.1384   0.1708  -0.01    1.5
2017/07/23 11:08:54.000   2774816.3377   1654157.6357   5481147.0607   2  10   0.1681   0.1247   0.2563   0.1108   0.1378   0.1700  -0.01    1.5
2017/07/23 11:08:54.200   2774816.3393   1654157.6345   5481147.0623   2  11   0.1674   0.1243   0.2550   0.1103   0.1371   0.1692  -0.01    1.4
2017/07/23 11:08:54.400   2774816.3444   1654157.6358   5481147.0690   2  11   0.1667   0.1238   0.2537   0.1097   0.1364   0.1683  -0.01    1.5
2017/07/23 11:08:54.600   2774816.3488   1654157.6368   5481147.0736   2  11   0.1661   0.1234   0.2525   0.1092   0.1358   0.1675  -0.01    1.5
2017/07/23 11:08:54.800   2774816.3539   1654157.6376   5481147.0828   2  11   0.1654   0.1229   0.2512   0.1087   0.1351   0.1667  -0.01    1.5
2017/07/23 11:08:55.000   2774816.3607   1654157.6402   5481147.0990   2  11   0.1647   0.1225   0.2500   0.1082   0.1345   0.1659  -0.01    1.5
2017/07/23 11:08:55.200   2774816.3629   1654157.6402   5481147.1061   2  11   0.1641   0.1221   0.2487   0.1077   0.1338   0.1651  -0.01    1.5
2017/07/23 11:08:55.400   2774816.3633   1654157.6397   5481147.1112   2  11   0.1634   0.1216   0.2475   0.1072   0.1332   0.1643  -0.01    1.5
2017/07/23 11:08:55.600   2774816.3655   1654157.6397   5481147.1196   2  11   0.1627   0.1212   0.2463   0.1067   0.1325   0.1635  -0.01    1.5
2017/07/23 11:08:55.800   2774816.3663   1654157.6391   5481147.1257   2  11   0.1621   0.1208   0.2451   0.1062   0.1319   0.1627  -0.01    1.5
2017/07/23 11:08:56.000   2774816.3655   1654157.6376   5481147.1266   2  11   0.1614   0.1204   0.2438   0.1057   0.1313   0.1619  -0.01    1.5
2017/07/23 11:08:56.200   2774816.3641   1654157.6356   5481147.1276   2  11   0.1608   0.1199   0.2427   0.1052   0.1306   0.1611  -0.01    1.5
2017/07/23 11:08:56.400   2774816.3592   1654157.6301   5481147.1177   2  11   0.1602   0.1195   0.2415   0.1047   0.1300   0.1604  -0.01    1.5
2017/07/23 11:08:56.600   2774816.3561   1654157.6261   5481147.1103   2  11   0.1595   0.1191   0.2403   0.1042   0.1294   0.1596  -0.01    1.6
2017/07/23 11:08:56.800   2774816.3577   1654157.6258   5481147.1112   2  11   0.1589   0.1187   0.2391   0.1037   0.1288   0.1588  -0.01    1.6
2017/07/23 11:08:57.000   2774816.3555   1654157.6235   5481147.1091   2  11   0.1583   0.1183   0.2380   0.1033   0.1282   0.1581  -0.01    1.6
2017/07/23 11:08:57.200   2774816.3589   1654157.6252   5481147.1179   2  11   0.1577   0.1179   0.2368   0.1028   0.1276   0.1574  -0.01    1.6
2017/07/23 11:08:57.400   2774816.3612   1654157.6256   5481147.1220   2  11   0.1571   0.1175   0.2357   0.1023   0.1270   0.1566  -0.01    1.6
2017/07/23 11:08:57.600   2774816.3619   1654157.6247   5481147.1229   2  11   0.1564   0.1171   0.2345   0.1018   0.1264   0.1559  -0.01    1.6
2017/07/23 11:08:57.800   2774816.3609   1654157.6221   5481147.1226   2  11   0.1558   0.1167   0.2334   0.1014   0.1258   0.1552  -0.01    1.6
2017/07/23 11:08:58.000   2774816.3629   1654157.6219   5481147.1298   2  11   0.1552   0.1163   0.2323   0.1009   0.1252   0.1544  -0.01    1.6
2017/07/23 11:08:58.200   2774816.3642   1654157.6230   5481147.1461   2  11   0.1546   0.1159   0.2312   0.1005   0.1246   0.1537  -0.01    1.6
2017/07/23 11:08:58.400   2774816.3629   1654157.6204   5481147.1467   2  11   0.1540   0.1155   0.2301   0.1000   0.1241   0.1530  -0.01    1.6
2017/07/23 11:08:58.600   2774816.3648   1654157.6198   5481147.1532   2  11   0.1535   0.1151   0.2290   0.0995   0.1235   0.1523  -0.01    1.6
2017/07/23 11:08:58.800   2774816.3654   1654157.6185   5481147.1551   2  11   0.1529   0.1147   0.2279   0.0991   0.1229   0.1516  -0.01    1.6
2017/07/23 11:08:59.000   2774816.3663   1654157.6172   5481147.1582   2  11   0.1523   0.1143   0.2269   0.0986   0.1224   0.1509  -0.01    1.6
2017/07/23 11:08:59.200   2774816.3693   1654157.6176   5481147.1635   2  11   0.1517   0.1140   0.2258   0.0982   0.1218   0.1502  -0.01    1.6
2017/07/23 11:08:59.400   2774816.3701   1654157.6153   5481147.1572   2  11   0.1511   0.1136   0.2247   0.0978   0.1213   0.1496  -0.01    1.6
2017/07/23 11:08:59.600   2774816.3756   1654157.6174   5481147.1642   2  11   0.1506   0.1132   0.2237   0.0973   0.1207   0.1489  -0.01    1.6
2017/07/23 11:08:59.800   2774816.3809   1654157.6185   5481147.1674   2  11   0.1500   0.1128   0.2226   0.0969   0.1202   0.1482  -0.01    1.6
2017/07/23 11:09:00.000   2774816.3849   1654157.6205   5481147.1721   2  11   0.1494   0.1125   0.2216   0.0964   0.1196   0.1475  -0.01    1.6
2017/07/23 11:09:00.200   2774816.3868   1654157.6205   5481147.1703   2  11   0.1489   0.1121   0.2206   0.0960   0.1191   0.1469  -0.01    1.6
2017/07/23 11:09:00.400   2774816.3886   1654157.6214   5481147.1781   2  11   0.1483   0.1117   0.2195   0.0956   0.1185   0.1462  -0.01    1.6
2017/07/23 11:09:00.600   2774816.3929   1654157.6213   5481147.1797   2  11   0.1478   0.1114   0.2185   0.0952   0.1180   0.1456  -0.01    1.6
2017/07/23 11:09:00.800   2774816.3962   1654157.6224   5481147.1859   2  11   0.1472   0.1110   0.2175   0.0947   0.1175   0.1449  -0.01    1.5
2017/07/23 11:09:01.000   2774816.3959   1654157.6207   5481147.1860   2  11   0.1467   0.1106   0.2165   0.0943   0.1169   0.1443  -0.01    1.5
2017/07/23 11:09:01.200   2774816.3954   1654157.6187   5481147.1845   2  11   0.1461   0.1103   0.2155   0.0939   0.1164   0.1436  -0.01    1.5
2017/07/23 11:09:01.400   2774816.3954   1654157.6168   5481147.1837   2  11   0.1456   0.1099   0.2145   0.0935   0.1159   0.1430  -0.01    1.5
2017/07/23 11:09:01.600   2774816.3976   1654157.6170   5481147.1829   2  10   0.1451   0.1096   0.2135   0.0931   0.1154   0.1424  -0.01    1.3
2017/07/23 11:09:01.800   2774816.3971   1654157.6159   5481147.1784   2  10   0.1446   0.1092   0.2126   0.0927   0.1149   0.1417  -0.01    1.3
2017/07/23 11:09:02.000   2774816.4003   1654157.6160   5481147.1717   2  10   0.1440   0.1089   0.2116   0.0923   0.1144   0.1411  -0.01    1.3
2017/07/23 11:09:02.200   2774816.4058   1654157.6172   5481147.1670   2  10   0.1435   0.1086   0.2107   0.0918   0.1139   0.1405  -0.01    1.3
2017/07/23 11:09:02.400   2774816.4061   1654157.6149   5481147.1583   2  10   0.1430   0.1082   0.2098   0.0914   0.1134   0.1399  -0.01    1.3
2017/07/23 11:09:02.600   2774816.4089   1654157.6156   5481147.1546   2  10   0.1425   0.1079   0.2088   0.0910   0.1130   0.1393  -0.01    1.3
2017/07/23 11:09:02.800   2774816.4114   1654157.6150   5481147.1477   2  10   0.1420   0.1075   0.2079   0.0906   0.1125   0.1387  -0.01    1.3
2017/07/23 11:09:03.000   2774816.4123   1654157.6136   5481147.1398   2  10   0.1415   0.1072   0.2070   0.0903   0.1120   0.1381  -0.01    1.3
2017/07/23 11:09:03.200   2774816.4149   1654157.6134   5481147.1315   2  10   0.1410   0.1069   0.2060   0.0899   0.1115   0.1375  -0.01    1.3
2017/07/23 11:09:03.400   2774816.4188   1654157.6132   5481147.1289   2  10   0.1405   0.1066   0.2051   0.0895   0.1111   0.1369  -0.01    1.3
2017/07/23 11:09:03.600   2774816.4225   1654157.6132   5481147.1276   2  10   0.1400   0.1062   0.2042   0.0891   0.1106   0.1364  -0.01    1.3
2017/07/23 11:09:03.800   2774816.4252   1654157.6135   5481147.1292   2  10   0.1395   0.1059   0.2033   0.0887   0.1101   0.1358  -0.01    1.2
2017/07/23 11:09:04.000   2774816.4302   1654157.6145   5481147.1324   2  10   0.1390   0.1056   0.2024   0.0883   0.1097   0.1352  -0.01    1.2
2017/07/23 11:09:04.200   2774816.4346   1654157.6169   5481147.1401   2  10   0.1385   0.1053   0.2015   0.0879   0.1092   0.1346  -0.01    1.2
2017/07/23 11:09:04.400   2774816.4362   1654157.6179   5481147.1434   2  10   0.1381   0.1049   0.2006   0.0875   0.1087   0.1341  -0.01    1.2
2017/07/23 11:09:04.600   2774816.4347   1654157.6165   5481147.1417   2  11   0.1376   0.1046   0.1998   0.0871   0.1083   0.1335  -0.01    1.5
2017/07/23 11:09:04.800   2774816.4382   1654157.6178   5481147.1490   2  11   0.1371   0.1043   0.1989   0.0868   0.1078   0.1329  -0.01    1.5
2017/07/23 11:09:05.000   2774816.4387   1654157.6159   5481147.1503   2  11   0.1366   0.1040   0.1980   0.0864   0.1073   0.1323  -0.01    1.5
2017/07/23 11:09:05.200   2774816.4398   1654157.6169   5481147.1572   2  11   0.1361   0.1036   0.1971   0.0860   0.1069   0.1318  -0.01    1.5
2017/07/23 11:09:05.400   2774816.4437   1654157.6185   5481147.1636   2  11   0.1356   0.1033   0.1962   0.0856   0.1064   0.1312  -0.01    1.5
2017/07/23 11:09:05.600   2774816.4470   1654157.6183   5481147.1668   2  10   0.1351   0.1030   0.1954   0.0853   0.1060   0.1306  -0.01    1.2
2017/07/23 11:09:05.800   2774816.4474   1654157.6166   5481147.1702   2  10   0.1347   0.1027   0.1945   0.0849   0.1055   0.1301  -0.01    1.2
2017/07/23 11:09:06.000   2774816.4486   1654157.6154   5481147.1698   2  11   0.1342   0.1024   0.1937   0.0845   0.1051   0.1295  -0.01    1.5
2017/07/23 11:09:06.200   2774816.4500   1654157.6142   5481147.1708   2  11   0.1337   0.1021   0.1928   0.0841   0.1046   0.1290  -0.01    1.5
2017/07/23 11:09:06.400   2774816.4514   1654157.6139   5481147.1717   2  11   0.1332   0.1018   0.1920   0.0838   0.1042   0.1284  -0.01    1.5
2017/07/23 11:09:06.600   2774816.4528   1654157.6131   5481147.1727   2  11   0.1328   0.1015   0.1911   0.0834   0.1037   0.1279  -0.01    1.5
2017/07/23 11:09:06.800   2774816.4536   1654157.6104   5481147.1696   2  11   0.1323   0.1011   0.1903   0.0830   0.1033   0.1274  -0.01    1.5
2017/07/23 11:09:07.000   2774816.4552   1654157.6082   5481147.1641   2  11   0.1318   0.1008   0.1895   0.0827   0.1029   0.1268  -0.01    1.5
2017/07/23 11:09:07.200   2774816.4592   1654157.6078   5481147.1614   2  10   0.1314   0.1005   0.1887   0.0823   0.1024   0.1263  -0.01    1.1
2017/07/23 11:09:07.400   2774816.4640   1654157.6090   5481147.1635   2  10   0.1309   0.1002   0.1878   0.0820   0.1020   0.1258  -0.01    1.1
2017/07/23 11:09:07.600   2774816.4670   1654157.6098   5481147.1575   2  10   0.1305   0.1000   0.1870   0.0816   0.1016   0.1253  -0.01    1.1
2017/07/23 11:09:07.800   2774816.4743   1654157.6138   5481147.1594   2  10   0.1301   0.0997   0.1862   0.0813   0.1012   0.1248  -0.01    1.1
2017/07/23 11:09:08.000   2774816.4803   1654157.6162   5481147.1584   2  10   0.1296   0.0994   0.1855   0.0809   0.1008   0.1242  -0.01    1.1
2017/07/23 11:09:08.200   2774816.4857   1654157.6189   5481147.1592   2  10   0.1292   0.0991   0.1847   0.0806   0.1004   0.1237  -0.01    1.1
2017/07/23 11:09:08.400   2774816.4874   1654157.6186   5481147.1524   2  10   0.1287   0.0988   0.1839   0.0802   0.1000   0.1232  -0.01    1.1
2017/07/23 11:09:08.600   2774816.4925   1654157.6210   5481147.1562   2  10   0.1283   0.0985   0.1831   0.0799   0.0995   0.1227  -0.01    1.1
2017/07/23 11:09:08.800   2774816.4964   1654157.6222   5481147.1550   2  10   0.1279   0.0982   0.1823   0.0795   0.0991   0.1222  -0.01    1.1
2017/07/23 11:09:09.000   2774816.5005   1654157.6236   5481147.1558   2  10   0.1275   0.0979   0.1816   0.0792   0.0987   0.1217  -0.01    1.1
2017/07/23 11:09:09.200   2774816.5049   1654157.6252   5481147.1570   2  11   0.1270   0.0977   0.1808   0.0789   0.0983   0.1212  -0.01    1.4
2017/07/23 11:09:09.400   2774816.5120   1654157.6287   5481147.1655   2  11   0.1266   0.0974   0.1800   0.0785   0.0979   0.1207  -0.01    1.4
2017/07/23 11:09:09.600   2774816.5171   1654157.6321   5481147.1747   2  10   0.1262   0.0971   0.1793   0.0782   0.0975   0.1202  -0.01    1.1
2017/07/23 11:09:09.800   2774816.5226   1654157.6334   5481147.1761   2  10   0.1257   0.0968   0.1785   0.0779   0.0971   0.1198  -0.01    1.0
2017/07/23 11:09:10.000   2774816.5270   1654157.6341   5481147.1788   2  10   0.1253   0.0965   0.1778   0.0775   0.0968   0.1193  -0.01    1.0
2017/07/23 11:09:10.200   2774816.5277   1654157.6318   5481147.1740   2  10   0.1249   0.0963   0.1770   0.0772   0.0964   0.1188  -0.01    1.0
2017/07/23 11:09:10.400   2774816.5297   1654157.6311   5481147.1720   2  11   0.1245   0.0960   0.1763   0.0769   0.0960   0.1183  -0.01    1.4
2017/07/23 11:09:10.600   2774816.5345   1654157.6310   5481147.1731   2  11   0.1240   0.0957   0.1755   0.0765   0.0956   0.1178  -0.01    1.4
2017/07/23 11:09:10.800   2774816.5393   1654157.6312   5481147.1747   2  11   0.1236   0.0954   0.1748   0.0762   0.0952   0.1174  -0.01    1.4
2017/07/23 11:09:11.000   2774816.5412   1654157.6311   5481147.1761   2  11   0.1232   0.0951   0.1741   0.0759   0.0948   0.1169  -0.01    1.4
2017/07/23 11:09:11.200   2774816.5441   1654157.6306   5481147.1742   2  11   0.1228   0.0949   0.1733   0.0755   0.0944   0.1164  -0.01    1.4
2017/07/23 11:09:11.400   2774816.5480   1654157.6306   5481147.1716   2  11   0.1224   0.0946   0.1726   0.0752   0.0940   0.1159  -0.01    1.4
2017/07/23 11:09:11.600   2774816.5534   1654157.6332   5481147.1801   2  11   0.1220   0.0943   0.1719   0.0749   0.0936   0.1155  -0.01    1.4
2017/07/23 11:09:11.800   2774816.5571   1654157.6335   5481147.1806   2  11   0.1216   0.0940   0.1712   0.0746   0.0933   0.1150  -0.01    1.4
2017/07/23 11:09:12.000   2774816.5618   1654157.6344   5481147.1843   2  11   0.1211   0.0938   0.1705   0.0743   0.0929   0.1146  -0.01    1.4
2017/07/23 11:09:12.200   2774816.5621   1654157.6335   5481147.1810   2  11   0.1207   0.0935   0.1698   0.0739   0.0925   0.1141  -0.01    1.4
2017/07/23 11:09:12.400   2774816.5641   1654157.6340   5481147.1840   2  11   0.1203   0.0932   0.1691   0.0736   0.0921   0.1136  -0.01    1.4
2017/07/23 11:09:12.600   2774816.5654   1654157.6329   5481147.1824   2  10   0.1200   0.0930   0.1684   0.0733   0.0918   0.1132  -0.01    1.0
2017/07/23 11:09:12.800   2774816.5657   1654157.6308   5481147.1803   2  10   0.1196   0.0927   0.1677   0.0730   0.0914   0.1128  -0.01    1.0
2017/07/23 11:09:13.000   2774816.5678   1654157.6306   5481147.1826   2  10   0.1192   0.0925   0.1670   0.0727   0.0911   0.1123  -0.01    1.0
2017/07/23 11:09:13.200   2774816.5699   1654157.6319   5481147.1885   2  11   0.1188   0.0922   0.1663   0.0724   0.0907   0.1119  -0.01    1.4
2017/07/23 11:09:13.400   2774816.5691   1654157.6304   5481147.1862   2  11   0.1184   0.0919   0.1656   0.0721   0.0903   0.1114  -0.01    1.4
2017/07/23 11:09:13.600   2774816.5696   1654157.6297   5481147.1885   2  10   0.1180   0.0917   0.1650   0.0718   0.0900   0.1110  -0.01    1.0
2017/07/23 11:09:13.800   2774816.5695   1654157.6283   5481147.1919   2  10   0.1176   0.0914   0.1643   0.0715   0.0896   0.1106  -0.01    1.0
2017/07/23 11:09:14.000   2774816.5683   1654157.6253   5481147.1883   2  10   0.1173   0.0912   0.1637   0.0712   0.0893   0.1101  -0.01    1.0
2017/07/23 11:09:14.200   2774816.5652   1654157.6216   5481147.1865   2  10   0.1169   0.0909   0.1630   0.0709   0.0889   0.1097  -0.01    1.0
2017/07/23 11:09:14.400   2774816.5649   1654157.6195   5481147.1893   2  11   0.1165   0.0907   0.1623   0.0706   0.0886   0.1093  -0.01    1.4
2017/07/23 11:09:14.600   2774816.5656   1654157.6181   5481147.1924   2  11   0.1161   0.0904   0.1617   0.0703   0.0882   0.1089  -0.01    1.4
2017/07/23 11:09:14.800   2774816.5668   1654157.6178   5481147.1971   2  11   0.1157   0.0902   0.1610   0.0700   0.0879   0.1084  -0.01    1.4
2017/07/23 11:09:15.000   2774816.5663   1654157.6176   5481147.2021   2  11   0.1154   0.0899   0.1604   0.0697   0.0875   0.1080  -0.01    1.4
2017/07/23 11:09:15.200   2774816.5667   1654157.6171   5481147.2034   2  11   0.1150   0.0897   0.1597   0.0694   0.0872   0.1076  -0.01    1.4
2017/07/23 11:09:15.400   2774816.5643   1654157.6157   5481147.2061   2  11   0.1146   0.0894   0.1591   0.0691   0.0869   0.1072  -0.01    1.3
2017/07/23 11:09:15.600   2774816.5604   1654157.6125   5481147.2049   2  11   0.1142   0.0892   0.1585   0.0688   0.0865   0.1068  -0.01    1.3
2017/07/23 11:09:15.800   2774816.5633   1654157.6135   5481147.2092   2  11   0.1139   0.0889   0.1578   0.0685   0.0862   0.1064  -0.01    1.3
2017/07/23 11:09:16.000   2774816.5620   1654157.6108   5481147.2048   2  11   0.1135   0.0887   0.1572   0.0682   0.0858   0.1059  -0.01    1.3
2017/07/23 11:09:16.200   2774816.5640   1654157.6107   5481147.2041   2  11   0.1131   0.0885   0.1566   0.0679   0.0855   0.1055  -0.01    1.3
2017/07/23 11:09:16.400   2774816.5665   1654157.6106   5481147.2045   2  10   0.1128   0.0882   0.1559   0.0676   0.0852   0.1051  -0.01    1.0
2017/07/23 11:09:16.600   2774816.5647   1654157.6087   5481147.2041   2  10   0.1124   0.0880   0.1553   0.0674   0.0849   0.1047  -0.01    1.0
2017/07/23 11:09:16.800   2774816.5679   1654157.6103   5481147.2100   2  10   0.1121   0.0878   0.1547   0.0671   0.0845   0.1044  -0.01    1.0
2017/07/23 11:09:17.000   2774816.5687   1654157.6114   5481147.2120   2  10   0.1117   0.0875   0.1541   0.0668   0.0842   0.1040  -0.01    1.0
2017/07/23 11:09:17.200   2774816.5656   1654157.6085   5481147.2073   2  10   0.1114   0.0873   0.1535   0.0665   0.0839   0.1036  -0.01    1.0
2017/07/23 11:09:17.400   2774816.5628   1654157.6062   5481147.2050   2  10   0.1110   0.0871   0.1529   0.0662   0.0836   0.1032  -0.01    1.0
2017/07/23 11:09:17.600   2774816.5615   1654157.6040   5481147.2039   2  10   0.1107   0.0868   0.1523   0.0660   0.0833   0.1028  -0.01    1.1
2017/07/23 11:09:17.800   2774816.5596   1654157.6029   5481147.2073   2  10   0.1103   0.0866   0.1517   0.0657   0.0830   0.1024  -0.01    1.1
2017/07/23 11:09:18.000   2774816.5582   1654157.6021   5481147.2106   2  10   0.1100   0.0864   0.1512   0.0654   0.0827   0.1020  -0.01    1.1
2017/07/23 11:09:18.200   2774816.5551   1654157.6007   5481147.2104   2  10   0.1097   0.0861   0.1506   0.0651   0.0824   0.1017  -0.01    1.1
2017/07/23 11:09:18.400   2774816.5532   1654157.5995   5481147.2102   2  10   0.1093   0.0859   0.1500   0.0649   0.0820   0.1013  -0.01    1.1
2017/07/23 11:09:18.600   2774816.5524   1654157.6013   5481147.2194   2  11   0.1090   0.0857   0.1494   0.0646   0.0817   0.1009  -0.01    1.3
2017/07/23 11:09:18.800   2774816.5502   1654157.5993   5481147.2168   2  11   0.1086   0.0855   0.1488   0.0643   0.0814   0.1005  -0.01    1.3
2017/07/23 11:09:19.000   2774816.5507   1654157.5993   5481147.2247   2  10   0.1083   0.0852   0.1483   0.0641   0.0811   0.1001  -0.01    1.1
2017/07/23 11:09:19.200   2774816.5505   1654157.5985   5481147.2340   2  10   0.1080   0.0850   0.1477   0.0638   0.0808   0.0998  -0.01    1.1
2017/07/23 11:09:19.400   2774816.5544   1654157.6000   5481147.2429   2  10   0.1076   0.0848   0.1471   0.0635   0.0805   0.0994  -0.01    1.1
2017/07/23 11:09:19.600   2774816.5591   1654157.6039   5481147.2608   2  11   0.1073   0.0846   0.1466   0.0633   0.0802   0.0990  -0.01    1.2
2017/07/23 11:09:19.800   2774816.5629   1654157.6055   5481147.2678   2  11   0.1070   0.0844   0.1460   0.0630   0.0799   0.0987  -0.01    1.2
2017/07/23 11:09:20.000   2774816.5655   1654157.6067   5481147.2758   2  11   0.1066   0.0841   0.1454   0.0627   0.0796   0.0983  -0.01    1.2
2017/07/23 11:09:20.200   2774816.5694   1654157.6089   5481147.2805   2  11   0.1063   0.0839   0.1449   0.0625   0.0793   0.0979  -0.01    1.2
2017/07/23 11:09:20.400   2774816.5726   1654157.6105   5481147.2852   2  10   0.1060   0.0837   0.1443   0.0622   0.0790   0.0976  -0.01    1.1
2017/07/23 11:09:20.600   2774816.5711   1654157.6091   5481147.2863   2  10   0.1057   0.0835   0.1438   0.0620   0.0787   0.0972  -0.01    1.1
2017/07/23 11:09:20.800   2774816.5724   1654157.6101   5481147.2962   2  10   0.1053   0.0833   0.1432   0.0617   0.0784   0.0969  -0.01    1.1
2017/07/23 11:09:21.000   2774816.5699   1654157.6088   5481147.2987   2  11   0.1050   0.0830   0.1427   0.0614   0.0782   0.0965  -0.01    1.2
2017/07/23 11:09:21.200   2774816.5691   1654157.6095   5481147.3045   2  11   0.1047   0.0828   0.1422   0.0612   0.0779   0.0962  -0.01    1.2
2017/07/23 11:09:21.400   2774816.5664   1654157.6089   5481147.3053   2  11   0.1044   0.0826   0.1416   0.0609   0.0776   0.0958  -0.01    1.2
2017/07/23 11:09:21.600   2774816.5665   1654157.6113   5481147.3110   2  11   0.1040   0.0824   0.1411   0.0607   0.0773   0.0955  -0.01    1.2
2017/07/23 11:09:21.800   2774816.5602   1654157.6101   5481147.3113   2  11   0.1037   0.0822   0.1405   0.0604   0.0770   0.0951  -0.01    1.2
2017/07/23 11:09:22.000   2774816.5560   1654157.6097   5481147.3138   2  11   0.1034   0.0820   0.1400   0.0602   0.0767   0.0948  -0.01    1.1
2017/07/23 11:09:22.200   2774816.5537   1654157.6092   5481147.3154   2  11   0.1031   0.0818   0.1395   0.0599   0.0764   0.0944  -0.01    1.1
2017/07/23 11:09:22.400   2774816.5502   1654157.6083   5481147.3168   2  11   0.1028   0.0816   0.1390   0.0597   0.0761   0.0941  -0.01    1.1
2017/07/23 11:09:22.600   2774816.5463   1654157.6061   5481147.3175   2  11   0.1025   0.0813   0.1384   0.0594   0.0759   0.0938  -0.01    1.1
2017/07/23 11:09:22.800   2774816.5454   1654157.6061   5481147.3239   2  11   0.1022   0.0811   0.1379   0.0592   0.0756   0.0934  -0.01    1.1
2017/07/23 11:09:23.000   2774816.5437   1654157.6044   5481147.3245   2  11   0.1018   0.0809   0.1374   0.0589   0.0753   0.0931  -0.01    1.1
2017/07/23 11:09:23.200   2774816.5424   1654157.6027   5481147.3264   2  10   0.1015   0.0807   0.1369   0.0587   0.0750   0.0928  -0.01    1.1
2017/07/23 11:09:23.400   2774816.5410   1654157.6027   5481147.3293   2  10   0.1012   0.0805   0.1364   0.0585   0.0748   0.0924  -0.01    1.1
2017/07/23 11:09:23.600   2774816.5376   1654157.5994   5481147.3253   2  10   0.1009   0.0803   0.1359   0.0582   0.0745   0.0921  -0.01    1.1
2017/07/23 11:09:23.800   2774816.5328   1654157.5958   5481147.3237   2  10   0.1006   0.0801   0.1354   0.0580   0.0742   0.0918  -0.01    1.1
2017/07/23 11:09:24.000   2774816.5308   1654157.5937   5481147.3191   2  10   0.1003   0.0799   0.1349   0.0577   0.0740   0.0915  -0.01    1.1
2017/07/23 11:09:24.200   2774816.5289   1654157.5904   5481147.3141   2  10   0.1001   0.0797   0.1344   0.0575   0.0737   0.0911  -0.01    1.1
2017/07/23 11:09:24.400   2774816.5259   1654157.5882   5481147.3121   2  10   0.0998   0.0795   0.1339   0.0573   0.0735   0.0908  -0.01    1.1
2017/07/23 11:09:24.600   2774816.5237   1654157.5861   5481147.3105   2  11   0.0995   0.0793   0.1334   0.0570   0.0732   0.0905  -0.01    1.1
2017/07/23 11:09:24.800   2774816.5203   1654157.5826   5481147.3057   2  11   0.0992   0.0791   0.1330   0.0568   0.0729   0.0902  -0.01    1.1
2017/07/23 11:09:25.000   2774816.5157   1654157.5786   5481147.2985   2  11   0.0989   0.0789   0.1325   0.0566   0.0727   0.0899  -0.01    1.1
2017/07/23 11:09:25.200   2774816.5105   1654157.5745   5481147.2930   2  10   0.0986   0.0787   0.1320   0.0563   0.0724   0.0895  -0.01    1.1
2017/07/23 11:09:25.400   2774816.5063   1654157.5698   5481147.2857   2  10   0.0983   0.0786   0.1315   0.0561   0.0722   0.0892  -0.01    1.1
2017/07/23 11:09:25.600   2774816.5035   1654157.5672   5481147.2794   2  10   0.0980   0.0784   0.1310   0.0559   0.0719   0.0889  -0.01    1.1
2017/07/23 11:09:25.800   2774816.4988   1654157.5641   5481147.2788   2  10   0.0977   0.0782   0.1306   0.0556   0.0717   0.0886  -0.01    1.1
2017/07/23 11:09:26.000   2774816.4957   1654157.5618   5481147.2788   2  11   0.0974   0.0780   0.1301   0.0554   0.0714   0.0883  -0.01    1.1
2017/07/23 11:09:26.200   2774816.4913   1654157.5594   5481147.2787   2  11   0.0971   0.0778   0.1296   0.0552   0.0711   0.0880  -0.01    1.1
2017/07/23 11:09:26.400   2774816.4872   1654157.5555   5481147.2748   2  11   0.0969   0.0776   0.1292   0.0549   0.0709   0.0877  -0.01    1.1
2017/07/23 11:09:26.600   2774816.4845   1654157.5539   5481147.2734   2  11   0.0966   0.0774   0.1287   0.0547   0.0706   0.0874  -0.01    1.1
2017/07/23 11:09:26.800   2774816.4817   1654157.5522   5481147.2712   2  11   0.0963   0.0772   0.1282   0.0545   0.0704   0.0871  -0.01    1.1
2017/07/23 11:09:27.000   2774816.4797   1654157.5508   5481147.2664   2  11   0.0960   0.0770   0.1278   0.0543   0.0701   0.0868  -0.01    1.1
2017/07/23 11:09:27.200   2774816.4777   1654157.5493   5481147.2667   2  11   0.0957   0.0768   0.1273   0.0540   0.0699   0.0865  -0.01    1.1
2017/07/23 11:09:27.400   2774816.4743   1654157.5488   5481147.2706   2  11   0.0955   0.0766   0.1269   0.0538   0.0696   0.0862  -0.01    1.1
2017/07/23 11:09:27.600   2774816.4727   1654157.5474   5481147.2726   2  11   0.0952   0.0765   0.1264   0.0536   0.0694   0.0859  -0.01    1.1
2017/07/23 11:09:27.800   2774816.4706   1654157.5448   5481147.2715   2  11   0.0949   0.0763   0.1260   0.0534   0.0692   0.0856  -0.01    1.1
2017/07/23 11:09:28.000   2774816.4678   1654157.5425   5481147.2742   2  11   0.0946   0.0761   0.1255   0.0532   0.0689   0.0853  -0.01    1.1
2017/07/23 11:09:28.200   2774816.4653   1654157.5390   5481147.2746   2  11   0.0943   0.0759   0.1251   0.0529   0.0687   0.0850  -0.01    1.0
2017/07/23 11:09:28.400   2774816.4585   1654157.5356   5481147.2752   2  11   0.0941   0.0757   0.1246   0.0527   0.0684   0.0847  -0.01    1.0
2017/07/23 11:09:28.600   2774816.4554   1654157.5332   5481147.2750   2  11   0.0938   0.0755   0.1242   0.0525   0.0682   0.0844  -0.01    1.0
2017/07/23 11:09:28.800   2774816.4510   1654157.5310   5481147.2756   2  11   0.0935   0.0753   0.1237   0.0523   0.0680   0.0842  -0.01    1.0
2017/07/23 11:09:29.000   2774816.4459   1654157.5296   5481147.2764   2  10   0.0933   0.0752   0.1233   0.0521   0.0677   0.0839  -0.01    1.0
2017/07/23 11:09:29.200   2774816.4414   1654157.5281   5481147.2795   2  10   0.0930   0.0750   0.1229   0.0519   0.0675   0.0836  -0.01    1.1
2017/07/23 11:09:29.400   2774816.4367   1654157.5251   5481147.2813   2  10   0.0927   0.0748   0.1225   0.0517   0.0673   0.0833  -0.01    1.1
