% program   : RTKLIB ver.2.4.3 Emlid
% inp file  : /home/artur/RTKLIB/test/test/static/2_ostanets/rover.obs
% inp file  : /home/artur/RTKLIB/test/test/static/2_ostanets/base.obs
% inp file  : /home/artur/RTKLIB/test/test/static/2_ostanets/rover.nav
% obs start : 2017/07/23 10:23:06.2 GPST (week1959  37386.2s)
% obs end   : 2017/07/23 10:33:24.2 GPST (week1959  38004.2s)
% pos mode  : static
% freqs     : L1
% solution  : combined
% elev mask : 15.0 deg
% dynamics  : on
% tidecorr  : off
% ionos opt : broadcast
% tropo opt : est ztd
% ephemeris : broadcast
% navi sys  : gps glonass galileo qzss beidou sbas
% amb res   : continuous
% amb glo   : off
% val thres : 3.0
% antenna1  :                       ( 0.0000  0.0000  0.0000)
% antenna2  :                       ( 0.0000  0.0000  0.0000)
% ref pos   :  2773909.8712  1654076.4507  5481627.6877
%
% (x/y/z-ecef=WGS84,Q=1:fix,2:float,3:sbas,4:dgps,5:single,6:ppp,ns=# of satellites)
%  GPST                      x-ecef(m)      y-ecef(m)      z-ecef(m)   Q  ns   sdx(m)   sdy(m)   sdz(m)  sdxy(m)  sdyz(m)  sdzx(m) age(s)  ratio
2017/07/23 10:23:06.200   2773519.1074   1652606.2516   5482253.8561   1  16   0.0007   0.0005   0.0013   0.0005   0.0007   0.0009   0.19   13.8
2017/07/23 10:23:06.400   2773519.1074   1652606.2516   5482253.8562   1  16   0.0007   0.0005   0.0013   0.0005   0.0007   0.0009   0.19   13.8
2017/07/23 10:23:06.600   2773519.1074   1652606.2516   5482253.8562   1  16   0.0007   0.0005   0.0013   0.0005   0.0007   0.0009   0.19   13.8
2017/07/23 10:23:06.800   2773519.1074   1652606.2516   5482253.8562   1  16   0.0007   0.0005   0.0013   0.0005   0.0007   0.0009   0.19   13.8
2017/07/23 10:23:07.000   2773519.1074   1652606.2516   5482253.8563   1  16   0.0007   0.0005   0.0013   0.0005   0.0007   0.0009   0.19   13.8
2017/07/23 10:23:07.200   2773519.1074   1652606.2516   5482253.8563   1  16   0.0007   0.0005   0.0013   0.0005   0.0007   0.0009   0.19   13.8
2017/07/23 10:23:07.400   2773519.1074   1652606.2516   5482253.8563   1  16   0.0007   0.0005   0.0013   0.0005   0.0007   0.0009   0.19   13.8
2017/07/23 10:23:07.600   2773519.1075   1652606.2516   5482253.8564   1  16   0.0007   0.0005   0.0013   0.0005   0.0007   0.0009   0.19   13.8
2017/07/23 10:23:07.800   2773519.1075   1652606.2516   5482253.8564   1  16   0.0007   0.0005   0.0013   0.0005   0.0007   0.0009   0.19   13.8
2017/07/23 10:23:08.000   2773519.1075   1652606.2516   5482253.8565   1  16   0.0007   0.0005   0.0013   0.0005   0.0007   0.0009   0.19   13.8
2017/07/23 10:23:08.200   2773519.1075   1652606.2516   5482253.8565   1  16   0.0007   0.0005   0.0013   0.0005   0.0007   0.0009   0.19   13.8
2017/07/23 10:23:08.400   2773519.1075   1652606.2516   5482253.8566   1  16   0.0007   0.0005   0.0013   0.0005   0.0007   0.0009   0.19   13.8
2017/07/23 10:23:08.600   2773519.1075   1652606.2516   5482253.8566   1  16   0.0007   0.0005   0.0013   0.0005   0.0007   0.0009   0.19   13.7
2017/07/23 10:23:08.800   2773519.1075   1652606.2516   5482253.8566   1  16   0.0007   0.0005   0.0013   0.0005   0.0007   0.0009   0.19   13.7
2017/07/23 10:23:09.000   2773519.1075   1652606.2516   5482253.8567   1  16   0.0007   0.0005   0.0013   0.0005   0.0007   0.0009   0.19   13.7
2017/07/23 10:23:09.200   2773519.1075   1652606.2516   5482253.8567   1  16   0.0007   0.0005   0.0013   0.0005   0.0007   0.0009   0.19   13.7
2017/07/23 10:23:09.400   2773519.1075   1652606.2516   5482253.8567   1  16   0.0007   0.0005   0.0013   0.0005   0.0007   0.0009   0.19   13.7
2017/07/23 10:23:09.600   2773519.1075   1652606.2516   5482253.8568   1  16   0.0007   0.0005   0.0013   0.0005   0.0007   0.0009   0.19   13.7
2017/07/23 10:23:09.800   2773519.1075   1652606.2516   5482253.8568   1  16   0.0007   0.0005   0.0013   0.0005   0.0007   0.0009   0.19   13.7
2017/07/23 10:23:10.000   2773519.1075   1652606.2516   5482253.8568   1  16   0.0007   0.0005   0.0013   0.0005   0.0007   0.0009   0.19   13.7
2017/07/23 10:23:10.200   2773519.1075   1652606.2516   5482253.8568   1  16   0.0007   0.0005   0.0013   0.0005   0.0007   0.0009   0.19   13.7
2017/07/23 10:23:10.400   2773519.1075   1652606.2516   5482253.8569   1  16   0.0007   0.0005   0.0013   0.0005   0.0007   0.0009   0.19   13.7
2017/07/23 10:23:10.600   2773519.1075   1652606.2516   5482253.8569   1  16   0.0007   0.0005   0.0013   0.0005   0.0007   0.0009   0.19   13.7
2017/07/23 10:23:10.800   2773519.1075   1652606.2516   5482253.8569   1  16   0.0007   0.0005   0.0013   0.0005   0.0007   0.0009   0.19   13.7
2017/07/23 10:23:11.000   2773519.1075   1652606.2516   5482253.8569   1  16   0.0007   0.0005   0.0013   0.0005   0.0007   0.0009   0.19   13.7
2017/07/23 10:23:11.200   2773519.1075   1652606.2516   5482253.8569   1  16   0.0007   0.0005   0.0013   0.0005   0.0007   0.0009   0.19   13.7
2017/07/23 10:23:11.400   2773519.1075   1652606.2516   5482253.8569   1  16   0.0007   0.0005   0.0013   0.0005   0.0007   0.0009   0.19   13.6
2017/07/23 10:23:11.600   2773519.1075   1652606.2516   5482253.8570   1  16   0.0007   0.0005   0.0013   0.0005   0.0007   0.0009   0.19   13.6
2017/07/23 10:23:11.800   2773519.1076   1652606.2516   5482253.8570   1  16   0.0007   0.0005   0.0013   0.0005   0.0007   0.0009   0.19   13.6
2017/07/23 10:23:12.000   2773519.1076   1652606.2516   5482253.8570   1  16   0.0007   0.0005   0.0013   0.0005   0.0007   0.0009   0.19   13.6
2017/07/23 10:23:12.200   2773519.1076   1652606.2516   5482253.8570   1  16   0.0007   0.0005   0.0013   0.0005   0.0007   0.0009   0.19   13.6
2017/07/23 10:23:12.400   2773519.1076   1652606.2516   5482253.8570   1  16   0.0007   0.0005   0.0013   0.0005   0.0007   0.0009   0.19   13.6
2017/07/23 10:23:12.600   2773519.1076   1652606.2516   5482253.8571   1  16   0.0007   0.0005   0.0013   0.0005   0.0007   0.0009   0.19   13.6
2017/07/23 10:23:12.800   2773519.1076   1652606.2516   5482253.8571   1  16   0.0007   0.0005   0.0013   0.0005   0.0007   0.0009   0.19   13.6
2017/07/23 10:23:13.000   2773519.1076   1652606.2516   5482253.8571   1  16   0.0007   0.0005   0.0013   0.0005   0.0007   0.0009   0.19   13.6
2017/07/23 10:23:13.200   2773519.1076   1652606.2516   5482253.8571   1  16   0.0007   0.0005   0.0013   0.0005   0.0007   0.0009   0.19   13.6
2017/07/23 10:23:13.400   2773519.1076   1652606.2516   5482253.8571   1  16   0.0007   0.0005   0.0013   0.0005   0.0007   0.0009   0.19   13.6
2017/07/23 10:23:13.600   2773519.1076   1652606.2516   5482253.8571   1  16   0.0007   0.0005   0.0013   0.0005   0.0007   0.0009   0.19   13.6
2017/07/23 10:23:13.800   2773519.1076   1652606.2516   5482253.8571   1  16   0.0007   0.0005   0.0013   0.0005   0.0007   0.0009   0.19   13.6
2017/07/23 10:23:14.000   2773519.1076   1652606.2516   5482253.8571   1  16   0.0007   0.0005   0.0013   0.0005   0.0007   0.0009   0.19   13.6
2017/07/23 10:23:14.200   2773519.1076   1652606.2516   5482253.8571   1  16   0.0007   0.0005   0.0013   0.0005   0.0007   0.0009   0.19   13.6
2017/07/23 10:23:14.400   2773519.1076   1652606.2516   5482253.8571   1  16   0.0007   0.0005   0.0013   0.0005   0.0007   0.0009   0.19   13.6
2017/07/23 10:23:14.600   2773519.1076   1652606.2516   5482253.8571   1  16   0.0007   0.0005   0.0013   0.0005   0.0007   0.0009   0.19   13.5
2017/07/23 10:23:14.800   2773519.1076   1652606.2516   5482253.8571   1  16   0.0007   0.0005   0.0013   0.0005   0.0007   0.0009   0.19   13.5
2017/07/23 10:23:15.000   2773519.1076   1652606.2516   5482253.8572   1  16   0.0007   0.0005   0.0013   0.0005   0.0007   0.0009   0.19   13.5
2017/07/23 10:23:15.200   2773519.1076   1652606.2516   5482253.8572   1  16   0.0007   0.0005   0.0013   0.0005   0.0007   0.0009   0.19   13.5
2017/07/23 10:23:15.400   2773519.1076   1652606.2516   5482253.8572   1  16   0.0007   0.0005   0.0013   0.0005   0.0007   0.0009   0.19   13.5
2017/07/23 10:23:15.600   2773519.1076   1652606.2516   5482253.8572   1  16   0.0007   0.0005   0.0013   0.0005   0.0007   0.0009   0.19   13.5
2017/07/23 10:23:15.800   2773519.1076   1652606.2516   5482253.8572   1  16   0.0007   0.0005   0.0013   0.0005   0.0007   0.0009   0.19   13.5
2017/07/23 10:23:16.000   2773519.1076   1652606.2516   5482253.8572   1  16   0.0007   0.0005   0.0013   0.0005   0.0007   0.0009   0.19   13.5
2017/07/23 10:23:16.200   2773519.1076   1652606.2516   5482253.8572   1  16   0.0007   0.0005   0.0013   0.0005   0.0007   0.0009   0.19   13.5
2017/07/23 10:23:16.400   2773519.1075   1652606.2516   5482253.8572   1  16   0.0007   0.0005   0.0013   0.0005   0.0007   0.0009   0.19   13.5
2017/07/23 10:23:16.600   2773519.1075   1652606.2516   5482253.8572   1  16   0.0007   0.0005   0.0013   0.0005   0.0007   0.0009   0.19   13.5
2017/07/23 10:23:16.800   2773519.1076   1652606.2516   5482253.8572   1  16   0.0007   0.0005   0.0013   0.0005   0.0007   0.0009   0.19   13.5
2017/07/23 10:23:17.000   2773519.1076   1652606.2516   5482253.8572   1  16   0.0007   0.0005   0.0013   0.0005   0.0007   0.0009   0.19   13.5
2017/07/23 10:23:17.200   2773519.1075   1652606.2516   5482253.8572   1  16   0.0007   0.0005   0.0013   0.0005   0.0007   0.0009   0.19   13.5
2017/07/23 10:23:17.400   2773519.1075   1652606.2516   5482253.8572   1  16   0.0007   0.0005   0.0013   0.0005   0.0007   0.0009   0.19   13.5
2017/07/23 10:23:17.600   2773519.1075   1652606.2516   5482253.8572   1  16   0.0007   0.0005   0.0013   0.0005   0.0007   0.0009   0.19   13.5
2017/07/23 10:23:17.800   2773519.1075   1652606.2516   5482253.8572   1  16   0.0007   0.0005   0.0013   0.0005   0.0007   0.0009   0.19   13.5
2017/07/23 10:23:18.000   2773519.1075   1652606.2516   5482253.8572   1  16   0.0007   0.0005   0.0013   0.0005   0.0007   0.0009   0.19   13.4
2017/07/23 10:23:18.200   2773519.1075   1652606.2516   5482253.8572   1  16   0.0007   0.0005   0.0013   0.0005   0.0007   0.0009   0.19   13.4
2017/07/23 10:23:18.400   2773519.1075   1652606.2516   5482253.8572   1  16   0.0007   0.0005   0.0013   0.0005   0.0007   0.0009   0.19   13.4
2017/07/23 10:23:18.600   2773519.1075   1652606.2516   5482253.8572   1  16   0.0007   0.0005   0.0013   0.0005   0.0007   0.0009   0.19   13.4
2017/07/23 10:23:18.800   2773519.1075   1652606.2516   5482253.8572   1  16   0.0007   0.0005   0.0013   0.0005   0.0007   0.0009   0.19   13.4
2017/07/23 10:23:19.000   2773519.1075   1652606.2516   5482253.8572   1  16   0.0007   0.0005   0.0013   0.0005   0.0007   0.0009   0.19   13.4
2017/07/23 10:23:19.200   2773519.1075   1652606.2516   5482253.8572   1  16   0.0007   0.0005   0.0013   0.0005   0.0007   0.0009   0.19   13.4
2017/07/23 10:23:19.400   2773519.1075   1652606.2516   5482253.8572   1  16   0.0007   0.0005   0.0013   0.0005   0.0007   0.0009   0.19   13.4
2017/07/23 10:23:19.600   2773519.1075   1652606.2516   5482253.8572   1  16   0.0007   0.0005   0.0013   0.0005   0.0007   0.0009   0.19   13.4
2017/07/23 10:23:19.800   2773519.1075   1652606.2516   5482253.8572   1  16   0.0007   0.0005   0.0013   0.0005   0.0007   0.0009   0.19   13.4
2017/07/23 10:23:20.000   2773519.1075   1652606.2516   5482253.8572   1  16   0.0007   0.0005   0.0013   0.0005   0.0007   0.0009   0.19   13.4
2017/07/23 10:23:20.200   2773519.1075   1652606.2516   5482253.8572   1  16   0.0007   0.0005   0.0013   0.0005   0.0007   0.0009   0.19   13.4
2017/07/23 10:23:20.400   2773519.1075   1652606.2516   5482253.8572   1  16   0.0007   0.0005   0.0013   0.0005   0.0007   0.0009   0.19   13.4
2017/07/23 10:23:20.600   2773519.1075   1652606.2516   5482253.8572   1  16   0.0007   0.0005   0.0013   0.0005   0.0007   0.0009   0.19   13.4
2017/07/23 10:23:20.800   2773519.1075   1652606.2515   5482253.8572   1  16   0.0007   0.0005   0.0013   0.0005   0.0007   0.0009   0.19   13.4
2017/07/23 10:23:21.000   2773519.1075   1652606.2515   5482253.8572   1  16   0.0007   0.0005   0.0013   0.0005   0.0007   0.0009   0.19   13.3
2017/07/23 10:23:21.200   2773519.1075   1652606.2515   5482253.8572   1  16   0.0007   0.0005   0.0013   0.0005   0.0007   0.0009   0.19   13.3
2017/07/23 10:23:21.400   2773519.1075   1652606.2515   5482253.8572   1  16   0.0007   0.0005   0.0013   0.0005   0.0007   0.0009   0.19   13.3
2017/07/23 10:23:21.600   2773519.1075   1652606.2515   5482253.8572   1  16   0.0007   0.0005   0.0013   0.0005   0.0007   0.0009   0.19   13.3
2017/07/23 10:23:21.800   2773519.1075   1652606.2515   5482253.8572   1  16   0.0007   0.0005   0.0013   0.0005   0.0007   0.0009   0.19   13.3
2017/07/23 10:23:22.000   2773519.1075   1652606.2515   5482253.8572   1  16   0.0007   0.0005   0.0013   0.0005   0.0007   0.0009   0.19   13.3
2017/07/23 10:23:22.200   2773519.1075   1652606.2515   5482253.8572   1  16   0.0007   0.0005   0.0013   0.0005   0.0007   0.0009   0.19   13.3
2017/07/23 10:23:22.400   2773519.1075   1652606.2515   5482253.8572   1  16   0.0007   0.0005   0.0013   0.0005   0.0007   0.0009   0.19   13.3
2017/07/23 10:23:22.600   2773519.1075   1652606.2515   5482253.8572   1  16   0.0007   0.0005   0.0013   0.0005   0.0007   0.0009   0.19   13.3
2017/07/23 10:23:22.800   2773519.1075   1652606.2515   5482253.8572   1  16   0.0007   0.0005   0.0013   0.0005   0.0007   0.0009   0.19   13.3
2017/07/23 10:23:23.000   2773519.1075   1652606.2515   5482253.8572   1  16   0.0007   0.0005   0.0013   0.0005   0.0007   0.0009   0.19   13.3
2017/07/23 10:23:23.200   2773519.1075   1652606.2515   5482253.8572   1  16   0.0007   0.0005   0.0013   0.0005   0.0007   0.0009   0.19   13.3
2017/07/23 10:23:23.400   2773519.1075   1652606.2515   5482253.8572   1  16   0.0007   0.0005   0.0013   0.0005   0.0007   0.0009   0.19   13.3
2017/07/23 10:23:23.600   2773519.1075   1652606.2515   5482253.8572   1  16   0.0007   0.0005   0.0013   0.0005   0.0007   0.0009   0.19   13.3
2017/07/23 10:23:23.800   2773519.1075   1652606.2515   5482253.8572   1  16   0.0007   0.0005   0.0013   0.0005   0.0007   0.0009   0.19   13.3
2017/07/23 10:23:24.000   2773519.1075   1652606.2515   5482253.8572   1  16   0.0007   0.0005   0.0013   0.0005   0.0007   0.0009   0.19   13.3
2017/07/23 10:23:24.200   2773519.1075   1652606.2515   5482253.8572   1  16   0.0007   0.0005   0.0013   0.0005   0.0007   0.0009   0.19   13.2
2017/07/23 10:23:24.400   2773519.1075   1652606.2515   5482253.8572   1  16   0.0007   0.0005   0.0013   0.0005   0.0007   0.0009   0.19   13.2
2017/07/23 10:23:24.600   2773519.1075   1652606.2515   5482253.8572   1  16   0.0007   0.0005   0.0013   0.0005   0.0007   0.0009   0.19   13.2
2017/07/23 10:23:24.800   2773519.1075   1652606.2515   5482253.8572   1  16   0.0007   0.0005   0.0013   0.0005   0.0007   0.0009   0.19   13.2
2017/07/23 10:23:25.000   2773519.1075   1652606.2515   5482253.8572   1  16   0.0007   0.0005   0.0013   0.0005   0.0007   0.0009   0.19   13.2
2017/07/23 10:23:25.200   2773519.1075   1652606.2515   5482253.8572   1  16   0.0007   0.0005   0.0013   0.0005   0.0007   0.0009   0.19   13.2
2017/07/23 10:23:25.400   2773519.1075   1652606.2515   5482253.8572   1  16   0.0007   0.0005   0.0013   0.0005   0.0007   0.0009   0.19   13.2
2017/07/23 10:23:25.600   2773519.0802   1652606.2606   5482253.7881   1  16   0.0007   0.0005   0.0013   0.0005   0.0007   0.0009  -0.01    3.0
2017/07/23 10:23:25.800   2773519.0802   1652606.2606   5482253.7880   1  16   0.0007   0.0005   0.0013   0.0005   0.0007   0.0009  -0.01    3.0
2017/07/23 10:23:26.000   2773519.0802   1652606.2606   5482253.7879   1  16   0.0007   0.0005   0.0013   0.0005   0.0007   0.0009  -0.01    3.0
2017/07/23 10:23:26.200   2773519.0801   1652606.2606   5482253.7879   1  16   0.0007   0.0005   0.0013   0.0005   0.0007   0.0009  -0.01    3.0
2017/07/23 10:23:26.400   2773519.0794   1652606.2608   5482253.7860   1  16   0.0007   0.0005   0.0013   0.0005   0.0007   0.0009  -0.01    3.0
2017/07/23 10:23:26.600   2773519.0786   1652606.2609   5482253.7841   1  16   0.0007   0.0005   0.0013   0.0005   0.0007   0.0009  -0.01    3.0
2017/07/23 10:23:26.800   2773519.1075   1652606.2515   5482253.8573   1  16   0.0007   0.0005   0.0013   0.0005   0.0007   0.0009   0.19   13.1
2017/07/23 10:23:27.000   2773519.1076   1652606.2515   5482253.8573   1  16   0.0007   0.0005   0.0013   0.0005   0.0007   0.0009   0.19   13.1
2017/07/23 10:23:27.200   2773519.1076   1652606.2515   5482253.8574   1  16   0.0007   0.0005   0.0013   0.0005   0.0007   0.0009   0.19   13.1
2017/07/23 10:23:27.400   2773519.1076   1652606.2516   5482253.8574   1  16   0.0007   0.0005   0.0013   0.0005   0.0007   0.0009   0.19   13.1
2017/07/23 10:23:27.600   2773519.1076   1652606.2516   5482253.8575   1  16   0.0007   0.0005   0.0013   0.0005   0.0007   0.0009   0.19   13.0
2017/07/23 10:23:27.800   2773519.1077   1652606.2516   5482253.8575   1  16   0.0007   0.0005   0.0013   0.0005   0.0007   0.0009   0.19   13.0
2017/07/23 10:23:28.000   2773519.1077   1652606.2516   5482253.8576   1  16   0.0007   0.0005   0.0013   0.0005   0.0007   0.0009   0.19   13.0
2017/07/23 10:23:28.200   2773519.1077   1652606.2516   5482253.8576   1  16   0.0007   0.0005   0.0013   0.0005   0.0007   0.0009   0.19   13.0
2017/07/23 10:23:28.400   2773519.1077   1652606.2516   5482253.8577   1  16   0.0007   0.0005   0.0013   0.0005   0.0007   0.0009   0.19   13.0
2017/07/23 10:23:28.600   2773519.1078   1652606.2516   5482253.8577   1  16   0.0007   0.0005   0.0013   0.0005   0.0007   0.0009   0.19   12.9
2017/07/23 10:23:28.800   2773519.1078   1652606.2516   5482253.8578   1  16   0.0007   0.0005   0.0013   0.0005   0.0007   0.0009   0.19   12.9
2017/07/23 10:23:29.000   2773519.1078   1652606.2516   5482253.8578   1  16   0.0007   0.0005   0.0013   0.0005   0.0007   0.0009   0.19   12.9
2017/07/23 10:23:29.200   2773519.1078   1652606.2516   5482253.8579   1  16   0.0007   0.0005   0.0013   0.0005   0.0007   0.0009   0.19   12.9
2017/07/23 10:23:29.400   2773519.1079   1652606.2516   5482253.8579   1  16   0.0007   0.0005   0.0013   0.0005   0.0007   0.0009   0.19   12.8
2017/07/23 10:23:29.600   2773519.1079   1652606.2517   5482253.8580   1  16   0.0007   0.0005   0.0013   0.0005   0.0007   0.0009   0.19   12.8
2017/07/23 10:23:29.800   2773519.1079   1652606.2517   5482253.8580   1  16   0.0007   0.0005   0.0013   0.0005   0.0007   0.0009   0.19   12.8
2017/07/23 10:23:30.000   2773519.1079   1652606.2517   5482253.8581   1  16   0.0007   0.0005   0.0013   0.0005   0.0007   0.0009   0.19   12.8
2017/07/23 10:23:30.200   2773519.1079   1652606.2517   5482253.8581   1  16   0.0007   0.0005   0.0013   0.0005   0.0007   0.0009   0.19   12.7
2017/07/23 10:23:30.400   2773519.1080   1652606.2517   5482253.8582   1  16   0.0007   0.0005   0.0013   0.0005   0.0007   0.0009   0.19   12.7
2017/07/23 10:23:30.600   2773519.1080   1652606.2517   5482253.8582   1  16   0.0007   0.0005   0.0013   0.0005   0.0007   0.0009   0.19   12.7
2017/07/23 10:23:30.800   2773519.1080   1652606.2517   5482253.8583   1  16   0.0007   0.0005   0.0013   0.0005   0.0007   0.0009   0.19   12.7
2017/07/23 10:23:31.000   2773519.1080   1652606.2517   5482253.8583   1  16   0.0007   0.0005   0.0013   0.0005   0.0007   0.0009   0.19   12.6
2017/07/23 10:23:31.200   2773519.1080   1652606.2517   5482253.8583   1  16   0.0007   0.0005   0.0013   0.0005   0.0007   0.0009   0.19   12.6
2017/07/23 10:23:31.400   2773519.1081   1652606.2517   5482253.8584   1  16   0.0007   0.0005   0.0013   0.0005   0.0007   0.0009   0.19   12.6
2017/07/23 10:23:31.600   2773519.1081   1652606.2517   5482253.8584   1  16   0.0007   0.0005   0.0013   0.0005   0.0007   0.0009   0.19   12.6
2017/07/23 10:23:31.800   2773519.1081   1652606.2517   5482253.8585   1  16   0.0007   0.0005   0.0013   0.0005   0.0007   0.0009   0.19   12.5
2017/07/23 10:23:32.000   2773519.1081   1652606.2517   5482253.8585   1  16   0.0007   0.0005   0.0013   0.0005   0.0007   0.0009   0.19   12.5
2017/07/23 10:23:32.200   2773519.1081   1652606.2517   5482253.8585   1  16   0.0007   0.0005   0.0013   0.0005   0.0007   0.0009   0.19   12.5
2017/07/23 10:23:32.400   2773519.1082   1652606.2517   5482253.8586   1  16   0.0007   0.0005   0.0013   0.0005   0.0007   0.0009   0.19   12.5
2017/07/23 10:23:32.600   2773519.1082   1652606.2517   5482253.8586   1  16   0.0007   0.0005   0.0013   0.0005   0.0007   0.0009   0.19   12.4
2017/07/23 10:23:32.800   2773519.1082   1652606.2517   5482253.8587   1  16   0.0007   0.0005   0.0013   0.0005   0.0007   0.0009   0.19   12.4
2017/07/23 10:23:33.000   2773519.1082   1652606.2517   5482253.8587   1  16   0.0007   0.0005   0.0013   0.0005   0.0007   0.0009   0.19   12.4
2017/07/23 10:23:33.200   2773519.1082   1652606.2517   5482253.8588   1  16   0.0007   0.0005   0.0013   0.0005   0.0007   0.0009   0.19   12.3
2017/07/23 10:23:33.400   2773519.1083   1652606.2518   5482253.8588   1  16   0.0007   0.0005   0.0013   0.0005   0.0007   0.0009   0.19   12.3
2017/07/23 10:23:33.600   2773519.1083   1652606.2518   5482253.8588   1  16   0.0007   0.0005   0.0013   0.0005   0.0007   0.0009   0.19   12.3
2017/07/23 10:23:33.800   2773519.1083   1652606.2518   5482253.8589   1  16   0.0007   0.0005   0.0013   0.0005   0.0007   0.0009   0.19   12.3
2017/07/23 10:23:34.000   2773519.1083   1652606.2518   5482253.8589   1  16   0.0007   0.0005   0.0013   0.0005   0.0007   0.0009   0.19   12.3
2017/07/23 10:23:34.200   2773519.1083   1652606.2518   5482253.8589   1  16   0.0007   0.0005   0.0013   0.0005   0.0007   0.0009   0.19   12.2
2017/07/23 10:23:34.400   2773519.1084   1652606.2518   5482253.8590   1  16   0.0007   0.0005   0.0013   0.0005   0.0007   0.0009   0.19   12.2
2017/07/23 10:23:34.600   2773519.1084   1652606.2518   5482253.8590   1  16   0.0007   0.0005   0.0013   0.0005   0.0007   0.0009   0.19   12.2
2017/07/23 10:23:34.800   2773519.1084   1652606.2518   5482253.8590   1  16   0.0007   0.0005   0.0013   0.0005   0.0007   0.0009   0.19   12.2
2017/07/23 10:23:35.000   2773519.1084   1652606.2518   5482253.8591   1  16   0.0007   0.0005   0.0013   0.0005   0.0007   0.0009   0.19   12.1
2017/07/23 10:23:35.200   2773519.1084   1652606.2518   5482253.8591   1  16   0.0007   0.0005   0.0013   0.0005   0.0007   0.0009   0.19   12.1
2017/07/23 10:23:35.400   2773519.1084   1652606.2518   5482253.8592   1  16   0.0007   0.0005   0.0013   0.0005   0.0007   0.0009   0.19   12.1
2017/07/23 10:23:35.600   2773519.1085   1652606.2518   5482253.8592   1  16   0.0007   0.0005   0.0013   0.0005   0.0007   0.0009   0.19   12.1
2017/07/23 10:23:35.800   2773519.1085   1652606.2518   5482253.8592   1  16   0.0007   0.0005   0.0013   0.0005   0.0007   0.0009   0.19   12.1
2017/07/23 10:23:36.000   2773519.1085   1652606.2518   5482253.8593   1  16   0.0007   0.0005   0.0013   0.0005   0.0007   0.0009   0.19   12.0
2017/07/23 10:23:36.200   2773519.1085   1652606.2518   5482253.8593   1  16   0.0007   0.0005   0.0013   0.0005   0.0007   0.0009   0.19   12.0
2017/07/23 10:23:36.400   2773519.1085   1652606.2518   5482253.8593   1  16   0.0007   0.0005   0.0013   0.0005   0.0007   0.0009   0.19   12.0
2017/07/23 10:23:36.600   2773519.1085   1652606.2518   5482253.8593   1  16   0.0007   0.0005   0.0013   0.0005   0.0007   0.0009   0.19   12.0
2017/07/23 10:23:36.800   2773519.1085   1652606.2518   5482253.8594   1  16   0.0007   0.0005   0.0013   0.0005   0.0007   0.0009   0.19   11.9
2017/07/23 10:23:37.000   2773519.1086   1652606.2518   5482253.8594   1  16   0.0007   0.0005   0.0013   0.0005   0.0007   0.0009   0.19   11.9
2017/07/23 10:23:37.200   2773519.1086   1652606.2518   5482253.8594   1  16   0.0007   0.0005   0.0013   0.0005   0.0007   0.0009   0.19   11.9
2017/07/23 10:23:37.400   2773519.1086   1652606.2518   5482253.8595   1  16   0.0007   0.0005   0.0013   0.0005   0.0007   0.0009   0.19   11.8
2017/07/23 10:23:37.600   2773519.1086   1652606.2519   5482253.8595   1  16   0.0007   0.0005   0.0013   0.0005   0.0007   0.0009   0.19   11.8
2017/07/23 10:23:37.800   2773519.1086   1652606.2519   5482253.8595   1  16   0.0007   0.0005   0.0013   0.0005   0.0007   0.0009   0.19   11.8
2017/07/23 10:23:38.000   2773519.1086   1652606.2519   5482253.8596   1  16   0.0007   0.0005   0.0013   0.0005   0.0007   0.0009   0.19   11.8
2017/07/23 10:23:38.200   2773519.1087   1652606.2519   5482253.8596   1  16   0.0007   0.0005   0.0013   0.0005   0.0007   0.0009   0.19   11.7
2017/07/23 10:23:38.400   2773519.1087   1652606.2519   5482253.8596   1  16   0.0007   0.0005   0.0013   0.0005   0.0007   0.0009   0.19   11.7
2017/07/23 10:23:38.600   2773519.1087   1652606.2519   5482253.8597   1  16   0.0007   0.0005   0.0013   0.0005   0.0007   0.0009   0.19   11.7
2017/07/23 10:23:38.800   2773519.1087   1652606.2519   5482253.8597   1  16   0.0007   0.0005   0.0013   0.0005   0.0007   0.0009   0.19   11.6
2017/07/23 10:23:39.000   2773519.1087   1652606.2519   5482253.8597   1  16   0.0007   0.0005   0.0013   0.0005   0.0007   0.0009   0.19   11.6
2017/07/23 10:23:39.200   2773519.1087   1652606.2519   5482253.8598   1  16   0.0007   0.0005   0.0013   0.0005   0.0007   0.0009   0.19   11.6
2017/07/23 10:23:39.400   2773519.1088   1652606.2519   5482253.8598   1  16   0.0007   0.0005   0.0013   0.0005   0.0007   0.0009   0.19   11.6
2017/07/23 10:23:39.600   2773519.1088   1652606.2519   5482253.8598   1  16   0.0007   0.0005   0.0013   0.0005   0.0007   0.0009   0.19   11.5
2017/07/23 10:23:39.800   2773519.1088   1652606.2519   5482253.8598   1  16   0.0007   0.0005   0.0013   0.0005   0.0007   0.0009   0.19   11.5
2017/07/23 10:23:40.000   2773519.1088   1652606.2519   5482253.8599   1  16   0.0007   0.0005   0.0013   0.0005   0.0007   0.0009   0.19   11.5
2017/07/23 10:23:40.200   2773519.1088   1652606.2519   5482253.8599   1  16   0.0007   0.0005   0.0013   0.0005   0.0007   0.0009   0.19   11.5
2017/07/23 10:23:40.400   2773519.1088   1652606.2519   5482253.8599   1  16   0.0007   0.0005   0.0013   0.0005   0.0007   0.0009   0.19   11.4
2017/07/23 10:23:40.600   2773519.1088   1652606.2519   5482253.8599   1  16   0.0007   0.0005   0.0013   0.0005   0.0007   0.0009   0.19   11.4
2017/07/23 10:23:40.800   2773519.1089   1652606.2519   5482253.8600   1  16   0.0007   0.0005   0.0013   0.0005   0.0007   0.0009   0.19   11.4
2017/07/23 10:23:41.000   2773519.1089   1652606.2519   5482253.8600   1  16   0.0007   0.0005   0.0013   0.0005   0.0007   0.0009   0.19   11.4
2017/07/23 10:23:41.200   2773519.1089   1652606.2519   5482253.8600   1  16   0.0007   0.0005   0.0013   0.0005   0.0007   0.0009   0.19   11.3
2017/07/23 10:23:41.400   2773519.1089   1652606.2519   5482253.8600   1  16   0.0007   0.0005   0.0013   0.0005   0.0007   0.0009   0.19   11.3
2017/07/23 10:23:41.600   2773519.1089   1652606.2519   5482253.8601   1  16   0.0007   0.0005   0.0013   0.0005   0.0007   0.0009   0.19   11.3
2017/07/23 10:23:41.800   2773519.1089   1652606.2519   5482253.8601   1  16   0.0007   0.0005   0.0013   0.0005   0.0007   0.0009   0.19   11.2
2017/07/23 10:23:42.000   2773519.1089   1652606.2519   5482253.8601   1  16   0.0007   0.0005   0.0013   0.0005   0.0007   0.0009   0.19   11.2
2017/07/23 10:23:42.200   2773519.1089   1652606.2519   5482253.8601   1  16   0.0007   0.0005   0.0013   0.0005   0.0007   0.0009   0.19   11.2
2017/07/23 10:23:42.400   2773519.1089   1652606.2519   5482253.8601   1  16   0.0007   0.0005   0.0013   0.0005   0.0007   0.0009   0.19   11.2
2017/07/23 10:23:42.600   2773519.1090   1652606.2519   5482253.8602   1  16   0.0007   0.0005   0.0013   0.0005   0.0007   0.0009   0.19   11.1
2017/07/23 10:23:42.800   2773519.1090   1652606.2519   5482253.8602   1  16   0.0007   0.0005   0.0013   0.0005   0.0007   0.0009   0.19   11.1
2017/07/23 10:23:43.000   2773519.1090   1652606.2519   5482253.8602   1  16   0.0007   0.0005   0.0013   0.0005   0.0007   0.0009   0.19   11.1
2017/07/23 10:23:43.200   2773519.1090   1652606.2519   5482253.8602   1  16   0.0007   0.0005   0.0013   0.0005   0.0007   0.0009   0.19   11.0
2017/07/23 10:23:43.400   2773519.1090   1652606.2519   5482253.8602   1  16   0.0007   0.0005   0.0013   0.0005   0.0007   0.0009   0.19   11.0
2017/07/23 10:23:43.600   2773519.1090   1652606.2519   5482253.8602   1  16   0.0007   0.0005   0.0013   0.0005   0.0007   0.0009   0.19   11.0
2017/07/23 10:23:43.800   2773519.1090   1652606.2519   5482253.8603   1  16   0.0007   0.0005   0.0013   0.0005   0.0007   0.0009   0.19   11.0
2017/07/23 10:23:44.000   2773519.1090   1652606.2519   5482253.8603   1  16   0.0007   0.0005   0.0013   0.0005   0.0007   0.0009   0.19   10.9
2017/07/23 10:23:44.200   2773519.1090   1652606.2519   5482253.8603   1  16   0.0007   0.0005   0.0013   0.0005   0.0007   0.0009   0.19   10.9
2017/07/23 10:23:44.400   2773519.1091   1652606.2520   5482253.8604   1  16   0.0007   0.0005   0.0013   0.0005   0.0007   0.0009   0.19   10.9
2017/07/23 10:23:44.600   2773519.1091   1652606.2520   5482253.8604   1  16   0.0007   0.0005   0.0013   0.0005   0.0007   0.0009   0.19   10.9
2017/07/23 10:23:44.800   2773519.1091   1652606.2520   5482253.8604   1  16   0.0007   0.0005   0.0013   0.0005   0.0007   0.0009   0.19   10.8
2017/07/23 10:23:45.000   2773519.1091   1652606.2520   5482253.8604   1  16   0.0007   0.0005   0.0013   0.0005   0.0007   0.0009   0.19   10.8
2017/07/23 10:23:45.200   2773519.1091   1652606.2520   5482253.8604   1  16   0.0007   0.0005   0.0013   0.0005   0.0007   0.0009   0.19   10.8
2017/07/23 10:23:45.400   2773519.1091   1652606.2520   5482253.8605   1  16   0.0007   0.0005   0.0013   0.0005   0.0007   0.0009   0.19   10.8
2017/07/23 10:23:45.600   2773519.1091   1652606.2520   5482253.8605   1  16   0.0007   0.0005   0.0013   0.0005   0.0007   0.0009   0.19   10.8
2017/07/23 10:23:45.800   2773519.1092   1652606.2520   5482253.8605   1  16   0.0007   0.0005   0.0013   0.0005   0.0007   0.0009   0.19   10.7
2017/07/23 10:23:46.000   2773519.1092   1652606.2520   5482253.8605   1  16   0.0007   0.0005   0.0013   0.0005   0.0007   0.0009   0.19   10.7
2017/07/23 10:23:46.200   2773519.1092   1652606.2520   5482253.8606   1  16   0.0007   0.0005   0.0013   0.0005   0.0007   0.0009   0.19   10.7
2017/07/23 10:23:46.400   2773519.1092   1652606.2520   5482253.8606   1  16   0.0007   0.0005   0.0013   0.0005   0.0007   0.0009   0.19   10.7
2017/07/23 10:23:46.600   2773519.1092   1652606.2520   5482253.8606   1  16   0.0007   0.0005   0.0013   0.0005   0.0007   0.0009   0.19   10.7
2017/07/23 10:23:46.800   2773519.1092   1652606.2520   5482253.8606   1  16   0.0007   0.0005   0.0013   0.0005   0.0007   0.0009   0.19   10.6
2017/07/23 10:23:47.000   2773519.1092   1652606.2520   5482253.8607   1  16   0.0007   0.0005   0.0013   0.0005   0.0007   0.0009   0.19   10.6
2017/07/23 10:23:47.200   2773519.1093   1652606.2520   5482253.8607   1  16   0.0007   0.0005   0.0013   0.0005   0.0007   0.0009   0.19   10.6
2017/07/23 10:23:47.400   2773519.1093   1652606.2520   5482253.8607   1  16   0.0007   0.0005   0.0013   0.0005   0.0007   0.0009   0.19   10.6
2017/07/23 10:23:47.600   2773519.1093   1652606.2520   5482253.8607   1  16   0.0007   0.0005   0.0013   0.0005   0.0007   0.0009   0.19   10.5
2017/07/23 10:23:47.800   2773519.1093   1652606.2520   5482253.8608   1  16   0.0007   0.0005   0.0013   0.0005   0.0007   0.0009   0.19   10.5
2017/07/23 10:23:48.000   2773519.1093   1652606.2520   5482253.8608   1  16   0.0007   0.0005   0.0013   0.0005   0.0007   0.0009   0.19   10.5
2017/07/23 10:23:48.200   2773519.1093   1652606.2520   5482253.8608   1  16   0.0007   0.0005   0.0013   0.0005   0.0007   0.0009   0.19   10.5
2017/07/23 10:23:48.400   2773519.1093   1652606.2520   5482253.8608   1  16   0.0007   0.0005   0.0013   0.0005   0.0007   0.0009   0.19   10.5
2017/07/23 10:23:48.600   2773519.1093   1652606.2520   5482253.8608   1  16   0.0007   0.0005   0.0013   0.0005   0.0007   0.0009   0.19   10.4
2017/07/23 10:23:48.800   2773519.1094   1652606.2520   5482253.8608   1  16   0.0007   0.0005   0.0013   0.0005   0.0007   0.0009   0.19   10.4
2017/07/23 10:23:49.000   2773519.1094   1652606.2520   5482253.8609   1  16   0.0007   0.0005   0.0013   0.0005   0.0007   0.0009   0.19   10.4
2017/07/23 10:23:49.200   2773519.1094   1652606.2520   5482253.8609   1  16   0.0007   0.0005   0.0013   0.0005   0.0007   0.0009   0.19   10.4
2017/07/23 10:23:49.400   2773519.1094   1652606.2520   5482253.8609   1  16   0.0007   0.0005   0.0013   0.0005   0.0007   0.0009   0.19   10.3
2017/07/23 10:23:49.600   2773519.1094   1652606.2520   5482253.8609   1  16   0.0007   0.0005   0.0013   0.0005   0.0007   0.0009   0.19   10.3
2017/07/23 10:23:49.800   2773519.1094   1652606.2520   5482253.8609   1  16   0.0007   0.0005   0.0013   0.0005   0.0007   0.0009   0.19   10.3
2017/07/23 10:23:50.000   2773519.1094   1652606.2520   5482253.8609   1  16   0.0007   0.0005   0.0013   0.0005   0.0007   0.0009   0.19   10.3
2017/07/23 10:23:50.200   2773519.1094   1652606.2520   5482253.8610   1  16   0.0007   0.0005   0.0013   0.0005   0.0007   0.0009   0.19   10.3
2017/07/23 10:23:50.400   2773519.1094   1652606.2520   5482253.8610   1  16   0.0007   0.0005   0.0013   0.0005   0.0007   0.0009   0.19   10.2
2017/07/23 10:23:50.600   2773519.1094   1652606.2520   5482253.8610   1  16   0.0007   0.0005   0.0013   0.0005   0.0007   0.0009   0.19   10.2
2017/07/23 10:23:50.800   2773519.1095   1652606.2520   5482253.8610   1  16   0.0007   0.0005   0.0013   0.0005   0.0007   0.0009   0.19   10.2
2017/07/23 10:23:51.000   2773519.1095   1652606.2520   5482253.8610   1  16   0.0007   0.0005   0.0013   0.0005   0.0007   0.0009   0.19   10.2
2017/07/23 10:23:51.200   2773519.1095   1652606.2520   5482253.8610   1  16   0.0007   0.0005   0.0013   0.0005   0.0007   0.0009   0.19   10.2
2017/07/23 10:23:51.400   2773519.1095   1652606.2520   5482253.8610   1  16   0.0007   0.0005   0.0013   0.0005   0.0007   0.0009   0.19   10.1
2017/07/23 10:23:51.600   2773519.1095   1652606.2520   5482253.8610   1  16   0.0007   0.0005   0.0013   0.0005   0.0007   0.0009   0.19   10.1
2017/07/23 10:23:51.800   2773519.1095   1652606.2520   5482253.8610   1  16   0.0007   0.0005   0.0013   0.0005   0.0007   0.0009   0.19   10.1
2017/07/23 10:23:52.000   2773519.1095   1652606.2520   5482253.8610   1  16   0.0007   0.0005   0.0013   0.0005   0.0007   0.0009   0.19   10.1
2017/07/23 10:23:52.200   2773519.1095   1652606.2520   5482253.8610   1  16   0.0007   0.0005   0.0013   0.0005   0.0007   0.0009   0.19   10.1
2017/07/23 10:23:52.400   2773519.1095   1652606.2520   5482253.8610   1  16   0.0007   0.0005   0.0013   0.0005   0.0007   0.0009   0.19   10.0
2017/07/23 10:23:52.600   2773519.1095   1652606.2519   5482253.8610   1  16   0.0007   0.0005   0.0013   0.0005   0.0007   0.0009   0.19   10.0
2017/07/23 10:23:52.800   2773519.1095   1652606.2519   5482253.8610   1  16   0.0007   0.0005   0.0013   0.0005   0.0007   0.0009   0.19   10.0
2017/07/23 10:23:53.000   2773519.1095   1652606.2519   5482253.8611   1  16   0.0007   0.0005   0.0013   0.0005   0.0007   0.0009   0.19   10.0
2017/07/23 10:23:53.200   2773519.1095   1652606.2519   5482253.8611   1  16   0.0007   0.0005   0.0013   0.0005   0.0007   0.0009   0.19   10.0
2017/07/23 10:23:53.400   2773519.1095   1652606.2519   5482253.8611   1  16   0.0007   0.0005   0.0013   0.0005   0.0007   0.0009   0.19    9.9
2017/07/23 10:23:53.600   2773519.1095   1652606.2519   5482253.8611   1  16   0.0007   0.0005   0.0013   0.0005   0.0007   0.0009   0.19    9.9
2017/07/23 10:23:53.800   2773519.1095   1652606.2519   5482253.8611   1  16   0.0007   0.0005   0.0013   0.0005   0.0007   0.0009   0.19    9.9
2017/07/23 10:23:54.000   2773519.1095   1652606.2519   5482253.8611   1  16   0.0007   0.0005   0.0013   0.0005   0.0007   0.0009   0.19    9.9
2017/07/23 10:23:54.200   2773519.1096   1652606.2519   5482253.8611   1  16   0.0007   0.0005   0.0013   0.0005   0.0007   0.0009   0.19    9.9
2017/07/23 10:23:54.400   2773519.1096   1652606.2519   5482253.8611   1  16   0.0007   0.0005   0.0013   0.0005   0.0007   0.0009   0.19    9.8
2017/07/23 10:23:54.600   2773519.1096   1652606.2519   5482253.8611   1  16   0.0007   0.0005   0.0013   0.0005   0.0007   0.0009   0.19    9.8
2017/07/23 10:23:54.800   2773519.1096   1652606.2519   5482253.8611   1  16   0.0007   0.0005   0.0013   0.0005   0.0007   0.0009   0.19    9.8
2017/07/23 10:23:55.000   2773519.1096   1652606.2519   5482253.8611   1  16   0.0007   0.0005   0.0013   0.0005   0.0007   0.0009   0.19    9.8
2017/07/23 10:23:55.200   2773519.1096   1652606.2519   5482253.8611   1  16   0.0007   0.0005   0.0013   0.0005   0.0007   0.0009   0.19    9.8
2017/07/23 10:23:55.400   2773519.1096   1652606.2519   5482253.8611   1  16   0.0007   0.0005   0.0013   0.0005   0.0007   0.0009   0.19    9.7
2017/07/23 10:23:55.600   2773519.1096   1652606.2519   5482253.8612   1  16   0.0007   0.0005   0.0013   0.0005   0.0007   0.0009   0.19    9.7
2017/07/23 10:23:55.800   2773519.1096   1652606.2519   5482253.8612   1  16   0.0007   0.0005   0.0013   0.0005   0.0007   0.0009   0.19    9.7
2017/07/23 10:23:56.000   2773519.1096   1652606.2519   5482253.8612   1  16   0.0007   0.0005   0.0013   0.0005   0.0007   0.0009   0.19    9.7
2017/07/23 10:23:56.200   2773519.1097   1652606.2519   5482253.8612   1  16   0.0007   0.0005   0.0013   0.0005   0.0007   0.0009   0.19    9.7
2017/07/23 10:23:56.400   2773519.1097   1652606.2519   5482253.8612   1  16   0.0007   0.0005   0.0013   0.0005   0.0007   0.0009   0.19    9.6
2017/07/23 10:23:56.600   2773519.1097   1652606.2519   5482253.8612   1  16   0.0007   0.0005   0.0013   0.0005   0.0007   0.0009   0.19    9.6
2017/07/23 10:23:56.800   2773519.1097   1652606.2519   5482253.8612   1  16   0.0007   0.0005   0.0013   0.0005   0.0007   0.0009   0.19    9.6
2017/07/23 10:23:57.000   2773519.1097   1652606.2519   5482253.8612   1  16   0.0007   0.0005   0.0013   0.0005   0.0007   0.0009   0.19    9.6
2017/07/23 10:23:57.200   2773519.1097   1652606.2519   5482253.8612   1  16   0.0007   0.0005   0.0013   0.0005   0.0007   0.0009   0.19    9.6
2017/07/23 10:23:57.400   2773519.1097   1652606.2519   5482253.8612   1  16   0.0007   0.0005   0.0013   0.0005   0.0007   0.0009   0.19    9.5
2017/07/23 10:23:57.600   2773519.1097   1652606.2519   5482253.8613   1  16   0.0007   0.0005   0.0013   0.0005   0.0007   0.0009   0.19    9.5
2017/07/23 10:23:57.800   2773519.1097   1652606.2519   5482253.8613   1  16   0.0007   0.0005   0.0013   0.0005   0.0007   0.0009   0.19    9.5
2017/07/23 10:23:58.000   2773519.1097   1652606.2519   5482253.8613   1  16   0.0007   0.0005   0.0013   0.0005   0.0007   0.0009   0.19    9.5
2017/07/23 10:23:58.200   2773519.1077   1652606.2520   5482253.8566   1  16   0.0006   0.0004   0.0012   0.0005   0.0006   0.0008  -0.01    3.0
2017/07/23 10:23:58.400   2773519.1078   1652606.2520   5482253.8566   1  16   0.0006   0.0004   0.0012   0.0005   0.0006   0.0008  -0.01    3.0
2017/07/23 10:23:58.600   2773519.1078   1652606.2520   5482253.8566   1  16   0.0006   0.0004   0.0012   0.0005   0.0006   0.0008  -0.01    3.1
2017/07/23 10:23:58.800   2773519.1078   1652606.2520   5482253.8566   1  16   0.0006   0.0004   0.0012   0.0005   0.0006   0.0008  -0.01    3.1
2017/07/23 10:23:59.000   2773519.1078   1652606.2520   5482253.8566   1  16   0.0006   0.0004   0.0012   0.0005   0.0006   0.0008  -0.01    3.2
2017/07/23 10:23:59.200   2773519.1078   1652606.2520   5482253.8567   1  16   0.0006   0.0004   0.0012   0.0005   0.0006   0.0008  -0.01    3.2
2017/07/23 10:23:59.400   2773519.1078   1652606.2521   5482253.8567   1  16   0.0006   0.0004   0.0012   0.0005   0.0006   0.0008  -0.01    3.2
2017/07/23 10:23:59.600   2773519.1078   1652606.2521   5482253.8567   1  16   0.0006   0.0004   0.0012   0.0005   0.0006   0.0008  -0.01    3.2
2017/07/23 10:23:59.800   2773519.1078   1652606.2521   5482253.8567   1  16   0.0006   0.0004   0.0012   0.0005   0.0006   0.0008  -0.01    3.2
2017/07/23 10:24:00.000   2773519.1078   1652606.2521   5482253.8567   1  16   0.0006   0.0004   0.0012   0.0005   0.0006   0.0008  -0.01    3.3
2017/07/23 10:24:00.200   2773519.1078   1652606.2521   5482253.8567   1  16   0.0006   0.0004   0.0012   0.0005   0.0006   0.0008  -0.01    3.3
2017/07/23 10:24:00.400   2773519.1078   1652606.2521   5482253.8567   1  16   0.0006   0.0004   0.0012   0.0005   0.0006   0.0008  -0.01    3.3
2017/07/23 10:24:00.600   2773519.1078   1652606.2521   5482253.8568   1  16   0.0006   0.0004   0.0012   0.0005   0.0006   0.0008  -0.01    3.3
2017/07/23 10:24:00.800   2773519.1078   1652606.2521   5482253.8568   1  16   0.0006   0.0004   0.0012   0.0005   0.0006   0.0008  -0.01    3.4
2017/07/23 10:24:01.000   2773519.1078   1652606.2521   5482253.8568   1  16   0.0006   0.0004   0.0012   0.0005   0.0006   0.0008  -0.01    3.4
2017/07/23 10:24:01.200   2773519.1078   1652606.2521   5482253.8568   1  16   0.0006   0.0004   0.0012   0.0005   0.0006   0.0008  -0.01    3.4
2017/07/23 10:24:01.400   2773519.1078   1652606.2521   5482253.8568   1  16   0.0006   0.0004   0.0012   0.0005   0.0006   0.0008  -0.01    3.4
2017/07/23 10:24:01.600   2773519.1078   1652606.2521   5482253.8568   1  16   0.0006   0.0004   0.0012   0.0005   0.0006   0.0008  -0.01    3.5
2017/07/23 10:24:01.800   2773519.1078   1652606.2521   5482253.8568   1  16   0.0006   0.0004   0.0012   0.0005   0.0006   0.0008  -0.01    3.5
2017/07/23 10:24:02.000   2773519.1079   1652606.2521   5482253.8568   1  16   0.0006   0.0004   0.0012   0.0005   0.0006   0.0008  -0.01    3.5
2017/07/23 10:24:02.200   2773519.1079   1652606.2521   5482253.8568   1  16   0.0006   0.0004   0.0012   0.0005   0.0006   0.0008  -0.01    3.6
2017/07/23 10:24:02.400   2773519.1079   1652606.2521   5482253.8568   1  16   0.0006   0.0004   0.0012   0.0005   0.0006   0.0008  -0.01    3.6
2017/07/23 10:24:02.600   2773519.1079   1652606.2521   5482253.8568   1  16   0.0006   0.0004   0.0012   0.0005   0.0006   0.0008  -0.01    3.6
2017/07/23 10:24:02.800   2773519.1079   1652606.2521   5482253.8569   1  16   0.0006   0.0004   0.0012   0.0005   0.0006   0.0008  -0.01    3.6
2017/07/23 10:24:03.000   2773519.1079   1652606.2521   5482253.8569   1  16   0.0006   0.0004   0.0012   0.0005   0.0006   0.0008  -0.01    3.7
2017/07/23 10:24:03.200   2773519.1079   1652606.2521   5482253.8569   1  16   0.0006   0.0004   0.0012   0.0005   0.0006   0.0008  -0.01    3.7
2017/07/23 10:24:03.400   2773519.1079   1652606.2521   5482253.8569   1  16   0.0006   0.0004   0.0012   0.0005   0.0006   0.0008  -0.01    3.7
2017/07/23 10:24:03.600   2773519.1079   1652606.2521   5482253.8569   1  16   0.0006   0.0004   0.0012   0.0005   0.0006   0.0008  -0.01    3.7
2017/07/23 10:24:03.800   2773519.1079   1652606.2521   5482253.8569   1  16   0.0006   0.0004   0.0012   0.0005   0.0006   0.0008  -0.01    3.7
2017/07/23 10:24:04.000   2773519.1079   1652606.2521   5482253.8569   1  16   0.0006   0.0004   0.0012   0.0005   0.0006   0.0008  -0.01    3.7
2017/07/23 10:24:04.200   2773519.1079   1652606.2521   5482253.8569   1  16   0.0006   0.0004   0.0012   0.0005   0.0006   0.0008  -0.01    3.7
2017/07/23 10:24:04.400   2773519.1079   1652606.2521   5482253.8569   1  16   0.0006   0.0004   0.0012   0.0005   0.0006   0.0008  -0.01    3.7
2017/07/23 10:24:04.600   2773519.1079   1652606.2521   5482253.8569   1  16   0.0006   0.0004   0.0012   0.0005   0.0006   0.0008  -0.01    3.8
2017/07/23 10:24:04.800   2773519.1079   1652606.2521   5482253.8570   1  16   0.0006   0.0004   0.0012   0.0005   0.0006   0.0008  -0.01    3.8
2017/07/23 10:24:05.000   2773519.1079   1652606.2522   5482253.8570   1  16   0.0006   0.0004   0.0012   0.0005   0.0006   0.0008  -0.01    3.8
2017/07/23 10:24:05.200   2773519.1079   1652606.2522   5482253.8570   1  16   0.0006   0.0004   0.0012   0.0005   0.0006   0.0008  -0.01    3.8
2017/07/23 10:24:05.400   2773519.1079   1652606.2522   5482253.8570   1  16   0.0006   0.0004   0.0012   0.0005   0.0006   0.0008  -0.01    3.8
2017/07/23 10:24:05.600   2773519.1079   1652606.2522   5482253.8570   1  16   0.0006   0.0004   0.0012   0.0005   0.0006   0.0008  -0.01    3.8
2017/07/23 10:24:05.800   2773519.1079   1652606.2522   5482253.8570   1  16   0.0006   0.0004   0.0012   0.0005   0.0006   0.0008  -0.01    3.9
2017/07/23 10:24:06.000   2773519.1079   1652606.2522   5482253.8570   1  16   0.0006   0.0004   0.0012   0.0005   0.0006   0.0008  -0.01    3.9
2017/07/23 10:24:06.200   2773519.1080   1652606.2522   5482253.8570   1  16   0.0006   0.0004   0.0012   0.0005   0.0006   0.0008  -0.01    3.9
2017/07/23 10:24:06.400   2773519.1080   1652606.2522   5482253.8570   1  16   0.0006   0.0004   0.0012   0.0005   0.0006   0.0008  -0.01    3.9
2017/07/23 10:24:06.600   2773519.1080   1652606.2522   5482253.8570   1  16   0.0006   0.0004   0.0012   0.0005   0.0006   0.0008  -0.01    3.9
2017/07/23 10:24:06.800   2773519.1080   1652606.2522   5482253.8570   1  16   0.0006   0.0004   0.0012   0.0005   0.0006   0.0008  -0.01    3.9
2017/07/23 10:24:07.000   2773519.1080   1652606.2522   5482253.8570   1  16   0.0006   0.0004   0.0012   0.0005   0.0006   0.0008  -0.01    3.9
2017/07/23 10:24:07.200   2773519.1080   1652606.2522   5482253.8571   1  16   0.0006   0.0004   0.0012   0.0005   0.0006   0.0008  -0.01    3.9
2017/07/23 10:24:07.400   2773519.1080   1652606.2522   5482253.8571   1  16   0.0006   0.0004   0.0012   0.0005   0.0006   0.0008  -0.01    3.9
2017/07/23 10:24:07.600   2773519.1080   1652606.2522   5482253.8571   1  16   0.0006   0.0004   0.0012   0.0005   0.0006   0.0008  -0.01    4.0
2017/07/23 10:24:07.800   2773519.1080   1652606.2522   5482253.8571   1  16   0.0006   0.0004   0.0012   0.0005   0.0006   0.0008  -0.01    3.9
2017/07/23 10:24:08.000   2773519.1080   1652606.2522   5482253.8571   1  16   0.0006   0.0004   0.0012   0.0005   0.0006   0.0008  -0.01    4.0
2017/07/23 10:24:08.200   2773519.1080   1652606.2522   5482253.8571   1  16   0.0006   0.0004   0.0012   0.0005   0.0006   0.0008  -0.01    4.0
2017/07/23 10:24:08.400   2773519.1080   1652606.2522   5482253.8571   1  16   0.0006   0.0004   0.0012   0.0005   0.0006   0.0008  -0.01    4.0
2017/07/23 10:24:08.600   2773519.1080   1652606.2522   5482253.8571   1  16   0.0006   0.0004   0.0012   0.0005   0.0006   0.0008  -0.01    4.0
2017/07/23 10:24:08.800   2773519.1080   1652606.2522   5482253.8571   1  16   0.0006   0.0004   0.0012   0.0005   0.0006   0.0008  -0.01    4.0
2017/07/23 10:24:09.000   2773519.1080   1652606.2522   5482253.8571   1  16   0.0006   0.0004   0.0012   0.0005   0.0006   0.0008  -0.01    4.0
2017/07/23 10:24:09.200   2773519.1080   1652606.2522   5482253.8571   1  16   0.0006   0.0004   0.0012   0.0005   0.0006   0.0008  -0.01    4.0
2017/07/23 10:24:09.400   2773519.1080   1652606.2522   5482253.8571   1  16   0.0006   0.0004   0.0012   0.0005   0.0006   0.0008  -0.01    4.0
2017/07/23 10:24:09.600   2773519.1080   1652606.2522   5482253.8572   1  16   0.0006   0.0004   0.0012   0.0005   0.0006   0.0008  -0.01    4.1
2017/07/23 10:24:09.800   2773519.1080   1652606.2522   5482253.8572   1  16   0.0006   0.0004   0.0012   0.0005   0.0006   0.0008  -0.01    4.1
2017/07/23 10:24:10.000   2773519.1080   1652606.2522   5482253.8572   1  16   0.0006   0.0004   0.0012   0.0005   0.0006   0.0008  -0.01    4.1
2017/07/23 10:24:10.200   2773519.1080   1652606.2522   5482253.8572   1  16   0.0006   0.0004   0.0012   0.0005   0.0006   0.0008  -0.01    4.1
2017/07/23 10:24:10.400   2773519.1081   1652606.2522   5482253.8572   1  16   0.0006   0.0004   0.0012   0.0005   0.0006   0.0008  -0.01    4.1
2017/07/23 10:24:10.600   2773519.1081   1652606.2522   5482253.8572   1  16   0.0006   0.0004   0.0012   0.0005   0.0006   0.0008  -0.01    4.1
2017/07/23 10:24:10.800   2773519.1081   1652606.2523   5482253.8572   1  16   0.0006   0.0004   0.0012   0.0005   0.0006   0.0008  -0.01    4.2
2017/07/23 10:24:11.000   2773519.1081   1652606.2523   5482253.8572   1  16   0.0006   0.0004   0.0012   0.0005   0.0006   0.0008  -0.01    4.2
2017/07/23 10:24:11.200   2773519.1081   1652606.2523   5482253.8572   1  16   0.0006   0.0004   0.0012   0.0005   0.0006   0.0008  -0.01    4.2
2017/07/23 10:24:11.400   2773519.1081   1652606.2523   5482253.8572   1  16   0.0006   0.0004   0.0012   0.0005   0.0006   0.0008  -0.01    4.2
2017/07/23 10:24:11.600   2773519.1081   1652606.2523   5482253.8573   1  16   0.0006   0.0004   0.0012   0.0005   0.0006   0.0008  -0.01    4.2
2017/07/23 10:24:11.800   2773519.1081   1652606.2523   5482253.8572   1  16   0.0006   0.0004   0.0012   0.0005   0.0006   0.0008  -0.01    4.2
2017/07/23 10:24:12.000   2773519.1081   1652606.2523   5482253.8573   1  16   0.0006   0.0004   0.0012   0.0005   0.0006   0.0008  -0.01    4.2
2017/07/23 10:24:12.200   2773519.1081   1652606.2523   5482253.8573   1  16   0.0006   0.0004   0.0012   0.0005   0.0006   0.0008  -0.01    4.2
2017/07/23 10:24:12.400   2773519.1081   1652606.2523   5482253.8573   1  16   0.0006   0.0004   0.0012   0.0005   0.0006   0.0008  -0.01    4.2
2017/07/23 10:24:12.600   2773519.1081   1652606.2523   5482253.8573   1  16   0.0006   0.0004   0.0012   0.0005   0.0006   0.0008  -0.01    4.2
2017/07/23 10:24:12.800   2773519.1081   1652606.2523   5482253.8573   1  16   0.0006   0.0004   0.0012   0.0005   0.0006   0.0008  -0.01    4.2
2017/07/23 10:24:13.000   2773519.1081   1652606.2523   5482253.8573   1  16   0.0006   0.0004   0.0012   0.0005   0.0006   0.0008  -0.01    4.3
2017/07/23 10:24:13.200   2773519.1081   1652606.2523   5482253.8573   1  16   0.0006   0.0004   0.0012   0.0005   0.0006   0.0008  -0.01    4.3
2017/07/23 10:24:13.400   2773519.1081   1652606.2523   5482253.8573   1  16   0.0006   0.0004   0.0012   0.0005   0.0006   0.0008  -0.01    4.3
2017/07/23 10:24:13.600   2773519.1081   1652606.2523   5482253.8573   1  16   0.0006   0.0004   0.0012   0.0005   0.0006   0.0008  -0.01    4.3
2017/07/23 10:24:13.800   2773519.1081   1652606.2523   5482253.8573   1  16   0.0006   0.0004   0.0012   0.0005   0.0006   0.0008  -0.01    4.3
2017/07/23 10:24:14.000   2773519.1081   1652606.2523   5482253.8573   1  16   0.0006   0.0004   0.0012   0.0005   0.0006   0.0008  -0.01    4.3
2017/07/23 10:24:14.200   2773519.1081   1652606.2523   5482253.8573   1  16   0.0006   0.0004   0.0012   0.0005   0.0006   0.0008  -0.01    4.3
2017/07/23 10:24:14.400   2773519.1081   1652606.2523   5482253.8574   1  16   0.0006   0.0004   0.0012   0.0005   0.0006   0.0008  -0.01    4.3
2017/07/23 10:24:14.600   2773519.1081   1652606.2523   5482253.8574   1  16   0.0006   0.0004   0.0012   0.0005   0.0006   0.0008  -0.01    4.3
2017/07/23 10:24:14.800   2773519.1081   1652606.2523   5482253.8574   1  16   0.0006   0.0004   0.0012   0.0005   0.0006   0.0008  -0.01    4.3
2017/07/23 10:24:15.000   2773519.1081   1652606.2523   5482253.8574   1  16   0.0006   0.0004   0.0012   0.0005   0.0006   0.0008  -0.01    4.4
2017/07/23 10:24:15.200   2773519.1082   1652606.2523   5482253.8574   1  16   0.0006   0.0004   0.0012   0.0005   0.0006   0.0008  -0.01    4.4
2017/07/23 10:24:15.400   2773519.1082   1652606.2523   5482253.8574   1  16   0.0006   0.0004   0.0012   0.0005   0.0006   0.0008  -0.01    4.4
2017/07/23 10:24:15.600   2773519.1082   1652606.2523   5482253.8574   1  16   0.0006   0.0004   0.0012   0.0005   0.0006   0.0008  -0.01    4.4
2017/07/23 10:24:15.800   2773519.1082   1652606.2523   5482253.8574   1  16   0.0006   0.0004   0.0012   0.0005   0.0006   0.0008  -0.01    4.4
2017/07/23 10:24:16.000   2773519.1082   1652606.2523   5482253.8574   1  16   0.0006   0.0004   0.0012   0.0005   0.0006   0.0008  -0.01    4.4
2017/07/23 10:24:16.200   2773519.1082   1652606.2523   5482253.8574   1  16   0.0006   0.0004   0.0012   0.0005   0.0006   0.0008  -0.01    4.4
2017/07/23 10:24:16.400   2773519.1082   1652606.2523   5482253.8574   1  16   0.0006   0.0004   0.0012   0.0005   0.0006   0.0008  -0.01    4.4
2017/07/23 10:24:16.600   2773519.1082   1652606.2523   5482253.8574   1  16   0.0006   0.0004   0.0012   0.0005   0.0006   0.0008  -0.01    4.4
2017/07/23 10:24:16.800   2773519.1082   1652606.2523   5482253.8574   1  16   0.0006   0.0004   0.0012   0.0005   0.0006   0.0008  -0.01    4.4
2017/07/23 10:24:17.000   2773519.1082   1652606.2523   5482253.8575   1  16   0.0006   0.0004   0.0012   0.0005   0.0006   0.0008  -0.01    4.4
2017/07/23 10:24:17.200   2773519.1082   1652606.2523   5482253.8575   1  16   0.0006   0.0004   0.0012   0.0005   0.0006   0.0008  -0.01    4.5
2017/07/23 10:24:17.400   2773519.1082   1652606.2523   5482253.8575   1  16   0.0006   0.0004   0.0012   0.0005   0.0006   0.0008  -0.01    4.5
2017/07/23 10:24:17.600   2773519.1082   1652606.2523   5482253.8575   1  16   0.0006   0.0004   0.0012   0.0005   0.0006   0.0008  -0.01    4.5
2017/07/23 10:24:17.800   2773519.1082   1652606.2523   5482253.8575   1  16   0.0006   0.0004   0.0012   0.0005   0.0006   0.0008  -0.01    4.5
2017/07/23 10:24:18.000   2773519.1082   1652606.2523   5482253.8575   1  16   0.0006   0.0004   0.0012   0.0005   0.0006   0.0008  -0.01    4.5
2017/07/23 10:24:18.200   2773519.1082   1652606.2523   5482253.8575   1  16   0.0006   0.0004   0.0012   0.0005   0.0006   0.0008  -0.01    4.5
2017/07/23 10:24:18.400   2773519.1082   1652606.2523   5482253.8575   1  16   0.0006   0.0004   0.0012   0.0005   0.0006   0.0008  -0.01    4.5
2017/07/23 10:24:18.600   2773519.1082   1652606.2523   5482253.8575   1  16   0.0006   0.0004   0.0012   0.0005   0.0006   0.0008  -0.01    4.5
2017/07/23 10:24:18.800   2773519.1082   1652606.2523   5482253.8575   1  16   0.0006   0.0004   0.0012   0.0005   0.0006   0.0008  -0.01    4.5
2017/07/23 10:24:19.000   2773519.1082   1652606.2523   5482253.8575   1  16   0.0006   0.0004   0.0012   0.0005   0.0006   0.0008  -0.01    4.5
2017/07/23 10:24:19.200   2773519.1082   1652606.2523   5482253.8575   1  16   0.0006   0.0004   0.0012   0.0005   0.0006   0.0008  -0.01    4.5
2017/07/23 10:24:19.400   2773519.1082   1652606.2523   5482253.8576   1  16   0.0006   0.0004   0.0012   0.0005   0.0006   0.0008  -0.01    4.5
2017/07/23 10:24:19.600   2773519.1083   1652606.2524   5482253.8576   1  16   0.0006   0.0004   0.0012   0.0005   0.0006   0.0008  -0.01    4.5
2017/07/23 10:24:19.800   2773519.1083   1652606.2524   5482253.8576   1  16   0.0006   0.0004   0.0012   0.0005   0.0006   0.0008  -0.01    4.5
2017/07/23 10:24:20.000   2773519.1083   1652606.2524   5482253.8576   1  16   0.0006   0.0004   0.0012   0.0005   0.0006   0.0008  -0.01    4.5
2017/07/23 10:24:20.200   2773519.1083   1652606.2524   5482253.8576   1  16   0.0006   0.0004   0.0012   0.0005   0.0006   0.0008  -0.01    4.5
2017/07/23 10:24:20.400   2773519.1083   1652606.2524   5482253.8576   1  16   0.0006   0.0004   0.0012   0.0005   0.0006   0.0008  -0.01    4.5
2017/07/23 10:24:20.600   2773519.1083   1652606.2524   5482253.8576   1  16   0.0006   0.0004   0.0012   0.0005   0.0006   0.0008  -0.01    4.5
2017/07/23 10:24:20.800   2773519.1083   1652606.2524   5482253.8576   1  16   0.0006   0.0004   0.0012   0.0005   0.0006   0.0008  -0.01    4.5
2017/07/23 10:24:21.000   2773519.1083   1652606.2524   5482253.8576   1  16   0.0006   0.0004   0.0012   0.0005   0.0006   0.0008  -0.01    4.5
2017/07/23 10:24:21.200   2773519.1083   1652606.2524   5482253.8576   1  16   0.0006   0.0004   0.0012   0.0005   0.0006   0.0008  -0.01    4.5
2017/07/23 10:24:21.400   2773519.1083   1652606.2524   5482253.8576   1  16   0.0006   0.0004   0.0012   0.0005   0.0006   0.0008  -0.01    4.5
2017/07/23 10:24:21.600   2773519.1083   1652606.2524   5482253.8576   1  16   0.0006   0.0004   0.0012   0.0005   0.0006   0.0008  -0.01    4.4
2017/07/23 10:24:21.800   2773519.1083   1652606.2524   5482253.8576   1  16   0.0006   0.0004   0.0012   0.0005   0.0006   0.0008  -0.01    4.4
2017/07/23 10:24:22.000   2773519.1083   1652606.2524   5482253.8576   1  16   0.0006   0.0004   0.0012   0.0005   0.0006   0.0008  -0.01    4.4
2017/07/23 10:24:22.200   2773519.1083   1652606.2524   5482253.8576   1  16   0.0006   0.0004   0.0012   0.0005   0.0006   0.0008  -0.01    4.4
2017/07/23 10:24:22.400   2773519.1083   1652606.2524   5482253.8576   1  16   0.0006   0.0004   0.0012   0.0005   0.0006   0.0008  -0.01    4.4
2017/07/23 10:24:22.600   2773519.1083   1652606.2524   5482253.8576   1  16   0.0006   0.0004   0.0012   0.0005   0.0006   0.0008  -0.01    4.4
2017/07/23 10:24:22.800   2773519.1083   1652606.2524   5482253.8576   1  16   0.0006   0.0004   0.0012   0.0005   0.0006   0.0008  -0.01    4.4
2017/07/23 10:24:23.000   2773519.1083   1652606.2524   5482253.8576   1  16   0.0006   0.0004   0.0012   0.0005   0.0006   0.0008  -0.01    4.4
2017/07/23 10:24:23.200   2773519.1083   1652606.2524   5482253.8577   1  16   0.0006   0.0004   0.0012   0.0005   0.0006   0.0008  -0.01    4.4
2017/07/23 10:24:23.400   2773519.1083   1652606.2524   5482253.8577   1  16   0.0006   0.0004   0.0012   0.0005   0.0006   0.0008  -0.01    4.4
2017/07/23 10:24:23.600   2773519.1083   1652606.2524   5482253.8577   1  16   0.0006   0.0004   0.0012   0.0005   0.0006   0.0008  -0.01    4.4
2017/07/23 10:24:23.800   2773519.1083   1652606.2524   5482253.8577   1  16   0.0006   0.0004   0.0012   0.0005   0.0006   0.0008  -0.01    4.3
2017/07/23 10:24:24.000   2773519.1083   1652606.2524   5482253.8577   1  16   0.0006   0.0004   0.0012   0.0005   0.0006   0.0008  -0.01    4.3
2017/07/23 10:24:24.200   2773519.1083   1652606.2524   5482253.8577   1  16   0.0006   0.0004   0.0012   0.0005   0.0006   0.0008  -0.01    4.3
2017/07/23 10:24:24.400   2773519.1083   1652606.2524   5482253.8577   1  16   0.0006   0.0004   0.0012   0.0004   0.0006   0.0008  -0.01    4.3
2017/07/23 10:24:24.600   2773519.1083   1652606.2524   5482253.8577   1  16   0.0006   0.0004   0.0012   0.0004   0.0006   0.0008  -0.01    4.3
2017/07/23 10:24:24.800   2773519.1083   1652606.2524   5482253.8577   1  16   0.0006   0.0004   0.0012   0.0004   0.0006   0.0008  -0.01    4.3
2017/07/23 10:24:25.000   2773519.1083   1652606.2524   5482253.8577   1  16   0.0006   0.0004   0.0012   0.0004   0.0006   0.0008  -0.01    4.3
2017/07/23 10:24:25.200   2773519.1084   1652606.2524   5482253.8577   1  16   0.0006   0.0004   0.0012   0.0004   0.0006   0.0008  -0.01    4.3
2017/07/23 10:24:25.400   2773519.1084   1652606.2524   5482253.8577   1  16   0.0006   0.0004   0.0012   0.0004   0.0006   0.0008  -0.01    4.2
2017/07/23 10:24:25.600   2773519.1084   1652606.2524   5482253.8577   1  16   0.0006   0.0004   0.0012   0.0004   0.0006   0.0008  -0.01    4.2
2017/07/23 10:24:25.800   2773519.1084   1652606.2524   5482253.8577   1  16   0.0006   0.0004   0.0012   0.0004   0.0006   0.0008  -0.01    4.2
2017/07/23 10:24:26.000   2773519.1084   1652606.2524   5482253.8578   1  16   0.0006   0.0004   0.0012   0.0004   0.0006   0.0008  -0.01    4.2
2017/07/23 10:24:26.200   2773519.1084   1652606.2524   5482253.8578   1  16   0.0006   0.0004   0.0012   0.0004   0.0006   0.0008  -0.01    4.2
2017/07/23 10:24:26.400   2773519.1084   1652606.2524   5482253.8578   1  16   0.0006   0.0004   0.0012   0.0004   0.0006   0.0008  -0.01    4.2
2017/07/23 10:24:26.600   2773519.1084   1652606.2524   5482253.8578   1  16   0.0006   0.0004   0.0012   0.0004   0.0006   0.0008  -0.01    4.2
2017/07/23 10:24:26.800   2773519.1084   1652606.2524   5482253.8578   1  16   0.0006   0.0004   0.0012   0.0004   0.0006   0.0008  -0.01    4.2
2017/07/23 10:24:27.000   2773519.1084   1652606.2524   5482253.8578   1  16   0.0006   0.0004   0.0012   0.0004   0.0006   0.0008  -0.01    4.2
2017/07/23 10:24:27.200   2773519.1084   1652606.2524   5482253.8578   1  16   0.0006   0.0004   0.0012   0.0004   0.0006   0.0008  -0.01    4.2
