% program   : RTKLIB ver.2.4.3 Emlid
% inp file  : /home/artur/RTKLIB/test/test/static/3_kalinino/rover.obs
% inp file  : /home/artur/RTKLIB/test/test/static/3_kalinino/base.obs
% inp file  : /home/artur/RTKLIB/test/test/static/3_kalinino/rover.nav
% obs start : 2017/07/23 11:08:08.4 GPST (week1959  40088.4s)
% obs end   : 2017/07/23 11:18:11.4 GPST (week1959  40691.4s)
% pos mode  : static
% freqs     : L1
% solution  : combined
% elev mask : 15.0 deg
% dynamics  : on
% tidecorr  : off
% ionos opt : broadcast
% tropo opt : est ztd
% ephemeris : broadcast
% navi sys  : gps glonass galileo qzss beidou sbas
% amb res   : continuous
% amb glo   : off
% val thres : 3.0
% antenna1  :                       ( 0.0000  0.0000  0.0000)
% antenna2  :                       ( 0.0000  0.0000  0.0000)
% ref pos   :  2773909.8712  1654076.4507  5481627.6877
%
% (x/y/z-ecef=WGS84,Q=1:fix,2:float,3:sbas,4:dgps,5:single,6:ppp,ns=# of satellites)
%  GPST                      x-ecef(m)      y-ecef(m)      z-ecef(m)   Q  ns   sdx(m)   sdy(m)   sdz(m)  sdxy(m)  sdyz(m)  sdzx(m) age(s)  ratio
2017/07/23 11:08:08.400   2774817.0102   1654158.3167   5481148.4255   1  11   0.0007   0.0004   0.0014   0.0005   0.0007   0.0009   0.19    3.1
2017/07/23 11:08:08.600   2774817.0101   1654158.3166   5481148.4255   1  11   0.0007   0.0004   0.0014   0.0005   0.0007   0.0009   0.19    3.1
2017/07/23 11:08:08.800   2774817.0109   1654158.3168   5481148.4265   1  10   0.0007   0.0004   0.0014   0.0005   0.0007   0.0009   0.19    3.0
2017/07/23 11:08:09.000   2774817.0101   1654158.3166   5481148.4253   1  11   0.0007   0.0004   0.0014   0.0005   0.0007   0.0009   0.19    3.1
2017/07/23 11:08:09.200   2774817.0100   1654158.3166   5481148.4252   1  11   0.0007   0.0004   0.0014   0.0005   0.0007   0.0009   0.19    3.1
2017/07/23 11:08:09.400   2774817.0100   1654158.3165   5481148.4251   1  11   0.0007   0.0004   0.0014   0.0005   0.0007   0.0009   0.19    3.1
2017/07/23 11:08:09.600   2774817.0099   1654158.3165   5481148.4250   1  11   0.0007   0.0004   0.0014   0.0005   0.0007   0.0009   0.19    3.1
2017/07/23 11:08:09.800   2774817.0099   1654158.3165   5481148.4249   1  11   0.0007   0.0004   0.0014   0.0005   0.0007   0.0009   0.19    3.1
2017/07/23 11:08:10.000   2774817.0098   1654158.3164   5481148.4248   1  11   0.0007   0.0004   0.0014   0.0005   0.0007   0.0009   0.19    3.1
2017/07/23 11:08:10.200   2774817.0098   1654158.3164   5481148.4247   1  11   0.0007   0.0004   0.0014   0.0005   0.0007   0.0009   0.19    3.1
2017/07/23 11:08:10.400   2774817.0097   1654158.3164   5481148.4246   1  11   0.0007   0.0004   0.0014   0.0005   0.0007   0.0009   0.19    3.1
2017/07/23 11:08:10.600   2774817.0097   1654158.3164   5481148.4245   1  11   0.0007   0.0004   0.0014   0.0005   0.0007   0.0009   0.19    3.1
2017/07/23 11:08:10.800   2774817.0096   1654158.3164   5481148.4245   1  11   0.0007   0.0004   0.0014   0.0005   0.0007   0.0009   0.19    3.1
2017/07/23 11:08:11.000   2774817.0096   1654158.3163   5481148.4244   1  11   0.0007   0.0004   0.0014   0.0005   0.0007   0.0009   0.19    3.1
2017/07/23 11:08:11.200   2774817.0096   1654158.3163   5481148.4243   1  11   0.0007   0.0004   0.0014   0.0005   0.0007   0.0009   0.19    3.1
2017/07/23 11:08:11.400   2774817.0095   1654158.3163   5481148.4242   1  11   0.0007   0.0004   0.0014   0.0005   0.0007   0.0009   0.19    3.1
2017/07/23 11:08:11.600   2774817.0104   1654158.3165   5481148.4254   1  10   0.0007   0.0004   0.0014   0.0005   0.0007   0.0009   0.19    3.1
2017/07/23 11:08:11.800   2774817.0103   1654158.3165   5481148.4253   1  10   0.0007   0.0004   0.0014   0.0005   0.0007   0.0009   0.19    3.1
2017/07/23 11:08:12.000   2774817.0103   1654158.3165   5481148.4252   1  10   0.0007   0.0004   0.0014   0.0005   0.0007   0.0009   0.19    3.1
2017/07/23 11:08:12.200   2774817.0103   1654158.3165   5481148.4252   1  10   0.0007   0.0004   0.0014   0.0005   0.0007   0.0009   0.19    3.1
2017/07/23 11:08:12.400   2774817.0103   1654158.3164   5481148.4251   1  10   0.0007   0.0004   0.0014   0.0005   0.0007   0.0009   0.19    3.1
2017/07/23 11:08:12.600   2774817.0094   1654158.3162   5481148.4239   1  11   0.0007   0.0004   0.0014   0.0005   0.0007   0.0009   0.19    3.1
2017/07/23 11:08:12.800   2774817.0093   1654158.3162   5481148.4238   1  11   0.0007   0.0004   0.0014   0.0005   0.0007   0.0009   0.19    3.1
2017/07/23 11:08:13.000   2774817.0093   1654158.3162   5481148.4238   1  11   0.0007   0.0004   0.0014   0.0005   0.0007   0.0009   0.19    3.1
2017/07/23 11:08:13.200   2774817.0101   1654158.3164   5481148.4249   1  10   0.0007   0.0004   0.0014   0.0005   0.0007   0.0009   0.19    3.1
2017/07/23 11:08:13.400   2774817.0101   1654158.3164   5481148.4249   1  10   0.0007   0.0004   0.0014   0.0005   0.0007   0.0009   0.19    3.1
2017/07/23 11:08:13.600   2774817.0101   1654158.3164   5481148.4248   1  10   0.0007   0.0004   0.0014   0.0005   0.0007   0.0009   0.19    3.1
2017/07/23 11:08:13.800   2774817.0101   1654158.3163   5481148.4248   1  10   0.0007   0.0004   0.0014   0.0005   0.0007   0.0009   0.19    3.1
2017/07/23 11:08:14.000   2774817.0101   1654158.3163   5481148.4247   1  10   0.0007   0.0004   0.0014   0.0005   0.0007   0.0009   0.19    3.1
2017/07/23 11:08:14.200   2774817.0092   1654158.3161   5481148.4235   1  11   0.0007   0.0004   0.0014   0.0005   0.0007   0.0009   0.19    3.1
2017/07/23 11:08:14.400   2774817.0092   1654158.3161   5481148.4234   1  11   0.0007   0.0004   0.0014   0.0005   0.0007   0.0009   0.19    3.1
2017/07/23 11:08:14.600   2774817.0091   1654158.3161   5481148.4234   1  11   0.0007   0.0004   0.0014   0.0005   0.0007   0.0009   0.19    3.1
2017/07/23 11:08:14.800   2774817.0091   1654158.3161   5481148.4234   1  11   0.0007   0.0004   0.0014   0.0005   0.0007   0.0009   0.19    3.1
2017/07/23 11:08:15.000   2774817.0091   1654158.3161   5481148.4233   1  11   0.0007   0.0004   0.0014   0.0005   0.0007   0.0009   0.19    3.1
2017/07/23 11:08:15.200   2774817.0091   1654158.3160   5481148.4233   1  11   0.0007   0.0004   0.0014   0.0005   0.0007   0.0009   0.19    3.1
2017/07/23 11:08:15.400   2774817.0099   1654158.3163   5481148.4245   1  10   0.0007   0.0004   0.0014   0.0005   0.0007   0.0009   0.19    3.1
2017/07/23 11:08:15.600   2774817.0099   1654158.3163   5481148.4244   1  10   0.0007   0.0004   0.0014   0.0005   0.0007   0.0009   0.19    3.1
2017/07/23 11:08:15.800   2774817.0090   1654158.3160   5481148.4232   1  11   0.0007   0.0004   0.0014   0.0005   0.0007   0.0009   0.19    3.1
2017/07/23 11:08:16.000   2774817.0090   1654158.3160   5481148.4232   1  11   0.0007   0.0004   0.0014   0.0005   0.0007   0.0009   0.19    3.1
2017/07/23 11:08:16.200   2774817.0090   1654158.3160   5481148.4231   1  11   0.0007   0.0004   0.0014   0.0005   0.0007   0.0009   0.19    3.1
2017/07/23 11:08:16.400   2774817.0090   1654158.3160   5481148.4231   1  11   0.0007   0.0004   0.0014   0.0005   0.0007   0.0009   0.19    3.1
2017/07/23 11:08:16.600   2774817.0090   1654158.3160   5481148.4231   1  11   0.0007   0.0004   0.0014   0.0005   0.0007   0.0009   0.19    3.1
2017/07/23 11:08:16.800   2774817.0090   1654158.3160   5481148.4231   1  11   0.0007   0.0004   0.0014   0.0005   0.0007   0.0009   0.19    3.1
2017/07/23 11:08:17.000   2774817.0090   1654158.3160   5481148.4231   1  11   0.0007   0.0004   0.0014   0.0005   0.0007   0.0009   0.19    3.1
2017/07/23 11:08:17.200   2774817.0090   1654158.3160   5481148.4231   1  11   0.0007   0.0004   0.0014   0.0005   0.0007   0.0009   0.19    3.1
2017/07/23 11:08:17.400   2774817.0090   1654158.3160   5481148.4230   1  11   0.0007   0.0004   0.0014   0.0005   0.0007   0.0009   0.19    3.1
2017/07/23 11:08:17.600   2774817.0098   1654158.3162   5481148.4243   1  10   0.0007   0.0004   0.0014   0.0005   0.0007   0.0009   0.19    3.1
2017/07/23 11:08:17.800   2774817.0098   1654158.3162   5481148.4242   1  10   0.0007   0.0004   0.0014   0.0005   0.0007   0.0009   0.19    3.1
2017/07/23 11:08:18.000   2774817.0098   1654158.3162   5481148.4242   1  10   0.0007   0.0004   0.0014   0.0005   0.0007   0.0009   0.19    3.1
2017/07/23 11:08:18.200   2774817.0098   1654158.3162   5481148.4242   1  10   0.0007   0.0004   0.0014   0.0005   0.0007   0.0009   0.19    3.1
2017/07/23 11:08:18.400   2774817.0098   1654158.3162   5481148.4242   1  10   0.0007   0.0004   0.0014   0.0005   0.0007   0.0009   0.19    3.1
2017/07/23 11:08:18.600   2774817.0098   1654158.3162   5481148.4242   1  10   0.0007   0.0004   0.0014   0.0005   0.0007   0.0009   0.19    3.1
2017/07/23 11:08:18.800   2774817.0098   1654158.3162   5481148.4242   1  10   0.0007   0.0004   0.0014   0.0005   0.0007   0.0009   0.19    3.1
2017/07/23 11:08:19.000   2774817.0098   1654158.3162   5481148.4242   1  10   0.0007   0.0004   0.0014   0.0005   0.0007   0.0009   0.19    3.1
2017/07/23 11:08:19.200   2774817.0098   1654158.3162   5481148.4241   1  10   0.0007   0.0004   0.0014   0.0005   0.0007   0.0009   0.19    3.1
2017/07/23 11:08:19.400   2774817.0098   1654158.3162   5481148.4241   1  10   0.0007   0.0004   0.0014   0.0005   0.0007   0.0009   0.19    3.1
2017/07/23 11:08:19.600   2774817.0098   1654158.3162   5481148.4241   1  10   0.0007   0.0004   0.0014   0.0005   0.0007   0.0009   0.19    3.1
2017/07/23 11:08:19.800   2774817.0098   1654158.3162   5481148.4241   1  10   0.0007   0.0004   0.0014   0.0005   0.0007   0.0009   0.19    3.1
2017/07/23 11:08:20.000   2774817.0098   1654158.3162   5481148.4241   1  10   0.0007   0.0004   0.0014   0.0005   0.0007   0.0009   0.19    3.1
2017/07/23 11:08:20.200   2774817.0098   1654158.3162   5481148.4241   1  10   0.0007   0.0004   0.0014   0.0005   0.0007   0.0009   0.19    3.1
2017/07/23 11:08:20.400   2774817.0098   1654158.3162   5481148.4241   1  10   0.0007   0.0004   0.0014   0.0005   0.0007   0.0009   0.19    3.1
2017/07/23 11:08:20.600   2774817.0098   1654158.3162   5481148.4241   1  10   0.0007   0.0004   0.0014   0.0005   0.0007   0.0009   0.19    3.1
2017/07/23 11:08:20.800   2774817.0098   1654158.3162   5481148.4241   1  10   0.0007   0.0004   0.0014   0.0005   0.0007   0.0009   0.19    3.1
2017/07/23 11:08:21.000   2774817.0098   1654158.3162   5481148.4241   1  10   0.0007   0.0004   0.0014   0.0005   0.0007   0.0009   0.19    3.1
2017/07/23 11:08:21.200   2774817.0098   1654158.3162   5481148.4241   1  10   0.0007   0.0004   0.0014   0.0005   0.0007   0.0009   0.19    3.1
2017/07/23 11:08:21.400   2774817.0098   1654158.3162   5481148.4241   1  10   0.0007   0.0004   0.0014   0.0005   0.0007   0.0009   0.19    3.1
2017/07/23 11:08:21.600   2774817.0098   1654158.3162   5481148.4241   1  10   0.0007   0.0004   0.0014   0.0005   0.0007   0.0009   0.19    3.1
2017/07/23 11:08:21.800   2774817.0098   1654158.3162   5481148.4241   1  10   0.0007   0.0004   0.0014   0.0005   0.0007   0.0009   0.19    3.1
2017/07/23 11:08:22.000   2774817.0089   1654158.3159   5481148.4228   1  11   0.0007   0.0004   0.0013   0.0005   0.0007   0.0009   0.19    3.1
2017/07/23 11:08:22.200   2774817.0089   1654158.3159   5481148.4228   1  11   0.0007   0.0004   0.0013   0.0005   0.0007   0.0009   0.19    3.1
2017/07/23 11:08:22.400   2774817.0089   1654158.3159   5481148.4229   1  11   0.0007   0.0004   0.0013   0.0005   0.0007   0.0009   0.19    3.1
2017/07/23 11:08:22.600   2774817.0089   1654158.3159   5481148.4229   1  11   0.0007   0.0004   0.0013   0.0005   0.0007   0.0009   0.19    3.1
2017/07/23 11:08:22.800   2774817.0098   1654158.3162   5481148.4241   1  10   0.0007   0.0004   0.0014   0.0005   0.0007   0.0009   0.19    3.1
2017/07/23 11:08:23.000   2774817.0098   1654158.3162   5481148.4241   1  10   0.0007   0.0004   0.0014   0.0005   0.0007   0.0009   0.19    3.1
2017/07/23 11:08:23.200   2774817.0098   1654158.3162   5481148.4241   1  10   0.0007   0.0004   0.0014   0.0005   0.0007   0.0009   0.19    3.0
2017/07/23 11:08:23.400   2774817.0098   1654158.3162   5481148.4241   1  10   0.0007   0.0004   0.0014   0.0005   0.0007   0.0009   0.19    3.0
2017/07/23 11:08:23.600   2774817.0098   1654158.3162   5481148.4241   1  10   0.0007   0.0004   0.0014   0.0005   0.0007   0.0009   0.19    3.0
2017/07/23 11:08:23.800   2774817.0098   1654158.3162   5481148.4241   1  10   0.0007   0.0004   0.0014   0.0005   0.0007   0.0009   0.19    3.0
2017/07/23 11:08:24.000   2774817.0098   1654158.3162   5481148.4241   1  10   0.0007   0.0004   0.0014   0.0005   0.0007   0.0009   0.19    3.0
2017/07/23 11:08:24.200   2774817.0089   1654158.3160   5481148.4229   1  11   0.0007   0.0004   0.0013   0.0005   0.0007   0.0009   0.19    3.1
2017/07/23 11:08:24.400   2774817.0089   1654158.3160   5481148.4229   1  11   0.0007   0.0004   0.0013   0.0005   0.0007   0.0009   0.19    3.1
2017/07/23 11:08:24.600   2774817.0089   1654158.3160   5481148.4229   1  11   0.0007   0.0004   0.0013   0.0005   0.0007   0.0009   0.19    3.1
2017/07/23 11:08:24.800   2774817.0089   1654158.3160   5481148.4229   1  11   0.0007   0.0004   0.0013   0.0005   0.0007   0.0009   0.19    3.1
2017/07/23 11:08:25.000   2774817.0089   1654158.3160   5481148.4229   1  11   0.0007   0.0004   0.0013   0.0005   0.0007   0.0009   0.19    3.1
2017/07/23 11:08:25.200   2774817.0089   1654158.3160   5481148.4229   1  11   0.0007   0.0004   0.0013   0.0005   0.0007   0.0009   0.19    3.1
2017/07/23 11:08:25.400   2774817.0089   1654158.3160   5481148.4229   1  11   0.0007   0.0004   0.0013   0.0005   0.0007   0.0009   0.19    3.1
2017/07/23 11:08:25.600   2774817.0089   1654158.3160   5481148.4229   1  11   0.0007   0.0004   0.0013   0.0005   0.0007   0.0009   0.19    3.1
2017/07/23 11:08:25.800   2774817.0090   1654158.3160   5481148.4229   1  11   0.0007   0.0004   0.0013   0.0005   0.0007   0.0009   0.19    3.1
2017/07/23 11:08:26.000   2774817.0090   1654158.3160   5481148.4229   1  11   0.0007   0.0004   0.0013   0.0005   0.0007   0.0009   0.19    3.1
2017/07/23 11:08:26.200   2774817.0090   1654158.3160   5481148.4229   1  11   0.0007   0.0004   0.0013   0.0005   0.0007   0.0009   0.19    3.1
2017/07/23 11:08:26.400   2774817.0090   1654158.3160   5481148.4230   1  11   0.0007   0.0004   0.0013   0.0005   0.0007   0.0009   0.19    3.1
2017/07/23 11:08:26.600   2774817.0090   1654158.3160   5481148.4230   1  11   0.0007   0.0004   0.0013   0.0005   0.0007   0.0009   0.19    3.1
2017/07/23 11:08:26.800   2774817.0090   1654158.3160   5481148.4230   1  11   0.0007   0.0004   0.0013   0.0005   0.0007   0.0009   0.19    3.1
2017/07/23 11:08:27.000   2774817.0090   1654158.3160   5481148.4230   1  11   0.0007   0.0004   0.0013   0.0005   0.0007   0.0009   0.19    3.1
2017/07/23 11:08:27.200   2774817.0090   1654158.3160   5481148.4230   1  11   0.0007   0.0004   0.0013   0.0005   0.0007   0.0009   0.19    3.1
2017/07/23 11:08:27.400   2774817.0090   1654158.3160   5481148.4230   1  11   0.0007   0.0004   0.0013   0.0005   0.0007   0.0009   0.19    3.1
2017/07/23 11:08:27.600   2774817.0090   1654158.3160   5481148.4230   1  11   0.0007   0.0004   0.0013   0.0005   0.0007   0.0009   0.19    3.1
2017/07/23 11:08:27.800   2774817.0090   1654158.3160   5481148.4230   1  11   0.0007   0.0004   0.0013   0.0005   0.0007   0.0009   0.19    3.1
2017/07/23 11:08:28.000   2774817.0090   1654158.3160   5481148.4231   1  11   0.0007   0.0004   0.0013   0.0005   0.0007   0.0009   0.19    3.1
2017/07/23 11:08:28.200   2774817.0090   1654158.3160   5481148.4231   1  11   0.0007   0.0004   0.0013   0.0005   0.0007   0.0009   0.19    3.1
2017/07/23 11:08:28.400   2774817.0090   1654158.3160   5481148.4231   1  11   0.0007   0.0004   0.0013   0.0005   0.0007   0.0009   0.19    3.1
2017/07/23 11:08:28.600   2774817.0091   1654158.3160   5481148.4231   1  11   0.0007   0.0004   0.0013   0.0005   0.0007   0.0009   0.19    3.1
2017/07/23 11:08:28.800   2774817.0090   1654158.3160   5481148.4230   1  11   0.0007   0.0004   0.0013   0.0005   0.0007   0.0009   0.19    3.1
2017/07/23 11:08:29.000   2774817.0090   1654158.3160   5481148.4229   1  11   0.0007   0.0004   0.0013   0.0005   0.0007   0.0009   0.19    3.1
2017/07/23 11:08:29.200   2774817.0089   1654158.3159   5481148.4228   1  11   0.0007   0.0004   0.0013   0.0005   0.0007   0.0009   0.19    3.1
2017/07/23 11:08:29.400   2774817.0089   1654158.3159   5481148.4227   1  11   0.0007   0.0004   0.0013   0.0005   0.0007   0.0009   0.19    3.1
2017/07/23 11:08:29.600   2774817.0089   1654158.3159   5481148.4227   1  11   0.0007   0.0004   0.0013   0.0005   0.0007   0.0009   0.19    3.1
2017/07/23 11:08:29.800   2774817.0088   1654158.3159   5481148.4226   1  11   0.0007   0.0004   0.0013   0.0005   0.0007   0.0009   0.19    3.1
2017/07/23 11:08:30.000   2774817.0088   1654158.3159   5481148.4225   1  11   0.0007   0.0004   0.0013   0.0005   0.0007   0.0009   0.19    3.1
2017/07/23 11:08:30.200   2774817.0087   1654158.3158   5481148.4224   1  11   0.0007   0.0004   0.0013   0.0005   0.0007   0.0009   0.19    3.1
2017/07/23 11:08:30.400   2774817.0087   1654158.3158   5481148.4223   1  11   0.0007   0.0004   0.0013   0.0005   0.0007   0.0009   0.19    3.1
2017/07/23 11:08:30.600   2774817.0086   1654158.3158   5481148.4222   1  11   0.0007   0.0004   0.0013   0.0005   0.0007   0.0009   0.19    3.1
2017/07/23 11:08:30.800   2774817.0086   1654158.3158   5481148.4221   1  11   0.0007   0.0004   0.0013   0.0005   0.0007   0.0009   0.19    3.1
2017/07/23 11:08:31.000   2774817.0086   1654158.3157   5481148.4221   1  11   0.0007   0.0004   0.0013   0.0005   0.0007   0.0009   0.19    3.1
2017/07/23 11:08:31.200   2774817.0085   1654158.3157   5481148.4220   1  11   0.0007   0.0004   0.0013   0.0005   0.0007   0.0009   0.19    3.1
2017/07/23 11:08:31.400   2774817.0085   1654158.3157   5481148.4219   1  11   0.0007   0.0004   0.0013   0.0005   0.0007   0.0009   0.19    3.1
2017/07/23 11:08:31.600   2774817.0084   1654158.3157   5481148.4218   1  11   0.0007   0.0004   0.0013   0.0005   0.0007   0.0009   0.19    3.1
2017/07/23 11:08:31.800   2774817.0084   1654158.3156   5481148.4217   1  11   0.0007   0.0004   0.0013   0.0005   0.0007   0.0009   0.19    3.1
2017/07/23 11:08:32.000   2774817.0084   1654158.3156   5481148.4216   1  11   0.0007   0.0004   0.0013   0.0005   0.0007   0.0009   0.19    3.1
2017/07/23 11:08:32.200   2774817.0083   1654158.3156   5481148.4215   1  11   0.0007   0.0004   0.0013   0.0005   0.0007   0.0009   0.19    3.1
2017/07/23 11:08:32.400   2774817.0083   1654158.3156   5481148.4214   1  11   0.0007   0.0004   0.0013   0.0005   0.0007   0.0009   0.19    3.1
2017/07/23 11:08:32.600   2774817.0082   1654158.3155   5481148.4213   1  11   0.0007   0.0004   0.0013   0.0005   0.0007   0.0009   0.19    3.1
2017/07/23 11:08:32.800   2774817.0081   1654158.3155   5481148.4211   1  11   0.0007   0.0004   0.0013   0.0005   0.0007   0.0009   0.19    3.1
2017/07/23 11:08:33.000   2774817.0089   1654158.3157   5481148.4222   1  10   0.0007   0.0004   0.0013   0.0005   0.0007   0.0009   0.19    3.1
2017/07/23 11:08:33.200   2774817.0089   1654158.3157   5481148.4221   1  10   0.0007   0.0004   0.0013   0.0005   0.0007   0.0009   0.19    3.1
2017/07/23 11:08:33.400   2774817.0088   1654158.3156   5481148.4220   1  10   0.0007   0.0004   0.0013   0.0005   0.0007   0.0009   0.19    3.1
2017/07/23 11:08:33.600   2774817.0079   1654158.3154   5481148.4206   1  11   0.0007   0.0004   0.0013   0.0005   0.0007   0.0009   0.19    3.1
2017/07/23 11:08:33.800   2774817.0078   1654158.3153   5481148.4205   1  11   0.0007   0.0004   0.0013   0.0005   0.0007   0.0009   0.19    3.1
2017/07/23 11:08:34.000   2774817.0078   1654158.3153   5481148.4204   1  11   0.0007   0.0004   0.0013   0.0005   0.0007   0.0009   0.19    3.1
2017/07/23 11:08:34.200   2774817.0077   1654158.3153   5481148.4203   1  11   0.0007   0.0004   0.0013   0.0005   0.0007   0.0009   0.19    3.1
2017/07/23 11:08:34.400   2774817.0085   1654158.3155   5481148.4214   1  10   0.0007   0.0004   0.0013   0.0005   0.0007   0.0009   0.19    3.1
2017/07/23 11:08:34.600   2774817.0085   1654158.3154   5481148.4213   1  10   0.0007   0.0004   0.0013   0.0005   0.0007   0.0009   0.19    3.1
2017/07/23 11:08:34.800   2774817.0084   1654158.3154   5481148.4212   1  10   0.0007   0.0004   0.0013   0.0005   0.0007   0.0009   0.19    3.1
2017/07/23 11:08:35.000   2774817.0084   1654158.3154   5481148.4211   1  10   0.0007   0.0004   0.0013   0.0005   0.0007   0.0009   0.19    3.1
2017/07/23 11:08:35.200   2774817.0083   1654158.3154   5481148.4210   1  10   0.0007   0.0004   0.0013   0.0005   0.0007   0.0009   0.19    3.1
2017/07/23 11:08:35.400   2774817.0083   1654158.3153   5481148.4209   1  10   0.0007   0.0004   0.0013   0.0005   0.0007   0.0009   0.19    3.1
2017/07/23 11:08:35.600   2774817.0083   1654158.3153   5481148.4208   1  10   0.0007   0.0004   0.0013   0.0005   0.0007   0.0009   0.19    3.1
2017/07/23 11:08:35.800   2774817.0082   1654158.3153   5481148.4207   1  10   0.0007   0.0004   0.0013   0.0005   0.0007   0.0009   0.19    3.1
2017/07/23 11:08:36.000   2774817.0082   1654158.3152   5481148.4206   1  10   0.0007   0.0004   0.0013   0.0005   0.0007   0.0009   0.19    3.1
2017/07/23 11:08:36.200   2774817.0081   1654158.3152   5481148.4205   1  10   0.0007   0.0004   0.0013   0.0005   0.0007   0.0009   0.19    3.1
2017/07/23 11:08:36.400   2774817.0072   1654158.3149   5481148.4191   1  11   0.0007   0.0004   0.0013   0.0005   0.0007   0.0009   0.19    3.2
2017/07/23 11:08:36.600   2774817.0072   1654158.3149   5481148.4191   1  11   0.0007   0.0004   0.0013   0.0005   0.0007   0.0009   0.19    3.2
2017/07/23 11:08:36.800   2774817.0071   1654158.3149   5481148.4190   1  11   0.0007   0.0004   0.0013   0.0005   0.0007   0.0009   0.19    3.2
2017/07/23 11:08:37.000   2774817.0071   1654158.3148   5481148.4188   1  11   0.0007   0.0004   0.0013   0.0005   0.0007   0.0009   0.19    3.2
2017/07/23 11:08:37.200   2774817.0070   1654158.3148   5481148.4187   1  11   0.0007   0.0004   0.0013   0.0005   0.0007   0.0009   0.19    3.2
2017/07/23 11:08:37.400   2774817.0079   1654158.3150   5481148.4199   1  10   0.0007   0.0004   0.0013   0.0005   0.0007   0.0009   0.19    3.1
2017/07/23 11:08:37.600   2774817.0078   1654158.3150   5481148.4197   1  10   0.0007   0.0004   0.0013   0.0005   0.0007   0.0009   0.19    3.1
2017/07/23 11:08:37.800   2774817.0078   1654158.3150   5481148.4196   1  10   0.0007   0.0004   0.0013   0.0005   0.0007   0.0009   0.19    3.1
2017/07/23 11:08:38.000   2774817.0068   1654158.3147   5481148.4183   1  11   0.0007   0.0004   0.0013   0.0005   0.0007   0.0009   0.19    3.2
2017/07/23 11:08:38.200   2774817.0068   1654158.3147   5481148.4182   1  11   0.0007   0.0004   0.0013   0.0005   0.0007   0.0009   0.19    3.2
2017/07/23 11:08:38.400   2774817.0068   1654158.3146   5481148.4181   1  11   0.0007   0.0004   0.0013   0.0005   0.0007   0.0009   0.19    3.2
2017/07/23 11:08:38.600   2774817.0067   1654158.3146   5481148.4180   1  11   0.0007   0.0004   0.0013   0.0005   0.0007   0.0009   0.19    3.2
2017/07/23 11:08:38.800   2774817.0067   1654158.3146   5481148.4179   1  11   0.0007   0.0004   0.0013   0.0005   0.0007   0.0009   0.19    3.2
2017/07/23 11:08:39.000   2774817.0075   1654158.3148   5481148.4191   1  10   0.0007   0.0004   0.0013   0.0005   0.0007   0.0009   0.19    3.1
2017/07/23 11:08:39.200   2774817.0075   1654158.3148   5481148.4190   1  10   0.0007   0.0004   0.0013   0.0005   0.0007   0.0009   0.19    3.1
2017/07/23 11:08:39.400   2774817.0066   1654158.3145   5481148.4176   1  11   0.0007   0.0004   0.0013   0.0005   0.0007   0.0009   0.19    3.2
2017/07/23 11:08:39.600   2774817.0065   1654158.3145   5481148.4175   1  11   0.0007   0.0004   0.0013   0.0005   0.0007   0.0009   0.19    3.2
2017/07/23 11:08:39.800   2774817.0065   1654158.3144   5481148.4174   1  11   0.0007   0.0004   0.0013   0.0005   0.0007   0.0009   0.19    3.2
2017/07/23 11:08:40.000   2774817.0064   1654158.3144   5481148.4173   1  11   0.0007   0.0004   0.0013   0.0005   0.0007   0.0009   0.19    3.2
2017/07/23 11:08:40.200   2774817.0064   1654158.3144   5481148.4172   1  11   0.0007   0.0004   0.0013   0.0005   0.0007   0.0009   0.19    3.2
2017/07/23 11:08:40.400   2774817.0063   1654158.3144   5481148.4171   1  11   0.0007   0.0004   0.0013   0.0005   0.0007   0.0009   0.19    3.2
2017/07/23 11:08:40.600   2774817.0063   1654158.3143   5481148.4170   1  11   0.0007   0.0004   0.0013   0.0005   0.0007   0.0009   0.19    3.2
2017/07/23 11:08:40.800   2774817.0071   1654158.3146   5481148.4182   1  10   0.0007   0.0004   0.0013   0.0005   0.0007   0.0009   0.19    3.1
2017/07/23 11:08:41.000   2774817.0071   1654158.3145   5481148.4181   1  10   0.0007   0.0004   0.0013   0.0005   0.0007   0.0009   0.19    3.1
2017/07/23 11:08:41.200   2774817.0071   1654158.3145   5481148.4180   1  10   0.0007   0.0004   0.0013   0.0005   0.0007   0.0009   0.19    3.1
2017/07/23 11:08:41.400   2774817.0070   1654158.3145   5481148.4179   1  10   0.0007   0.0004   0.0013   0.0005   0.0007   0.0009   0.19    3.1
2017/07/23 11:08:41.600   2774817.0070   1654158.3145   5481148.4178   1  10   0.0007   0.0004   0.0013   0.0005   0.0007   0.0009   0.19    3.1
2017/07/23 11:08:41.800   2774817.0069   1654158.3144   5481148.4177   1  10   0.0007   0.0004   0.0013   0.0005   0.0007   0.0009   0.19    3.1
2017/07/23 11:08:42.000   2774817.0069   1654158.3144   5481148.4176   1  10   0.0007   0.0004   0.0013   0.0005   0.0007   0.0009   0.19    3.1
2017/07/23 11:08:42.200   2774817.0068   1654158.3144   5481148.4175   1  10   0.0007   0.0004   0.0014   0.0005   0.0007   0.0009   0.19    3.1
2017/07/23 11:08:42.400   2774817.0068   1654158.3144   5481148.4174   1  10   0.0007   0.0004   0.0014   0.0005   0.0007   0.0009   0.19    3.1
2017/07/23 11:08:42.600   2774817.0068   1654158.3143   5481148.4173   1  10   0.0007   0.0004   0.0014   0.0005   0.0007   0.0009   0.19    3.1
2017/07/23 11:08:42.800   2774817.0067   1654158.3143   5481148.4172   1  10   0.0007   0.0004   0.0014   0.0005   0.0007   0.0009   0.19    3.1
2017/07/23 11:08:43.000   2774817.0067   1654158.3143   5481148.4171   1  10   0.0007   0.0004   0.0014   0.0005   0.0007   0.0009   0.19    3.1
2017/07/23 11:08:43.200   2774817.0067   1654158.3142   5481148.4170   1  10   0.0007   0.0004   0.0014   0.0005   0.0007   0.0009   0.19    3.1
2017/07/23 11:08:43.400   2774817.0066   1654158.3142   5481148.4170   1  10   0.0007   0.0004   0.0014   0.0005   0.0007   0.0009   0.19    3.1
2017/07/23 11:08:43.600   2774817.0066   1654158.3142   5481148.4169   1  10   0.0007   0.0004   0.0014   0.0005   0.0007   0.0009   0.19    3.1
2017/07/23 11:08:43.800   2774817.0065   1654158.3141   5481148.4168   1  10   0.0007   0.0004   0.0014   0.0005   0.0007   0.0009   0.19    3.1
2017/07/23 11:08:44.000   2774817.0065   1654158.3141   5481148.4167   1  10   0.0007   0.0004   0.0014   0.0005   0.0007   0.0009   0.19    3.1
2017/07/23 11:08:44.200   2774817.0064   1654158.3141   5481148.4166   1  10   0.0007   0.0004   0.0014   0.0005   0.0007   0.0009   0.19    3.1
2017/07/23 11:08:44.400   2774817.0055   1654158.3138   5481148.4152   1  11   0.0007   0.0004   0.0013   0.0005   0.0007   0.0009   0.19    3.2
2017/07/23 11:08:44.600   2774817.0063   1654158.3140   5481148.4164   1  10   0.0007   0.0004   0.0014   0.0005   0.0007   0.0009   0.19    3.1
2017/07/23 11:08:44.800   2774817.0063   1654158.3140   5481148.4163   1  10   0.0007   0.0004   0.0014   0.0005   0.0007   0.0009   0.19    3.1
2017/07/23 11:08:45.000   2774817.0063   1654158.3140   5481148.4162   1  10   0.0007   0.0004   0.0014   0.0005   0.0007   0.0009   0.19    3.1
2017/07/23 11:08:45.200   2774817.0054   1654158.3137   5481148.4149   1  11   0.0007   0.0004   0.0013   0.0005   0.0007   0.0009   0.19    3.2
2017/07/23 11:08:45.400   2774817.0062   1654158.3139   5481148.4160   1  10   0.0007   0.0004   0.0014   0.0005   0.0007   0.0009   0.19    3.1
2017/07/23 11:08:45.600   2774817.0062   1654158.3139   5481148.4160   1  10   0.0007   0.0004   0.0014   0.0005   0.0007   0.0009   0.19    3.1
2017/07/23 11:08:45.800   2774817.0052   1654158.3136   5481148.4146   1  11   0.0007   0.0004   0.0013   0.0005   0.0007   0.0009   0.19    3.2
2017/07/23 11:08:46.000   2774817.0052   1654158.3136   5481148.4145   1  11   0.0007   0.0004   0.0013   0.0005   0.0007   0.0009   0.19    3.2
2017/07/23 11:08:46.200   2774817.0051   1654158.3135   5481148.4144   1  11   0.0007   0.0004   0.0013   0.0005   0.0007   0.0009   0.19    3.3
2017/07/23 11:08:46.400   2774817.0051   1654158.3135   5481148.4143   1  11   0.0007   0.0004   0.0013   0.0005   0.0007   0.0009   0.19    3.3
2017/07/23 11:08:46.600   2774817.0051   1654158.3135   5481148.4142   1  11   0.0007   0.0004   0.0013   0.0005   0.0007   0.0009   0.19    3.3
2017/07/23 11:08:46.800   2774817.0059   1654158.3137   5481148.4154   1  10   0.0007   0.0004   0.0014   0.0005   0.0007   0.0009   0.19    3.1
2017/07/23 11:08:47.000   2774817.0058   1654158.3137   5481148.4153   1  10   0.0007   0.0004   0.0014   0.0005   0.0007   0.0009   0.19    3.1
2017/07/23 11:08:47.200   2774817.0058   1654158.3136   5481148.4152   1  10   0.0007   0.0004   0.0014   0.0005   0.0007   0.0009   0.19    3.1
2017/07/23 11:08:47.400   2774817.0057   1654158.3136   5481148.4151   1  10   0.0007   0.0004   0.0014   0.0005   0.0007   0.0009   0.19    3.1
2017/07/23 11:08:47.600   2774817.0057   1654158.3136   5481148.4150   1  10   0.0007   0.0004   0.0014   0.0005   0.0007   0.0009   0.19    3.1
2017/07/23 11:08:47.800   2774817.0057   1654158.3135   5481148.4149   1  10   0.0007   0.0004   0.0014   0.0005   0.0007   0.0009   0.19    3.1
2017/07/23 11:08:48.000   2774817.0048   1654158.3133   5481148.4136   1  11   0.0007   0.0004   0.0013   0.0005   0.0007   0.0009   0.19    3.3
2017/07/23 11:08:48.200   2774817.0047   1654158.3132   5481148.4136   1  11   0.0007   0.0004   0.0013   0.0005   0.0007   0.0009   0.19    3.3
2017/07/23 11:08:48.400   2774817.0047   1654158.3132   5481148.4135   1  11   0.0007   0.0004   0.0013   0.0005   0.0007   0.0009   0.19    3.3
2017/07/23 11:08:48.600   2774817.0047   1654158.3132   5481148.4134   1  11   0.0007   0.0004   0.0013   0.0005   0.0007   0.0009   0.19    3.3
2017/07/23 11:08:48.800   2774817.0046   1654158.3132   5481148.4133   1  11   0.0007   0.0004   0.0013   0.0005   0.0007   0.0009   0.19    3.3
2017/07/23 11:08:49.000   2774817.0046   1654158.3131   5481148.4132   1  11   0.0007   0.0004   0.0013   0.0005   0.0007   0.0009   0.19    3.3
2017/07/23 11:08:49.200   2774817.0054   1654158.3133   5481148.4143   1  10   0.0007   0.0004   0.0014   0.0005   0.0007   0.0009   0.19    3.2
2017/07/23 11:08:49.400   2774817.0053   1654158.3133   5481148.4142   1  10   0.0007   0.0004   0.0014   0.0005   0.0007   0.0009   0.19    3.2
2017/07/23 11:08:49.600   2774817.0053   1654158.3133   5481148.4141   1  10   0.0007   0.0004   0.0014   0.0005   0.0007   0.0009   0.19    3.2
2017/07/23 11:08:49.800   2774817.0044   1654158.3130   5481148.4128   1  11   0.0007   0.0004   0.0013   0.0005   0.0007   0.0009   0.19    3.3
2017/07/23 11:08:50.000   2774817.0052   1654158.3132   5481148.4139   1  10   0.0007   0.0004   0.0014   0.0005   0.0007   0.0009   0.19    3.2
2017/07/23 11:08:50.200   2774817.0051   1654158.3132   5481148.4138   1  10   0.0007   0.0004   0.0014   0.0005   0.0007   0.0009   0.19    3.2
2017/07/23 11:08:50.400   2774817.0051   1654158.3131   5481148.4137   1  10   0.0007   0.0004   0.0014   0.0005   0.0007   0.0009   0.19    3.2
2017/07/23 11:08:50.600   2774817.0050   1654158.3131   5481148.4136   1  10   0.0007   0.0004   0.0014   0.0005   0.0007   0.0009   0.19    3.2
2017/07/23 11:08:50.800   2774817.0050   1654158.3131   5481148.4135   1  10   0.0007   0.0004   0.0014   0.0005   0.0007   0.0009   0.19    3.2
2017/07/23 11:08:51.000   2774817.0050   1654158.3131   5481148.4134   1  10   0.0007   0.0004   0.0014   0.0005   0.0007   0.0009   0.19    3.2
2017/07/23 11:08:51.200   2774817.0049   1654158.3130   5481148.4133   1  10   0.0007   0.0004   0.0014   0.0005   0.0007   0.0009   0.19    3.2
2017/07/23 11:08:51.400   2774817.0049   1654158.3130   5481148.4133   1  10   0.0007   0.0004   0.0014   0.0005   0.0007   0.0009   0.19    3.2
2017/07/23 11:08:51.600   2774817.0048   1654158.3130   5481148.4132   1  10   0.0007   0.0004   0.0014   0.0005   0.0007   0.0009   0.19    3.2
2017/07/23 11:08:51.800   2774817.0040   1654158.3127   5481148.4119   1  11   0.0007   0.0004   0.0014   0.0005   0.0007   0.0009   0.19    3.3
2017/07/23 11:08:52.000   2774817.0040   1654158.3127   5481148.4119   1  11   0.0007   0.0004   0.0014   0.0005   0.0007   0.0009   0.19    3.3
2017/07/23 11:08:52.200   2774817.0040   1654158.3127   5481148.4118   1  11   0.0007   0.0004   0.0014   0.0005   0.0007   0.0009   0.19    3.4
2017/07/23 11:08:52.400   2774817.0047   1654158.3129   5481148.4128   1  10   0.0007   0.0004   0.0014   0.0005   0.0007   0.0009   0.19    3.2
2017/07/23 11:08:52.600   2774817.0047   1654158.3128   5481148.4127   1  10   0.0007   0.0004   0.0014   0.0005   0.0007   0.0009   0.19    3.2
2017/07/23 11:08:52.800   2774817.0046   1654158.3128   5481148.4126   1  10   0.0007   0.0004   0.0014   0.0005   0.0007   0.0009   0.19    3.2
2017/07/23 11:08:53.000   2774817.0046   1654158.3127   5481148.4125   1  10   0.0007   0.0004   0.0014   0.0005   0.0007   0.0009   0.19    3.2
2017/07/23 11:08:53.200   2774817.0045   1654158.3127   5481148.4124   1  10   0.0007   0.0004   0.0014   0.0005   0.0007   0.0009   0.19    3.2
2017/07/23 11:08:53.400   2774817.0045   1654158.3127   5481148.4124   1  10   0.0007   0.0004   0.0014   0.0005   0.0007   0.0009   0.19    3.2
2017/07/23 11:08:53.600   2774817.0044   1654158.3127   5481148.4123   1  10   0.0007   0.0004   0.0014   0.0005   0.0007   0.0009   0.19    3.2
2017/07/23 11:08:53.800   2774817.0044   1654158.3126   5481148.4122   1  10   0.0007   0.0004   0.0014   0.0005   0.0007   0.0009   0.19    3.2
2017/07/23 11:08:54.000   2774817.0044   1654158.3126   5481148.4121   1  10   0.0007   0.0004   0.0014   0.0005   0.0007   0.0009   0.19    3.2
2017/07/23 11:08:54.200   2774817.0036   1654158.3124   5481148.4110   1  11   0.0007   0.0004   0.0014   0.0005   0.0007   0.0009   0.19    3.4
2017/07/23 11:08:54.400   2774817.0036   1654158.3123   5481148.4109   1  11   0.0007   0.0004   0.0014   0.0005   0.0007   0.0009   0.19    3.4
2017/07/23 11:08:54.600   2774817.0035   1654158.3123   5481148.4108   1  11   0.0007   0.0004   0.0014   0.0005   0.0007   0.0009   0.19    3.4
2017/07/23 11:08:54.800   2774817.0035   1654158.3123   5481148.4107   1  11   0.0007   0.0004   0.0014   0.0005   0.0007   0.0009   0.19    3.4
2017/07/23 11:08:55.000   2774817.0035   1654158.3123   5481148.4107   1  11   0.0007   0.0004   0.0014   0.0005   0.0007   0.0009   0.19    3.4
2017/07/23 11:08:55.200   2774817.0034   1654158.3122   5481148.4106   1  11   0.0007   0.0004   0.0014   0.0005   0.0007   0.0009   0.19    3.4
2017/07/23 11:08:55.400   2774817.0034   1654158.3122   5481148.4105   1  11   0.0007   0.0004   0.0014   0.0005   0.0007   0.0009   0.19    3.4
2017/07/23 11:08:55.600   2774817.0033   1654158.3122   5481148.4104   1  11   0.0007   0.0004   0.0014   0.0005   0.0007   0.0009   0.19    3.4
2017/07/23 11:08:55.800   2774817.0033   1654158.3121   5481148.4104   1  11   0.0007   0.0004   0.0014   0.0005   0.0007   0.0009   0.19    3.4
2017/07/23 11:08:56.000   2774817.0033   1654158.3121   5481148.4103   1  11   0.0007   0.0004   0.0014   0.0005   0.0007   0.0009   0.19    3.4
2017/07/23 11:08:56.200   2774817.0032   1654158.3121   5481148.4102   1  11   0.0007   0.0004   0.0014   0.0005   0.0007   0.0009   0.19    3.4
2017/07/23 11:08:56.400   2774817.0032   1654158.3121   5481148.4101   1  11   0.0007   0.0004   0.0014   0.0005   0.0007   0.0009   0.19    3.4
2017/07/23 11:08:56.600   2774817.0032   1654158.3120   5481148.4100   1  11   0.0007   0.0004   0.0014   0.0005   0.0007   0.0009   0.19    3.4
2017/07/23 11:08:56.800   2774817.0031   1654158.3120   5481148.4100   1  11   0.0007   0.0004   0.0014   0.0005   0.0007   0.0009   0.19    3.4
2017/07/23 11:08:57.000   2774817.0031   1654158.3120   5481148.4099   1  11   0.0007   0.0004   0.0014   0.0005   0.0007   0.0009   0.19    3.4
2017/07/23 11:08:57.200   2774817.0031   1654158.3120   5481148.4098   1  11   0.0007   0.0004   0.0014   0.0005   0.0007   0.0009   0.19    3.4
2017/07/23 11:08:57.400   2774817.0031   1654158.3119   5481148.4098   1  11   0.0007   0.0004   0.0014   0.0005   0.0007   0.0009   0.19    3.3
2017/07/23 11:08:57.600   2774817.0030   1654158.3119   5481148.4097   1  11   0.0007   0.0004   0.0014   0.0005   0.0007   0.0009   0.19    3.3
2017/07/23 11:08:57.800   2774817.0030   1654158.3119   5481148.4096   1  11   0.0007   0.0004   0.0014   0.0005   0.0007   0.0009   0.19    3.3
2017/07/23 11:08:58.000   2774817.0030   1654158.3119   5481148.4096   1  11   0.0007   0.0004   0.0014   0.0005   0.0007   0.0009   0.19    3.3
2017/07/23 11:08:58.200   2774817.0029   1654158.3118   5481148.4095   1  11   0.0007   0.0004   0.0014   0.0005   0.0007   0.0009   0.19    3.3
2017/07/23 11:08:58.400   2774817.0029   1654158.3118   5481148.4094   1  11   0.0007   0.0004   0.0014   0.0005   0.0007   0.0009   0.19    3.3
2017/07/23 11:08:58.600   2774817.0028   1654158.3118   5481148.4093   1  11   0.0007   0.0004   0.0014   0.0005   0.0007   0.0009   0.19    3.3
2017/07/23 11:08:58.800   2774817.0028   1654158.3117   5481148.4092   1  11   0.0007   0.0004   0.0014   0.0005   0.0007   0.0009   0.19    3.2
2017/07/23 11:08:59.000   2774817.0028   1654158.3117   5481148.4092   1  11   0.0007   0.0004   0.0014   0.0005   0.0007   0.0009   0.19    3.2
2017/07/23 11:08:59.200   2774817.0028   1654158.3117   5481148.4091   1  11   0.0007   0.0004   0.0014   0.0005   0.0007   0.0009   0.19    3.2
2017/07/23 11:08:59.400   2774817.0033   1654158.3118   5481148.4099   1  11   0.0007   0.0004   0.0014   0.0005   0.0007   0.0009   0.19    3.3
2017/07/23 11:08:59.600   2774817.0033   1654158.3118   5481148.4098   1  11   0.0007   0.0004   0.0014   0.0005   0.0007   0.0009   0.19    3.3
2017/07/23 11:08:59.800   2774817.0032   1654158.3118   5481148.4097   1  11   0.0007   0.0004   0.0014   0.0005   0.0007   0.0009   0.19    3.3
2017/07/23 11:09:00.000   2774817.0032   1654158.3118   5481148.4097   1  11   0.0007   0.0004   0.0014   0.0005   0.0007   0.0009   0.19    3.3
2017/07/23 11:09:00.200   2774817.0032   1654158.3117   5481148.4096   1  11   0.0007   0.0004   0.0014   0.0005   0.0007   0.0009   0.19    3.3
2017/07/23 11:09:00.400   2774817.0031   1654158.3117   5481148.4095   1  11   0.0007   0.0004   0.0014   0.0005   0.0007   0.0009   0.19    3.3
2017/07/23 11:09:00.600   2774817.0031   1654158.3117   5481148.4094   1  11   0.0007   0.0004   0.0014   0.0005   0.0007   0.0009   0.19    3.3
2017/07/23 11:09:00.800   2774817.0031   1654158.3117   5481148.4094   1  11   0.0007   0.0004   0.0014   0.0005   0.0007   0.0009   0.19    3.3
2017/07/23 11:09:01.000   2774817.0030   1654158.3116   5481148.4093   1  11   0.0007   0.0004   0.0014   0.0005   0.0007   0.0009   0.19    3.3
2017/07/23 11:09:01.200   2774817.0030   1654158.3116   5481148.4092   1  11   0.0007   0.0004   0.0014   0.0005   0.0007   0.0009   0.19    3.3
2017/07/23 11:09:01.400   2774817.0030   1654158.3116   5481148.4092   1  11   0.0007   0.0004   0.0014   0.0005   0.0007   0.0009   0.19    3.3
2017/07/23 11:09:01.600   2774817.0029   1654158.3116   5481148.4091   1  10   0.0007   0.0004   0.0014   0.0005   0.0007   0.0009   0.19    3.3
2017/07/23 11:09:01.800   2774817.0029   1654158.3115   5481148.4090   1  10   0.0007   0.0004   0.0014   0.0005   0.0007   0.0009   0.19    3.3
2017/07/23 11:09:02.000   2774817.0028   1654158.3115   5481148.4089   1  10   0.0007   0.0004   0.0014   0.0005   0.0007   0.0009   0.19    3.3
2017/07/23 11:09:02.200   2774817.0028   1654158.3115   5481148.4088   1  10   0.0007   0.0004   0.0014   0.0005   0.0007   0.0009   0.19    3.3
2017/07/23 11:09:02.400   2774817.0028   1654158.3115   5481148.4087   1  10   0.0007   0.0004   0.0014   0.0005   0.0007   0.0009   0.19    3.3
2017/07/23 11:09:02.600   2774817.0027   1654158.3114   5481148.4087   1  10   0.0007   0.0004   0.0014   0.0005   0.0007   0.0009   0.19    3.3
2017/07/23 11:09:02.800   2774817.0027   1654158.3114   5481148.4086   1  10   0.0007   0.0004   0.0014   0.0005   0.0007   0.0009   0.19    3.3
2017/07/23 11:09:03.000   2774817.0027   1654158.3114   5481148.4085   1  10   0.0007   0.0004   0.0014   0.0005   0.0007   0.0009   0.19    3.3
2017/07/23 11:09:03.200   2774817.0026   1654158.3114   5481148.4084   1  10   0.0007   0.0004   0.0014   0.0005   0.0007   0.0010   0.19    3.3
2017/07/23 11:09:03.400   2774817.0026   1654158.3113   5481148.4083   1  10   0.0007   0.0004   0.0014   0.0005   0.0007   0.0010   0.19    3.3
2017/07/23 11:09:03.600   2774817.0025   1654158.3113   5481148.4082   1  10   0.0007   0.0004   0.0014   0.0005   0.0007   0.0010   0.19    3.3
2017/07/23 11:09:03.800   2774817.0025   1654158.3113   5481148.4081   1  10   0.0007   0.0004   0.0014   0.0005   0.0007   0.0010   0.19    3.2
2017/07/23 11:09:04.000   2774817.0024   1654158.3112   5481148.4080   1  10   0.0007   0.0004   0.0014   0.0005   0.0007   0.0010   0.19    3.2
2017/07/23 11:09:04.200   2774817.0024   1654158.3112   5481148.4079   1  10   0.0007   0.0004   0.0014   0.0005   0.0007   0.0010   0.19    3.2
2017/07/23 11:09:04.400   2774817.0023   1654158.3112   5481148.4078   1  10   0.0007   0.0004   0.0014   0.0005   0.0007   0.0010   0.19    3.2
2017/07/23 11:09:04.600   2774817.0023   1654158.3111   5481148.4077   1  11   0.0007   0.0004   0.0014   0.0005   0.0007   0.0010   0.19    3.2
2017/07/23 11:09:04.800   2774817.0022   1654158.3111   5481148.4076   1  11   0.0007   0.0004   0.0014   0.0005   0.0007   0.0010   0.19    3.2
2017/07/23 11:09:05.000   2774817.0022   1654158.3111   5481148.4075   1  11   0.0007   0.0004   0.0014   0.0005   0.0007   0.0010   0.19    3.2
2017/07/23 11:09:05.200   2774817.0022   1654158.3110   5481148.4075   1  11   0.0007   0.0004   0.0014   0.0005   0.0007   0.0010   0.19    3.2
2017/07/23 11:09:05.400   2774817.0021   1654158.3110   5481148.4074   1  11   0.0007   0.0004   0.0014   0.0005   0.0007   0.0010   0.19    3.2
2017/07/23 11:09:05.600   2774817.0021   1654158.3110   5481148.4073   1  10   0.0007   0.0004   0.0014   0.0005   0.0007   0.0010   0.19    3.2
2017/07/23 11:09:05.800   2774817.0020   1654158.3110   5481148.4072   1  10   0.0007   0.0004   0.0014   0.0005   0.0007   0.0010   0.19    3.2
2017/07/23 11:09:06.000   2774817.0020   1654158.3109   5481148.4071   1  11   0.0007   0.0004   0.0014   0.0005   0.0007   0.0010   0.19    3.2
2017/07/23 11:09:06.200   2774817.0019   1654158.3109   5481148.4070   1  11   0.0007   0.0004   0.0014   0.0005   0.0007   0.0010   0.19    3.2
2017/07/23 11:09:06.400   2774817.0019   1654158.3109   5481148.4069   1  11   0.0007   0.0004   0.0014   0.0005   0.0007   0.0010   0.19    3.2
2017/07/23 11:09:06.600   2774817.0019   1654158.3108   5481148.4068   1  11   0.0007   0.0004   0.0014   0.0005   0.0007   0.0010   0.19    3.2
2017/07/23 11:09:06.800   2774817.0018   1654158.3108   5481148.4067   1  11   0.0007   0.0004   0.0014   0.0005   0.0007   0.0010   0.19    3.2
2017/07/23 11:09:07.000   2774817.0018   1654158.3108   5481148.4067   1  11   0.0007   0.0004   0.0014   0.0005   0.0007   0.0010   0.19    3.2
2017/07/23 11:09:07.200   2774817.0017   1654158.3107   5481148.4066   1  10   0.0007   0.0004   0.0014   0.0005   0.0007   0.0010   0.19    3.2
2017/07/23 11:09:07.400   2774817.0017   1654158.3107   5481148.4065   1  10   0.0007   0.0004   0.0014   0.0005   0.0007   0.0010   0.19    3.2
2017/07/23 11:09:07.600   2774817.0016   1654158.3107   5481148.4064   1  10   0.0007   0.0004   0.0014   0.0005   0.0007   0.0010   0.19    3.2
2017/07/23 11:09:07.800   2774817.0016   1654158.3106   5481148.4062   1  10   0.0007   0.0004   0.0014   0.0005   0.0007   0.0010   0.19    3.2
2017/07/23 11:09:08.000   2774817.0015   1654158.3106   5481148.4061   1  10   0.0007   0.0004   0.0014   0.0005   0.0007   0.0010   0.19    3.2
2017/07/23 11:09:08.200   2774817.0015   1654158.3106   5481148.4060   1  10   0.0007   0.0004   0.0014   0.0005   0.0007   0.0010   0.19    3.2
2017/07/23 11:09:08.400   2774817.0014   1654158.3105   5481148.4059   1  10   0.0007   0.0004   0.0014   0.0005   0.0007   0.0010   0.19    3.2
2017/07/23 11:09:08.600   2774817.0014   1654158.3105   5481148.4058   1  10   0.0007   0.0004   0.0014   0.0005   0.0007   0.0010   0.19    3.2
2017/07/23 11:09:08.800   2774817.0013   1654158.3105   5481148.4057   1  10   0.0007   0.0004   0.0014   0.0005   0.0007   0.0010   0.19    3.2
2017/07/23 11:09:09.000   2774817.0013   1654158.3104   5481148.4056   1  10   0.0007   0.0004   0.0014   0.0005   0.0007   0.0010   0.19    3.2
2017/07/23 11:09:09.200   2774817.0012   1654158.3104   5481148.4055   1  11   0.0007   0.0004   0.0014   0.0005   0.0007   0.0010   0.19    3.2
2017/07/23 11:09:09.400   2774817.0012   1654158.3104   5481148.4054   1  11   0.0007   0.0004   0.0014   0.0005   0.0007   0.0010   0.19    3.2
2017/07/23 11:09:09.600   2774817.0011   1654158.3104   5481148.4053   1  10   0.0007   0.0004   0.0014   0.0005   0.0007   0.0010   0.19    3.2
2017/07/23 11:09:09.800   2774817.0011   1654158.3103   5481148.4052   1  10   0.0007   0.0004   0.0014   0.0005   0.0007   0.0010   0.19    3.2
2017/07/23 11:09:10.000   2774817.0010   1654158.3103   5481148.4051   1  10   0.0007   0.0004   0.0014   0.0005   0.0007   0.0010   0.19    3.2
2017/07/23 11:09:10.200   2774817.0010   1654158.3103   5481148.4050   1  10   0.0007   0.0004   0.0014   0.0005   0.0007   0.0010   0.19    3.2
2017/07/23 11:09:10.400   2774817.0010   1654158.3102   5481148.4049   1  11   0.0007   0.0004   0.0014   0.0005   0.0007   0.0010   0.19    3.2
2017/07/23 11:09:10.600   2774817.0009   1654158.3102   5481148.4048   1  11   0.0007   0.0004   0.0014   0.0005   0.0007   0.0010   0.19    3.2
2017/07/23 11:09:10.800   2774817.0009   1654158.3102   5481148.4048   1  11   0.0007   0.0004   0.0014   0.0005   0.0007   0.0010   0.19    3.2
2017/07/23 11:09:11.000   2774817.0008   1654158.3102   5481148.4047   1  11   0.0007   0.0004   0.0014   0.0005   0.0007   0.0010   0.19    3.2
2017/07/23 11:09:11.200   2774817.0008   1654158.3101   5481148.4046   1  11   0.0007   0.0004   0.0014   0.0005   0.0007   0.0010   0.19    3.2
2017/07/23 11:09:11.400   2774817.0008   1654158.3101   5481148.4045   1  11   0.0007   0.0004   0.0014   0.0005   0.0007   0.0010   0.19    3.2
2017/07/23 11:09:11.600   2774817.0007   1654158.3101   5481148.4044   1  11   0.0007   0.0004   0.0014   0.0005   0.0007   0.0010   0.19    3.2
2017/07/23 11:09:11.800   2774817.0007   1654158.3100   5481148.4043   1  11   0.0007   0.0004   0.0014   0.0005   0.0007   0.0010   0.19    3.2
2017/07/23 11:09:12.000   2774817.0006   1654158.3100   5481148.4042   1  11   0.0007   0.0004   0.0014   0.0005   0.0007   0.0010   0.19    3.2
2017/07/23 11:09:12.200   2774817.0006   1654158.3100   5481148.4041   1  11   0.0007   0.0004   0.0014   0.0005   0.0007   0.0010   0.19    3.2
2017/07/23 11:09:12.400   2774817.0005   1654158.3100   5481148.4040   1  11   0.0007   0.0004   0.0014   0.0005   0.0007   0.0010   0.19    3.2
2017/07/23 11:09:12.600   2774817.0005   1654158.3099   5481148.4039   1  10   0.0007   0.0004   0.0014   0.0005   0.0007   0.0010   0.19    3.2
2017/07/23 11:09:12.800   2774817.0004   1654158.3099   5481148.4038   1  10   0.0007   0.0004   0.0014   0.0005   0.0007   0.0010   0.19    3.2
2017/07/23 11:09:13.000   2774817.0004   1654158.3099   5481148.4038   1  10   0.0007   0.0004   0.0014   0.0005   0.0007   0.0010   0.19    3.2
2017/07/23 11:09:13.200   2774817.0004   1654158.3098   5481148.4037   1  11   0.0007   0.0004   0.0014   0.0005   0.0007   0.0010   0.19    3.2
2017/07/23 11:09:13.400   2774817.0003   1654158.3098   5481148.4036   1  11   0.0007   0.0004   0.0014   0.0005   0.0007   0.0010   0.19    3.2
2017/07/23 11:09:13.600   2774817.0003   1654158.3098   5481148.4035   1  10   0.0007   0.0004   0.0014   0.0005   0.0007   0.0010   0.19    3.2
2017/07/23 11:09:13.800   2774817.0002   1654158.3097   5481148.4034   1  10   0.0007   0.0004   0.0014   0.0005   0.0007   0.0010   0.19    3.2
2017/07/23 11:09:14.000   2774817.0002   1654158.3097   5481148.4033   1  10   0.0007   0.0004   0.0014   0.0005   0.0007   0.0010   0.19    3.2
2017/07/23 11:09:14.200   2774817.0001   1654158.3097   5481148.4032   1  10   0.0007   0.0004   0.0014   0.0005   0.0007   0.0010   0.19    3.2
2017/07/23 11:09:14.400   2774817.0001   1654158.3096   5481148.4031   1  11   0.0007   0.0004   0.0014   0.0005   0.0007   0.0010   0.19    3.2
2017/07/23 11:09:14.600   2774817.0000   1654158.3096   5481148.4030   1  11   0.0007   0.0004   0.0014   0.0005   0.0007   0.0010   0.19    3.2
2017/07/23 11:09:14.800   2774817.0000   1654158.3096   5481148.4030   1  11   0.0007   0.0004   0.0014   0.0005   0.0007   0.0010   0.19    3.2
2017/07/23 11:09:15.000   2774817.0000   1654158.3096   5481148.4029   1  11   0.0007   0.0004   0.0014   0.0005   0.0007   0.0010   0.19    3.2
2017/07/23 11:09:15.200   2774816.9999   1654158.3095   5481148.4028   1  11   0.0007   0.0004   0.0014   0.0005   0.0007   0.0010   0.19    3.2
2017/07/23 11:09:15.400   2774816.9999   1654158.3095   5481148.4028   1  11   0.0007   0.0004   0.0014   0.0005   0.0007   0.0010   0.19    3.2
2017/07/23 11:09:15.600   2774816.9998   1654158.3095   5481148.4027   1  11   0.0007   0.0004   0.0014   0.0005   0.0007   0.0010   0.19    3.2
2017/07/23 11:09:15.800   2774816.9998   1654158.3094   5481148.4026   1  11   0.0007   0.0004   0.0014   0.0005   0.0007   0.0010   0.19    3.2
2017/07/23 11:09:16.000   2774816.9998   1654158.3094   5481148.4025   1  11   0.0007   0.0004   0.0014   0.0005   0.0007   0.0010   0.19    3.1
2017/07/23 11:09:16.200   2774816.9997   1654158.3094   5481148.4025   1  11   0.0007   0.0004   0.0014   0.0005   0.0007   0.0010   0.19    3.1
2017/07/23 11:09:16.400   2774816.9997   1654158.3094   5481148.4024   1  10   0.0007   0.0004   0.0014   0.0005   0.0007   0.0010   0.19    3.1
2017/07/23 11:09:16.600   2774816.9997   1654158.3093   5481148.4024   1  10   0.0007   0.0004   0.0014   0.0005   0.0007   0.0010   0.19    3.1
2017/07/23 11:09:16.800   2774816.9996   1654158.3093   5481148.4023   1  10   0.0007   0.0004   0.0014   0.0005   0.0007   0.0010   0.19    3.1
2017/07/23 11:09:17.000   2774816.9996   1654158.3093   5481148.4022   1  10   0.0007   0.0004   0.0014   0.0005   0.0007   0.0010   0.19    3.1
2017/07/23 11:09:17.200   2774816.9996   1654158.3093   5481148.4021   1  10   0.0007   0.0004   0.0014   0.0005   0.0007   0.0010   0.19    3.1
2017/07/23 11:09:17.400   2774816.9995   1654158.3092   5481148.4021   1  10   0.0007   0.0004   0.0014   0.0005   0.0007   0.0010   0.19    3.1
2017/07/23 11:09:17.600   2774816.9995   1654158.3092   5481148.4020   1  10   0.0007   0.0004   0.0014   0.0005   0.0007   0.0010   0.19    3.1
2017/07/23 11:09:17.800   2774816.9994   1654158.3092   5481148.4019   1  10   0.0007   0.0004   0.0014   0.0005   0.0007   0.0010   0.19    3.1
2017/07/23 11:09:18.000   2774816.9994   1654158.3091   5481148.4018   1  10   0.0007   0.0004   0.0014   0.0005   0.0007   0.0010   0.19    3.1
2017/07/23 11:09:18.200   2774816.9994   1654158.3091   5481148.4018   1  10   0.0007   0.0004   0.0014   0.0005   0.0007   0.0010   0.19    3.1
2017/07/23 11:09:18.400   2774816.9993   1654158.3091   5481148.4017   1  10   0.0007   0.0004   0.0014   0.0005   0.0007   0.0010   0.19    3.1
2017/07/23 11:09:18.600   2774816.9993   1654158.3091   5481148.4016   1  11   0.0007   0.0004   0.0014   0.0005   0.0007   0.0010   0.19    3.1
2017/07/23 11:09:18.800   2774816.9992   1654158.3090   5481148.4016   1  11   0.0007   0.0004   0.0014   0.0005   0.0007   0.0010   0.19    3.1
2017/07/23 11:09:19.000   2774816.9992   1654158.3090   5481148.4015   1  10   0.0007   0.0004   0.0014   0.0005   0.0007   0.0010   0.19    3.1
2017/07/23 11:09:19.200   2774816.9992   1654158.3090   5481148.4015   1  10   0.0007   0.0004   0.0014   0.0005   0.0007   0.0010   0.19    3.1
2017/07/23 11:09:19.400   2774816.9991   1654158.3090   5481148.4014   1  10   0.0007   0.0004   0.0014   0.0005   0.0007   0.0010   0.19    3.1
2017/07/23 11:09:19.600   2774816.9991   1654158.3089   5481148.4014   1  11   0.0007   0.0004   0.0014   0.0005   0.0007   0.0010   0.19    3.1
2017/07/23 11:09:19.800   2774816.9991   1654158.3089   5481148.4013   1  11   0.0007   0.0004   0.0014   0.0005   0.0007   0.0010   0.19    3.1
2017/07/23 11:09:20.000   2774816.9991   1654158.3089   5481148.4013   1  11   0.0007   0.0004   0.0014   0.0005   0.0007   0.0010   0.19    3.1
2017/07/23 11:09:20.200   2774816.9990   1654158.3089   5481148.4012   1  11   0.0007   0.0004   0.0014   0.0005   0.0007   0.0010   0.19    3.1
2017/07/23 11:09:20.400   2774816.9990   1654158.3089   5481148.4012   1  10   0.0007   0.0004   0.0014   0.0005   0.0007   0.0010   0.19    3.1
2017/07/23 11:09:20.600   2774816.9990   1654158.3089   5481148.4011   1  10   0.0007   0.0004   0.0014   0.0005   0.0007   0.0010   0.19    3.1
2017/07/23 11:09:20.800   2774816.9990   1654158.3088   5481148.4011   1  10   0.0007   0.0004   0.0014   0.0005   0.0007   0.0010   0.19    3.1
2017/07/23 11:09:21.000   2774816.9989   1654158.3088   5481148.4010   1  11   0.0007   0.0004   0.0014   0.0005   0.0007   0.0010   0.19    3.1
2017/07/23 11:09:21.200   2774816.9989   1654158.3088   5481148.4010   1  11   0.0007   0.0004   0.0014   0.0005   0.0007   0.0010   0.19    3.1
2017/07/23 11:09:21.400   2774816.9989   1654158.3088   5481148.4009   1  11   0.0007   0.0004   0.0014   0.0005   0.0007   0.0010   0.19    3.1
2017/07/23 11:09:21.600   2774816.9988   1654158.3087   5481148.4009   1  11   0.0007   0.0004   0.0014   0.0005   0.0007   0.0010   0.19    3.1
2017/07/23 11:09:21.800   2774816.9988   1654158.3087   5481148.4008   1  11   0.0007   0.0004   0.0014   0.0005   0.0007   0.0010   0.19    3.1
2017/07/23 11:09:22.000   2774816.9987   1654158.3087   5481148.4007   1  11   0.0007   0.0004   0.0014   0.0005   0.0007   0.0010   0.19    3.1
2017/07/23 11:09:22.200   2774816.9987   1654158.3086   5481148.4006   1  11   0.0007   0.0004   0.0014   0.0005   0.0007   0.0010   0.19    3.1
2017/07/23 11:09:22.400   2774816.9987   1654158.3086   5481148.4006   1  11   0.0007   0.0004   0.0014   0.0005   0.0007   0.0010   0.19    3.1
2017/07/23 11:09:22.600   2774816.9987   1654158.3086   5481148.4005   1  11   0.0007   0.0004   0.0014   0.0005   0.0007   0.0010   0.19    3.1
2017/07/23 11:09:22.800   2774816.9986   1654158.3086   5481148.4005   1  11   0.0007   0.0004   0.0014   0.0005   0.0007   0.0010   0.19    3.1
2017/07/23 11:09:23.000   2774816.9986   1654158.3085   5481148.4004   1  11   0.0007   0.0004   0.0014   0.0005   0.0007   0.0010   0.19    3.1
2017/07/23 11:09:23.200   2774816.9986   1654158.3085   5481148.4004   1  10   0.0007   0.0004   0.0014   0.0005   0.0007   0.0010   0.19    3.1
2017/07/23 11:09:23.400   2774816.9986   1654158.3085   5481148.4004   1  10   0.0007   0.0004   0.0014   0.0005   0.0007   0.0010   0.19    3.1
2017/07/23 11:09:23.600   2774816.9985   1654158.3085   5481148.4003   1  10   0.0007   0.0004   0.0014   0.0005   0.0007   0.0010   0.19    3.1
2017/07/23 11:09:23.800   2774816.9985   1654158.3085   5481148.4002   1  10   0.0007   0.0004   0.0014   0.0005   0.0007   0.0010   0.19    3.1
2017/07/23 11:09:24.000   2774816.9985   1654158.3084   5481148.4002   1  10   0.0007   0.0004   0.0014   0.0005   0.0007   0.0010   0.19    3.1
2017/07/23 11:09:24.200   2774816.9985   1654158.3084   5481148.4002   1  10   0.0007   0.0004   0.0014   0.0005   0.0007   0.0010   0.19    3.1
2017/07/23 11:09:24.400   2774816.9984   1654158.3084   5481148.4001   1  10   0.0007   0.0004   0.0014   0.0005   0.0007   0.0010   0.19    3.1
2017/07/23 11:09:24.600   2774816.9984   1654158.3084   5481148.4001   1  11   0.0007   0.0004   0.0014   0.0005   0.0007   0.0010   0.19    3.1
2017/07/23 11:09:24.800   2774816.9984   1654158.3083   5481148.4000   1  11   0.0007   0.0004   0.0014   0.0005   0.0007   0.0010   0.19    3.1
2017/07/23 11:09:25.000   2774816.9984   1654158.3083   5481148.4000   1  11   0.0007   0.0004   0.0014   0.0005   0.0007   0.0010   0.19    3.1
2017/07/23 11:09:25.200   2774816.9983   1654158.3083   5481148.3999   1  10   0.0007   0.0004   0.0014   0.0005   0.0007   0.0010   0.19    3.1
2017/07/23 11:09:25.400   2774816.9983   1654158.3083   5481148.3998   1  10   0.0007   0.0004   0.0014   0.0005   0.0007   0.0010   0.19    3.1
2017/07/23 11:09:25.600   2774816.9983   1654158.3082   5481148.3998   1  10   0.0007   0.0004   0.0014   0.0005   0.0007   0.0010   0.19    3.1
2017/07/23 11:09:25.800   2774816.9983   1654158.3082   5481148.3997   1  10   0.0008   0.0004   0.0014   0.0005   0.0007   0.0010   0.19    3.1
2017/07/23 11:09:26.000   2774816.9982   1654158.3082   5481148.3997   1  11   0.0008   0.0004   0.0014   0.0005   0.0007   0.0010   0.19    3.1
2017/07/23 11:09:26.200   2774816.9982   1654158.3082   5481148.3996   1  11   0.0008   0.0004   0.0014   0.0005   0.0007   0.0010   0.19    3.1
2017/07/23 11:09:26.400   2774816.9982   1654158.3081   5481148.3995   1  11   0.0008   0.0004   0.0014   0.0005   0.0007   0.0010   0.19    3.1
2017/07/23 11:09:26.600   2774816.9982   1654158.3081   5481148.3995   1  11   0.0008   0.0004   0.0014   0.0005   0.0007   0.0010   0.19    3.1
2017/07/23 11:09:26.800   2774816.9981   1654158.3081   5481148.3995   1  11   0.0008   0.0004   0.0014   0.0005   0.0007   0.0010   0.19    3.1
2017/07/23 11:09:27.000   2774816.9981   1654158.3081   5481148.3994   1  11   0.0008   0.0004   0.0014   0.0005   0.0007   0.0010   0.19    3.1
2017/07/23 11:09:27.200   2774816.9981   1654158.3081   5481148.3994   1  11   0.0008   0.0004   0.0014   0.0005   0.0007   0.0010   0.19    3.1
2017/07/23 11:09:27.400   2774816.9981   1654158.3081   5481148.3993   1  11   0.0008   0.0004   0.0014   0.0005   0.0007   0.0010   0.19    3.1
2017/07/23 11:09:27.600   2774816.9980   1654158.3080   5481148.3993   1  11   0.0008   0.0004   0.0014   0.0005   0.0007   0.0010   0.19    3.1
2017/07/23 11:09:27.800   2774816.9980   1654158.3080   5481148.3992   1  11   0.0008   0.0004   0.0014   0.0005   0.0007   0.0010   0.19    3.1
2017/07/23 11:09:28.000   2774816.9980   1654158.3080   5481148.3991   1  11   0.0008   0.0004   0.0014   0.0005   0.0007   0.0010   0.19    3.0
2017/07/23 11:09:28.200   2774816.9980   1654158.3079   5481148.3991   1  11   0.0008   0.0004   0.0014   0.0005   0.0007   0.0010   0.19    3.0
2017/07/23 11:09:28.400   2774816.9979   1654158.3079   5481148.3990   1  11   0.0008   0.0004   0.0014   0.0005   0.0007   0.0010   0.19    3.0
2017/07/23 11:09:28.600   2774816.9979   1654158.3079   5481148.3989   1  11   0.0008   0.0004   0.0014   0.0005   0.0007   0.0010   0.19    3.0
2017/07/23 11:09:28.800   2774816.9979   1654158.3079   5481148.3989   1  11   0.0008   0.0004   0.0014   0.0005   0.0007   0.0010   0.19    3.0
2017/07/23 11:09:29.000   2774816.9978   1654158.3078   5481148.3988   1  10   0.0008   0.0004   0.0014   0.0005   0.0007   0.0010   0.19    3.0
2017/07/23 11:09:29.200   2774816.9978   1654158.3078   5481148.3987   1  10   0.0008   0.0004   0.0014   0.0005   0.0007   0.0010   0.19    3.0
2017/07/23 11:09:29.400   2774816.9978   1654158.3078   5481148.3987   1  10   0.0008   0.0004   0.0014   0.0005   0.0007   0.0010   0.19    3.0
