% program   : RTKLIB ver.2.4.3 Emlid
% inp file  : /home/artur/RTKLIB/test/test/static/4_bolshoy_ruchey/rover.obs
% inp file  : /home/artur/RTKLIB/test/test/static/4_bolshoy_ruchey/base.obs
% inp file  : /home/artur/RTKLIB/test/test/static/4_bolshoy_ruchey/rover.nav
% obs start : 2017/07/23 10:58:43.8 GPST (week1959  39523.8s)
% obs end   : 2017/07/23 11:08:52.6 GPST (week1959  40132.6s)
% pos mode  : static
% freqs     : L1
% solution  : forward
% elev mask : 15.0 deg
% dynamics  : on
% tidecorr  : off
% ionos opt : broadcast
% tropo opt : est ztd
% ephemeris : broadcast
% navi sys  : gps glonass galileo qzss beidou sbas
% amb res   : continuous
% amb glo   : off
% val thres : 3.0
% antenna1  :                       ( 0.0000  0.0000  0.0000)
% antenna2  :                       ( 0.0000  0.0000  0.0000)
% ref pos   :  2773909.8712  1654076.4507  5481627.6877
%
% (x/y/z-ecef=WGS84,Q=1:fix,2:float,3:sbas,4:dgps,5:single,6:ppp,ns=# of satellites)
%  GPST                      x-ecef(m)      y-ecef(m)      z-ecef(m)   Q  ns   sdx(m)   sdy(m)   sdz(m)  sdxy(m)  sdyz(m)  sdzx(m) age(s)  ratio
2017/07/23 10:58:43.800   2773746.6859   1652346.1257   5482225.6253   2  19   1.8482   1.5365   2.9835   1.3211   1.4854   1.7531  -0.19    0.0
2017/07/23 10:58:44.000   2773746.8606   1652346.3406   5482226.0359   2  19   1.4521   1.1744   2.3524   1.0333   1.1796   1.4177  -0.19    0.0
2017/07/23 10:58:44.200   2773746.9765   1652346.4712   5482226.2474   2  19   1.2548   0.9950   2.0467   0.8927   1.0326   1.2570  -0.19    0.0
2017/07/23 10:58:44.400   2773747.0638   1652346.5585   5482226.4218   2  19   1.1326   0.8837   1.8600   0.8064   0.9433   1.1594  -0.19    0.0
2017/07/23 10:58:44.600   2773747.1191   1652346.6024   5482226.5065   2  19   1.0477   0.8063   1.7315   0.7469   0.8819   1.0925  -0.19    0.0
2017/07/23 10:58:44.800   2773747.1847   1652346.6446   5482226.5975   2  19   0.9845   0.7485   1.6364   0.7027   0.8365   1.0429  -0.19    0.0
2017/07/23 10:58:45.000   2773747.2472   1652346.6830   5482226.6820   2  19   0.9351   0.7033   1.5622   0.6682   0.8012   1.0041  -0.19    0.0
2017/07/23 10:58:45.200   2773747.3158   1652346.7160   5482226.7755   2  19   0.8951   0.6667   1.5021   0.6403   0.7725   0.9725  -0.19    0.0
2017/07/23 10:58:45.400   2773747.3891   1652346.7564   5482226.9108   2  19   0.8617   0.6363   1.4521   0.6171   0.7486   0.9460  -0.19    0.0
2017/07/23 10:58:45.600   2773747.4542   1652346.7920   5482227.0281   2  19   0.8333   0.6104   1.4094   0.5974   0.7281   0.9233  -0.19    0.0
2017/07/23 10:58:45.800   2773747.4932   1652346.8172   5482227.1082   2  19   0.8087   0.5881   1.3723   0.5802   0.7103   0.9033  -0.19    0.0
2017/07/23 10:58:46.000   2773747.5206   1652346.8432   5482227.1673   2  19   0.7870   0.5686   1.3395   0.5651   0.6945   0.8855  -0.19    0.0
2017/07/23 10:58:46.200   2773747.5436   1652346.8695   5482227.2305   2  19   0.7677   0.5512   1.3101   0.5517   0.6803   0.8694  -0.19    0.0
2017/07/23 10:58:46.400   2773747.5685   1652346.9024   5482227.2979   2  19   0.7502   0.5357   1.2836   0.5395   0.6675   0.8547  -0.19    0.0
2017/07/23 10:58:46.600   2773747.5925   1652346.9363   5482227.3405   2  19   0.7344   0.5217   1.2593   0.5285   0.6557   0.8411  -0.19    0.0
2017/07/23 10:58:46.800   2773747.6133   1652346.9682   5482227.3652   2  19   0.7198   0.5089   1.2369   0.5183   0.6447   0.8284  -0.19    0.0
2017/07/23 10:58:47.000   2773747.6242   1652346.9920   5482227.3781   2  19   0.7063   0.4972   1.2161   0.5089   0.6345   0.8165  -0.19    0.0
2017/07/23 10:58:47.200   2773747.6446   1652347.0136   5482227.4038   2  19   0.6938   0.4865   1.1966   0.5001   0.6250   0.8053  -0.19    0.0
2017/07/23 10:58:47.400   2773747.6594   1652347.0286   5482227.4312   2  19   0.6821   0.4764   1.1783   0.4919   0.6160   0.7946  -0.19    0.0
2017/07/23 10:58:47.600   2773747.6848   1652347.0456   5482227.4834   2  19   0.6710   0.4671   1.1610   0.4842   0.6074   0.7844  -0.19    0.0
2017/07/23 10:58:47.800   2773747.7104   1652347.0626   5482227.5232   2  19   0.6606   0.4584   1.1446   0.4769   0.5992   0.7746  -0.19    0.0
2017/07/23 10:58:48.000   2773747.7305   1652347.0787   5482227.5645   2  19   0.6507   0.4502   1.1289   0.4699   0.5914   0.7651  -0.19    0.0
2017/07/23 10:58:48.200   2773747.7424   1652347.0866   5482227.5818   2  19   0.6412   0.4425   1.1138   0.4633   0.5839   0.7560  -0.19    0.0
2017/07/23 10:58:48.400   2773747.7469   1652347.0932   5482227.5969   2  19   0.6322   0.4352   1.0994   0.4569   0.5767   0.7472  -0.19    0.0
2017/07/23 10:58:48.600   2773747.7597   1652347.1035   5482227.6334   2  19   0.6236   0.4282   1.0855   0.4508   0.5697   0.7386  -0.19    0.0
2017/07/23 10:58:48.800   2773747.7752   1652347.1125   5482227.6729   2  19   0.6153   0.4216   1.0721   0.4450   0.5629   0.7303  -0.19    0.0
2017/07/23 10:58:49.000   2773747.7752   1652347.1145   5482227.6833   2  19   0.6073   0.4153   1.0591   0.4393   0.5564   0.7222  -0.19    0.0
2017/07/23 10:58:49.200   2773747.7746   1652347.1163   5482227.6880   2  19   0.5995   0.4093   1.0465   0.4338   0.5500   0.7142  -0.19    0.0
2017/07/23 10:58:49.400   2773747.7727   1652347.1176   5482227.6948   2  19   0.5921   0.4035   1.0343   0.4285   0.5438   0.7065  -0.19    0.0
2017/07/23 10:58:49.600   2773747.7678   1652347.1156   5482227.6969   2  19   0.5848   0.3979   1.0225   0.4234   0.5377   0.6989  -0.19    0.0
2017/07/23 10:58:49.800   2773747.7695   1652347.1120   5482227.7183   2  19   0.5778   0.3926   1.0109   0.4184   0.5318   0.6915  -0.19    0.0
2017/07/23 10:58:50.000   2773747.7715   1652347.1078   5482227.7359   2  19   0.5710   0.3875   0.9996   0.4136   0.5261   0.6842  -0.19    0.0
2017/07/23 10:58:50.200   2773747.7725   1652347.1018   5482227.7535   2  19   0.5643   0.3825   0.9886   0.4089   0.5204   0.6771  -0.19    0.0
2017/07/23 10:58:50.400   2773747.7851   1652347.1010   5482227.7864   2  19   0.5579   0.3777   0.9779   0.4043   0.5149   0.6701  -0.19    0.0
2017/07/23 10:58:50.600   2773747.7787   1652347.0902   5482227.7899   2  19   0.5516   0.3731   0.9674   0.3998   0.5095   0.6632  -0.19    0.0
2017/07/23 10:58:50.800   2773747.7859   1652347.0879   5482227.8126   2  19   0.5455   0.3686   0.9571   0.3954   0.5042   0.6565  -0.19    0.0
2017/07/23 10:58:51.000   2773747.7825   1652347.0808   5482227.8176   2  19   0.5395   0.3643   0.9471   0.3912   0.4991   0.6498  -0.19    0.0
2017/07/23 10:58:51.200   2773747.7831   1652347.0778   5482227.8301   2  19   0.5337   0.3601   0.9373   0.3870   0.4940   0.6433  -0.19    0.0
2017/07/23 10:58:51.400   2773747.7789   1652347.0728   5482227.8308   2  19   0.5279   0.3560   0.9277   0.3829   0.4890   0.6369  -0.19    0.0
2017/07/23 10:58:51.600   2773747.7757   1652347.0659   5482227.8371   2  19   0.5224   0.3520   0.9182   0.3789   0.4841   0.6306  -0.19    0.0
2017/07/23 10:58:51.800   2773747.7686   1652347.0588   5482227.8397   2  19   0.5169   0.3482   0.9090   0.3750   0.4793   0.6245  -0.19    0.0
2017/07/23 10:58:52.000   2773747.7552   1652347.0504   5482227.8318   2  19   0.5116   0.3444   0.8999   0.3712   0.4746   0.6184  -0.19    0.0
2017/07/23 10:58:52.200   2773747.7399   1652347.0384   5482227.8162   2  19   0.5064   0.3407   0.8910   0.3675   0.4700   0.6124  -0.19    0.0
2017/07/23 10:58:52.400   2773747.7246   1652347.0277   5482227.7976   2  19   0.5013   0.3372   0.8823   0.3638   0.4655   0.6065  -0.19    0.0
2017/07/23 10:58:52.600   2773747.7038   1652347.0148   5482227.7646   2  19   0.4963   0.3337   0.8738   0.3602   0.4610   0.6007  -0.19    0.0
2017/07/23 10:58:52.800   2773747.6871   1652347.0051   5482227.7366   2  19   0.4914   0.3303   0.8654   0.3567   0.4566   0.5951  -0.19    0.0
2017/07/23 10:58:53.000   2773747.6770   1652346.9999   5482227.7277   2  19   0.4866   0.3270   0.8572   0.3533   0.4523   0.5895  -0.19    0.0
2017/07/23 10:58:53.200   2773747.6651   1652346.9955   5482227.7167   2  19   0.4819   0.3238   0.8491   0.3499   0.4481   0.5840  -0.19    0.0
2017/07/23 10:58:53.400   2773747.6517   1652346.9930   5482227.7058   2  19   0.4773   0.3207   0.8411   0.3466   0.4440   0.5786  -0.19    0.0
2017/07/23 10:58:53.600   2773747.6395   1652346.9893   5482227.6942   2  19   0.4727   0.3176   0.8334   0.3433   0.4399   0.5733  -0.19    1.3
2017/07/23 10:58:53.800   2773747.6228   1652346.9841   5482227.6726   2  19   0.4683   0.3146   0.8257   0.3401   0.4359   0.5680  -0.19    1.3
2017/07/23 10:58:54.000   2773747.6133   1652346.9821   5482227.6630   2  19   0.4640   0.3117   0.8182   0.3370   0.4320   0.5629  -0.19    1.3
2017/07/23 10:58:54.200   2773747.6044   1652346.9799   5482227.6526   2  19   0.4597   0.3088   0.8109   0.3339   0.4281   0.5578  -0.19    1.3
2017/07/23 10:58:54.400   2773747.5960   1652346.9769   5482227.6416   2  19   0.4555   0.3060   0.8036   0.3309   0.4243   0.5529  -0.19    1.3
2017/07/23 10:58:54.600   2773747.5884   1652346.9725   5482227.6329   2  19   0.4514   0.3032   0.7965   0.3280   0.4206   0.5480  -0.19    1.3
2017/07/23 10:58:54.800   2773747.5790   1652346.9657   5482227.6162   2  19   0.4474   0.3006   0.7895   0.3251   0.4169   0.5432  -0.19    1.3
2017/07/23 10:58:55.000   2773747.5670   1652346.9572   5482227.5943   2  19   0.4435   0.2979   0.7827   0.3222   0.4133   0.5385  -0.19    1.3
2017/07/23 10:58:55.200   2773747.5558   1652346.9497   5482227.5751   2  19   0.4396   0.2954   0.7759   0.3195   0.4098   0.5338  -0.19    1.3
2017/07/23 10:58:55.400   2773747.5396   1652346.9397   5482227.5480   2  19   0.4358   0.2928   0.7693   0.3167   0.4063   0.5292  -0.19    1.3
2017/07/23 10:58:55.600   2773747.5246   1652346.9295   5482227.5179   2  19   0.4321   0.2904   0.7628   0.3140   0.4029   0.5247  -0.19    1.3
2017/07/23 10:58:55.800   2773747.5130   1652346.9215   5482227.4925   2  19   0.4284   0.2880   0.7564   0.3114   0.3995   0.5203  -0.19    1.3
2017/07/23 10:58:56.000   2773747.4985   1652346.9128   5482227.4664   2  19   0.4248   0.2856   0.7502   0.3088   0.3962   0.5160  -0.19    1.3
2017/07/23 10:58:56.200   2773747.4789   1652346.9010   5482227.4298   2  19   0.4213   0.2833   0.7440   0.3062   0.3930   0.5117  -0.19    1.3
2017/07/23 10:58:56.400   2773747.4728   1652346.8980   5482227.4178   2  19   0.4179   0.2810   0.7379   0.3037   0.3898   0.5075  -0.19    1.3
2017/07/23 10:58:56.600   2773747.4654   1652346.8941   5482227.4016   2  19   0.4145   0.2788   0.7320   0.3013   0.3867   0.5034  -0.19    1.3
2017/07/23 10:58:56.800   2773747.4578   1652346.8901   5482227.3865   2  19   0.4111   0.2766   0.7261   0.2989   0.3836   0.4993  -0.19    1.3
2017/07/23 10:58:57.000   2773747.4504   1652346.8866   5482227.3736   2  19   0.4078   0.2744   0.7204   0.2965   0.3805   0.4953  -0.19    1.3
2017/07/23 10:58:57.200   2773747.4466   1652346.8864   5482227.3685   2  19   0.4046   0.2723   0.7147   0.2942   0.3776   0.4914  -0.19    1.3
2017/07/23 10:58:57.400   2773747.4398   1652346.8847   5482227.3586   2  19   0.4015   0.2703   0.7092   0.2919   0.3746   0.4875  -0.19    1.3
2017/07/23 10:58:57.600   2773747.4303   1652346.8806   5482227.3425   2  19   0.3983   0.2683   0.7037   0.2896   0.3717   0.4837  -0.19    1.3
2017/07/23 10:58:57.800   2773747.4232   1652346.8778   5482227.3309   2  19   0.3953   0.2663   0.6983   0.2874   0.3689   0.4800  -0.19    1.3
2017/07/23 10:58:58.000   2773747.4077   1652346.8706   5482227.3018   2  19   0.3923   0.2643   0.6931   0.2852   0.3661   0.4763  -0.19    1.3
2017/07/23 10:58:58.200   2773747.3952   1652346.8660   5482227.2818   2  19   0.3893   0.2624   0.6879   0.2831   0.3634   0.4727  -0.19    1.3
2017/07/23 10:58:58.400   2773747.3848   1652346.8632   5482227.2651   2  19   0.3864   0.2605   0.6827   0.2810   0.3607   0.4691  -0.19    1.3
2017/07/23 10:58:58.600   2773747.3757   1652346.8604   5482227.2507   2  19   0.3836   0.2587   0.6777   0.2789   0.3580   0.4656  -0.19    1.3
2017/07/23 10:58:58.800   2773747.3635   1652346.8565   5482227.2301   2  19   0.3808   0.2569   0.6728   0.2769   0.3554   0.4622  -0.19    1.2
2017/07/23 10:58:59.000   2773747.3556   1652346.8555   5482227.2186   2  19   0.3780   0.2551   0.6679   0.2749   0.3529   0.4588  -0.19    1.2
2017/07/23 10:58:59.200   2773747.3438   1652346.8517   5482227.2015   2  19   0.3753   0.2533   0.6631   0.2729   0.3503   0.4555  -0.19    1.2
2017/07/23 10:58:59.400   2773747.3317   1652346.8476   5482227.1829   2  19   0.3727   0.2516   0.6584   0.2710   0.3478   0.4522  -0.19    1.2
2017/07/23 10:58:59.600   2773747.3183   1652346.8436   5482227.1588   2  19   0.3700   0.2499   0.6538   0.2691   0.3454   0.4490  -0.19    1.2
2017/07/23 10:58:59.800   2773747.3022   1652346.8371   5482227.1303   2  19   0.3675   0.2482   0.6492   0.2672   0.3430   0.4458  -0.19    1.2
2017/07/23 10:59:00.000   2773747.2843   1652346.8302   5482227.0991   2  19   0.3649   0.2466   0.6448   0.2654   0.3406   0.4426  -0.19    1.2
2017/07/23 10:59:00.200   2773747.2692   1652346.8253   5482227.0757   2  19   0.3624   0.2450   0.6403   0.2636   0.3383   0.4396  -0.19    1.2
2017/07/23 10:59:00.400   2773747.2530   1652346.8193   5482227.0555   2  19   0.3600   0.2434   0.6360   0.2618   0.3360   0.4365  -0.19    1.2
2017/07/23 10:59:00.600   2773747.2407   1652346.8162   5482227.0439   2  19   0.3576   0.2419   0.6317   0.2601   0.3337   0.4335  -0.19    1.2
2017/07/23 10:59:00.800   2773747.2276   1652346.8114   5482227.0292   2  19   0.3552   0.2403   0.6275   0.2583   0.3315   0.4306  -0.19    1.2
2017/07/23 10:59:01.000   2773747.2102   1652346.8038   5482227.0033   2  19   0.3529   0.2388   0.6234   0.2566   0.3293   0.4277  -0.19    1.2
2017/07/23 10:59:01.200   2773747.1953   1652346.7975   5482226.9850   2  19   0.3506   0.2373   0.6193   0.2550   0.3272   0.4249  -0.19    1.2
2017/07/23 10:59:01.400   2773747.1792   1652346.7897   5482226.9638   2  19   0.3483   0.2359   0.6153   0.2533   0.3250   0.4221  -0.19    1.2
2017/07/23 10:59:01.600   2773747.1632   1652346.7821   5482226.9425   2  19   0.3461   0.2345   0.6113   0.2517   0.3229   0.4193  -0.19    1.2
2017/07/23 10:59:01.800   2773747.1498   1652346.7763   5482226.9263   2  19   0.3439   0.2330   0.6074   0.2501   0.3209   0.4166  -0.19    1.2
2017/07/23 10:59:02.000   2773747.1326   1652346.7692   5482226.9038   2  19   0.3417   0.2317   0.6036   0.2485   0.3188   0.4139  -0.19    1.2
2017/07/23 10:59:02.200   2773747.1179   1652346.7636   5482226.8846   2  19   0.3396   0.2303   0.5998   0.2470   0.3168   0.4112  -0.19    1.2
2017/07/23 10:59:02.400   2773747.1002   1652346.7556   5482226.8608   2  19   0.3375   0.2289   0.5961   0.2455   0.3149   0.4086  -0.19    1.2
2017/07/23 10:59:02.600   2773747.0881   1652346.7506   5482226.8491   2  19   0.3354   0.2276   0.5924   0.2440   0.3129   0.4061  -0.19    1.2
2017/07/23 10:59:02.800   2773747.0777   1652346.7468   5482226.8390   2  19   0.3334   0.2263   0.5888   0.2425   0.3110   0.4035  -0.19    1.2
2017/07/23 10:59:03.000   2773747.0682   1652346.7434   5482226.8316   2  19   0.3314   0.2250   0.5852   0.2410   0.3091   0.4011  -0.19    1.2
2017/07/23 10:59:03.200   2773747.0584   1652346.7401   5482226.8239   2  19   0.3294   0.2238   0.5817   0.2396   0.3073   0.3986  -0.19    1.2
2017/07/23 10:59:03.400   2773747.0498   1652346.7375   5482226.8183   2  19   0.3275   0.2225   0.5783   0.2382   0.3054   0.3962  -0.19    1.2
2017/07/23 10:59:03.600   2773747.0432   1652346.7349   5482226.8152   2  19   0.3256   0.2213   0.5749   0.2368   0.3036   0.3938  -0.19    1.2
2017/07/23 10:59:03.800   2773747.0386   1652346.7336   5482226.8165   2  19   0.3237   0.2201   0.5715   0.2354   0.3019   0.3914  -0.19    1.2
2017/07/23 10:59:04.000   2773746.9865   1652346.7057   5482226.7404   2  19   0.3168   0.2165   0.5573   0.2302   0.2945   0.3813  -0.19    1.2
2017/07/23 10:59:04.200   2773746.9618   1652346.6925   5482226.7054   2  19   0.3105   0.2133   0.5445   0.2255   0.2878   0.3722  -0.19    1.2
2017/07/23 10:59:04.400   2773746.9250   1652346.6720   5482226.6522   2  19   0.3048   0.2103   0.5327   0.2212   0.2816   0.3639  -0.19    1.2
2017/07/23 10:59:04.600   2773746.9104   1652346.6633   5482226.6398   2  19   0.2996   0.2075   0.5220   0.2173   0.2761   0.3563  -0.19    1.1
2017/07/23 10:59:04.800   2773746.8782   1652346.6452   5482226.5999   2  19   0.2947   0.2049   0.5121   0.2136   0.2709   0.3493  -0.19    1.1
2017/07/23 10:59:05.000   2773746.8511   1652346.6301   5482226.5653   2  19   0.2902   0.2025   0.5029   0.2102   0.2661   0.3428  -0.19    1.1
2017/07/23 10:59:05.200   2773746.8327   1652346.6184   5482226.5565   2  19   0.2860   0.2002   0.4943   0.2071   0.2616   0.3368  -0.19    1.1
2017/07/23 10:59:05.400   2773746.8115   1652346.6055   5482226.5250   2  19   0.2821   0.1981   0.4863   0.2041   0.2575   0.3311  -0.19    1.1
2017/07/23 10:59:05.600   2773746.7893   1652346.5917   5482226.4968   2  19   0.2783   0.1960   0.4788   0.2013   0.2535   0.3258  -0.19    1.1
2017/07/23 10:59:05.800   2773746.7755   1652346.5821   5482226.4856   2  19   0.2748   0.1941   0.4717   0.1986   0.2498   0.3209  -0.19    1.1
2017/07/23 10:59:06.000   2773746.7604   1652346.5708   5482226.4676   2  19   0.2715   0.1922   0.4650   0.1961   0.2463   0.3162  -0.19    1.1
2017/07/23 10:59:06.200   2773746.7582   1652346.5670   5482226.4691   2  19   0.2683   0.1904   0.4586   0.1937   0.2430   0.3117  -0.19    1.1
2017/07/23 10:59:06.400   2773746.7548   1652346.5632   5482226.4625   2  19   0.2653   0.1887   0.4525   0.1915   0.2399   0.3075  -0.19    1.1
2017/07/23 10:59:06.600   2773746.7560   1652346.5607   5482226.4750   2  19   0.2624   0.1871   0.4468   0.1893   0.2369   0.3035  -0.19    1.1
2017/07/23 10:59:06.800   2773746.7585   1652346.5597   5482226.4838   2  19   0.2597   0.1855   0.4412   0.1872   0.2340   0.2996  -0.19    1.1
2017/07/23 10:59:07.000   2773746.7578   1652346.5575   5482226.4848   2  19   0.2570   0.1840   0.4360   0.1852   0.2313   0.2960  -0.19    1.1
2017/07/23 10:59:07.200   2773746.7606   1652346.5562   5482226.4891   2  19   0.2545   0.1825   0.4309   0.1833   0.2286   0.2925  -0.19    1.1
2017/07/23 10:59:07.400   2773746.7592   1652346.5530   5482226.4911   2  19   0.2520   0.1811   0.4260   0.1814   0.2261   0.2891  -0.19    1.0
2017/07/23 10:59:07.600   2773746.7623   1652346.5527   5482226.4986   2  19   0.2497   0.1797   0.4214   0.1796   0.2236   0.2858  -0.19    1.0
2017/07/23 10:59:07.800   2773746.7591   1652346.5462   5482226.4931   2  19   0.2474   0.1784   0.4169   0.1779   0.2213   0.2827  -0.19    1.0
2017/07/23 10:59:08.000   2773746.7553   1652346.5410   5482226.4988   2  19   0.2452   0.1771   0.4125   0.1763   0.2190   0.2797  -0.19    1.0
2017/07/23 10:59:08.200   2773746.7462   1652346.5322   5482226.4935   2  19   0.2431   0.1758   0.4083   0.1747   0.2168   0.2768  -0.19    1.0
2017/07/23 10:59:08.400   2773746.7397   1652346.5254   5482226.4854   2  19   0.2410   0.1746   0.4042   0.1731   0.2147   0.2740  -0.19    1.0
2017/07/23 10:59:08.600   2773746.7389   1652346.5231   5482226.4834   2  19   0.2390   0.1734   0.4003   0.1716   0.2127   0.2713  -0.19    1.0
2017/07/23 10:59:08.800   2773746.7278   1652346.5132   5482226.4612   2  19   0.2370   0.1722   0.3965   0.1701   0.2107   0.2686  -0.19    1.0
2017/07/23 10:59:09.000   2773746.7239   1652346.5072   5482226.4615   2  19   0.2351   0.1711   0.3928   0.1687   0.2087   0.2661  -0.19    1.0
2017/07/23 10:59:09.200   2773746.7245   1652346.5037   5482226.4615   2  19   0.2333   0.1699   0.3892   0.1673   0.2069   0.2636  -0.19    1.0
2017/07/23 10:59:09.400   2773746.7204   1652346.4973   5482226.4563   2  19   0.2315   0.1689   0.3856   0.1659   0.2050   0.2612  -0.19    1.0
2017/07/23 10:59:09.600   2773746.7165   1652346.4907   5482226.4532   2  19   0.2297   0.1678   0.3822   0.1646   0.2033   0.2588  -0.19    1.0
2017/07/23 10:59:09.800   2773746.7182   1652346.4877   5482226.4538   2  19   0.2280   0.1667   0.3789   0.1633   0.2015   0.2565  -0.19    1.0
2017/07/23 10:59:10.000   2773746.7198   1652346.4852   5482226.4552   2  19   0.2263   0.1657   0.3757   0.1620   0.1998   0.2543  -0.19    1.0
2017/07/23 10:59:10.200   2773746.7206   1652346.4831   5482226.4572   2  19   0.2247   0.1647   0.3725   0.1608   0.1982   0.2521  -0.19    1.0
2017/07/23 10:59:10.400   2773746.7137   1652346.4757   5482226.4449   2  19   0.2231   0.1637   0.3694   0.1596   0.1966   0.2500  -0.19    1.1
2017/07/23 10:59:10.600   2773746.7125   1652346.4717   5482226.4424   2  19   0.2215   0.1627   0.3664   0.1584   0.1950   0.2479  -0.19    1.1
2017/07/23 10:59:10.800   2773746.7179   1652346.4712   5482226.4478   2  19   0.2200   0.1618   0.3634   0.1573   0.1934   0.2459  -0.19    1.1
2017/07/23 10:59:11.000   2773746.7099   1652346.4629   5482226.4310   2  19   0.2185   0.1609   0.3605   0.1561   0.1919   0.2439  -0.19    1.1
2017/07/23 10:59:11.200   2773746.7062   1652346.4579   5482226.4229   2  19   0.2170   0.1600   0.3577   0.1550   0.1905   0.2420  -0.19    1.1
2017/07/23 10:59:11.400   2773746.7025   1652346.4512   5482226.4096   2  19   0.2155   0.1590   0.3549   0.1539   0.1890   0.2401  -0.19    1.1
2017/07/23 10:59:11.600   2773746.7020   1652346.4480   5482226.4041   2  19   0.2141   0.1582   0.3522   0.1529   0.1876   0.2382  -0.19    1.1
2017/07/23 10:59:11.800   2773746.7003   1652346.4438   5482226.3965   2  19   0.2127   0.1573   0.3495   0.1518   0.1862   0.2364  -0.19    1.1
2017/07/23 10:59:12.000   2773746.6982   1652346.4400   5482226.3926   2  19   0.2113   0.1564   0.3469   0.1508   0.1848   0.2346  -0.19    1.1
2017/07/23 10:59:12.200   2773746.6976   1652346.4357   5482226.3910   2  19   0.2100   0.1556   0.3443   0.1498   0.1835   0.2328  -0.19    1.1
2017/07/23 10:59:12.400   2773746.6937   1652346.4300   5482226.3840   2  19   0.2087   0.1548   0.3418   0.1488   0.1822   0.2311  -0.19    1.1
2017/07/23 10:59:12.600   2773746.6907   1652346.4248   5482226.3798   2  19   0.2074   0.1539   0.3393   0.1478   0.1809   0.2294  -0.19    1.1
2017/07/23 10:59:12.800   2773746.6851   1652346.4182   5482226.3686   2  19   0.2061   0.1531   0.3369   0.1468   0.1796   0.2278  -0.19    1.1
2017/07/23 10:59:13.000   2773746.6793   1652346.4115   5482226.3541   2  19   0.2048   0.1523   0.3345   0.1459   0.1784   0.2261  -0.19    1.1
2017/07/23 10:59:13.200   2773746.6785   1652346.4077   5482226.3504   2  19   0.2036   0.1516   0.3322   0.1450   0.1772   0.2245  -0.19    1.1
2017/07/23 10:59:13.400   2773746.6793   1652346.4046   5482226.3474   2  19   0.2024   0.1508   0.3299   0.1440   0.1759   0.2230  -0.19    1.1
2017/07/23 10:59:13.600   2773746.6812   1652346.4020   5482226.3407   2  19   0.2012   0.1500   0.3276   0.1431   0.1748   0.2214  -0.19    1.1
2017/07/23 10:59:13.800   2773746.6848   1652346.3998   5482226.3397   2  19   0.2000   0.1493   0.3253   0.1422   0.1736   0.2199  -0.19    1.1
2017/07/23 10:59:14.000   2773746.6850   1652346.3959   5482226.3314   2  19   0.1988   0.1485   0.3231   0.1414   0.1724   0.2184  -0.19    1.1
2017/07/23 10:59:14.200   2773746.6878   1652346.3935   5482226.3298   2  19   0.1977   0.1478   0.3210   0.1405   0.1713   0.2169  -0.19    1.1
2017/07/23 10:59:14.400   2773746.6886   1652346.3905   5482226.3288   2  19   0.1965   0.1471   0.3188   0.1397   0.1702   0.2154  -0.19    1.1
2017/07/23 10:59:14.600   2773746.6927   1652346.3878   5482226.3286   2  19   0.1954   0.1463   0.3167   0.1388   0.1691   0.2140  -0.19    1.1
2017/07/23 10:59:14.800   2773746.6938   1652346.3842   5482226.3245   2  19   0.1943   0.1456   0.3146   0.1380   0.1680   0.2126  -0.19    1.1
2017/07/23 10:59:15.000   2773746.6941   1652346.3798   5482226.3178   2  19   0.1932   0.1449   0.3126   0.1372   0.1669   0.2112  -0.19    1.1
2017/07/23 10:59:15.200   2773746.6928   1652346.3736   5482226.3133   2  19   0.1922   0.1443   0.3105   0.1364   0.1659   0.2098  -0.19    1.1
2017/07/23 10:59:15.400   2773746.6919   1652346.3672   5482226.3122   2  19   0.1911   0.1436   0.3085   0.1356   0.1648   0.2085  -0.19    1.1
2017/07/23 10:59:15.600   2773746.6912   1652346.3620   5482226.3064   2  19   0.1900   0.1429   0.3066   0.1348   0.1638   0.2071  -0.19    1.1
2017/07/23 10:59:15.800   2773746.6959   1652346.3600   5482226.3057   2  19   0.1890   0.1422   0.3046   0.1340   0.1628   0.2058  -0.19    1.1
2017/07/23 10:59:16.000   2773746.7027   1652346.3588   5482226.3074   2  19   0.1880   0.1416   0.3027   0.1332   0.1618   0.2045  -0.19    1.1
2017/07/23 10:59:16.200   2773746.7052   1652346.3558   5482226.3032   2  19   0.1870   0.1409   0.3008   0.1325   0.1608   0.2032  -0.19    1.1
2017/07/23 10:59:16.400   2773746.7080   1652346.3525   5482226.2995   2  19   0.1860   0.1403   0.2989   0.1317   0.1598   0.2019  -0.19    1.1
2017/07/23 10:59:16.600   2773746.7113   1652346.3495   5482226.2975   2  19   0.1850   0.1396   0.2971   0.1310   0.1589   0.2007  -0.19    1.1
2017/07/23 10:59:16.800   2773746.7096   1652346.3449   5482226.2925   2  19   0.1840   0.1390   0.2952   0.1302   0.1579   0.1994  -0.19    1.1
2017/07/23 10:59:17.000   2773746.7104   1652346.3420   5482226.2887   2  19   0.1831   0.1384   0.2934   0.1295   0.1570   0.1982  -0.19    1.1
2017/07/23 10:59:17.200   2773746.7123   1652346.3403   5482226.2823   2  19   0.1821   0.1378   0.2917   0.1288   0.1560   0.1970  -0.19    1.1
2017/07/23 10:59:17.400   2773746.7121   1652346.3380   5482226.2740   2  19   0.1812   0.1372   0.2899   0.1281   0.1551   0.1958  -0.19    1.0
2017/07/23 10:59:17.600   2773746.7135   1652346.3366   5482226.2705   2  19   0.1802   0.1366   0.2881   0.1274   0.1542   0.1946  -0.19    1.0
2017/07/23 10:59:17.800   2773746.7136   1652346.3344   5482226.2618   2  19   0.1793   0.1360   0.2864   0.1267   0.1533   0.1935  -0.19    1.0
2017/07/23 10:59:18.000   2773746.7101   1652346.3307   5482226.2527   2  19   0.1784   0.1354   0.2847   0.1260   0.1524   0.1923  -0.19    1.0
2017/07/23 10:59:18.200   2773746.7081   1652346.3278   5482226.2482   2  19   0.1775   0.1348   0.2830   0.1253   0.1515   0.1912  -0.19    1.0
2017/07/23 10:59:18.400   2773746.7060   1652346.3247   5482226.2434   2  19   0.1766   0.1342   0.2814   0.1247   0.1507   0.1900  -0.19    1.0
2017/07/23 10:59:18.600   2773746.7024   1652346.3202   5482226.2341   2  19   0.1757   0.1336   0.2797   0.1240   0.1498   0.1889  -0.19    1.0
2017/07/23 10:59:18.800   2773746.6961   1652346.3141   5482226.2234   2  19   0.1748   0.1330   0.2781   0.1233   0.1490   0.1878  -0.19    1.0
2017/07/23 10:59:19.000   2773746.6885   1652346.3069   5482226.2126   2  19   0.1740   0.1325   0.2764   0.1227   0.1481   0.1867  -0.19    1.0
2017/07/23 10:59:19.200   2773746.6860   1652346.3020   5482226.2049   2  19   0.1731   0.1319   0.2748   0.1220   0.1473   0.1856  -0.19    1.1
2017/07/23 10:59:19.400   2773746.6777   1652346.2941   5482226.1908   2  19   0.1723   0.1314   0.2733   0.1214   0.1465   0.1846  -0.19    1.1
2017/07/23 10:59:19.600   2773746.6731   1652346.2875   5482226.1775   2  19   0.1714   0.1308   0.2717   0.1208   0.1456   0.1835  -0.19    1.1
2017/07/23 10:59:19.800   2773746.6675   1652346.2806   5482226.1671   2  19   0.1706   0.1303   0.2701   0.1202   0.1448   0.1825  -0.19    1.1
2017/07/23 10:59:20.000   2773746.6654   1652346.2762   5482226.1625   2  19   0.1698   0.1297   0.2686   0.1195   0.1440   0.1814  -0.19    1.1
2017/07/23 10:59:20.200   2773746.6618   1652346.2689   5482226.1533   2  19   0.1690   0.1292   0.2671   0.1189   0.1432   0.1804  -0.19    1.1
2017/07/23 10:59:20.400   2773746.6576   1652346.2615   5482226.1463   2  19   0.1682   0.1287   0.2656   0.1183   0.1424   0.1794  -0.19    1.1
2017/07/23 10:59:20.600   2773746.6523   1652346.2536   5482226.1373   2  19   0.1674   0.1281   0.2641   0.1177   0.1417   0.1784  -0.19    1.1
2017/07/23 10:59:20.800   2773746.6471   1652346.2455   5482226.1262   2  19   0.1666   0.1276   0.2626   0.1171   0.1409   0.1774  -0.19    1.1
2017/07/23 10:59:21.000   2773746.6361   1652346.2346   5482226.1078   2  19   0.1658   0.1271   0.2611   0.1165   0.1401   0.1764  -0.19    1.1
2017/07/23 10:59:21.200   2773746.6286   1652346.2253   5482226.0939   2  19   0.1650   0.1266   0.2597   0.1159   0.1394   0.1754  -0.19    1.1
2017/07/23 10:59:21.400   2773746.6264   1652346.2193   5482226.0867   2  19   0.1642   0.1261   0.2583   0.1153   0.1386   0.1745  -0.19    1.1
2017/07/23 10:59:21.600   2773746.6194   1652346.2106   5482226.0718   2  19   0.1635   0.1256   0.2568   0.1148   0.1379   0.1735  -0.19    1.1
2017/07/23 10:59:21.800   2773746.6134   1652346.2026   5482226.0640   2  19   0.1627   0.1251   0.2554   0.1142   0.1372   0.1726  -0.19    1.1
2017/07/23 10:59:22.000   2773746.6093   1652346.1943   5482226.0542   2  19   0.1619   0.1246   0.2540   0.1136   0.1364   0.1716  -0.19    1.1
2017/07/23 10:59:22.200   2773746.6094   1652346.1898   5482226.0537   2  19   0.1612   0.1241   0.2526   0.1131   0.1357   0.1707  -0.19    1.1
2017/07/23 10:59:22.400   2773746.6091   1652346.1849   5482226.0527   2  19   0.1605   0.1236   0.2513   0.1125   0.1350   0.1698  -0.19    1.1
2017/07/23 10:59:22.600   2773746.6049   1652346.1787   5482226.0466   2  19   0.1597   0.1231   0.2499   0.1119   0.1343   0.1688  -0.19    1.1
2017/07/23 10:59:22.800   2773746.6002   1652346.1726   5482226.0355   2  19   0.1590   0.1226   0.2486   0.1114   0.1336   0.1679  -0.19    1.1
2017/07/23 10:59:23.000   2773746.5935   1652346.1655   5482226.0277   2  19   0.1583   0.1222   0.2472   0.1109   0.1329   0.1670  -0.19    1.1
2017/07/23 10:59:23.200   2773746.5849   1652346.1563   5482226.0146   2  19   0.1576   0.1217   0.2459   0.1103   0.1322   0.1661  -0.19    1.1
2017/07/23 10:59:23.400   2773746.5791   1652346.1490   5482226.0030   2  19   0.1568   0.1212   0.2446   0.1098   0.1315   0.1653  -0.19    1.1
2017/07/23 10:59:23.600   2773746.5724   1652346.1401   5482225.9884   2  19   0.1561   0.1208   0.2433   0.1092   0.1308   0.1644  -0.19    1.1
2017/07/23 10:59:23.800   2773746.5696   1652346.1351   5482225.9802   2  19   0.1554   0.1203   0.2420   0.1087   0.1302   0.1635  -0.19    1.1
2017/07/23 10:59:24.000   2773746.5673   1652346.1300   5482225.9722   2  19   0.1547   0.1198   0.2407   0.1082   0.1295   0.1627  -0.19    1.1
2017/07/23 10:59:24.200   2773746.5656   1652346.1244   5482225.9671   2  19   0.1541   0.1194   0.2394   0.1077   0.1288   0.1618  -0.19    1.1
2017/07/23 10:59:24.400   2773746.5638   1652346.1193   5482225.9633   2  19   0.1534   0.1189   0.2382   0.1072   0.1282   0.1610  -0.19    1.1
2017/07/23 10:59:24.600   2773746.5617   1652346.1132   5482225.9528   2  19   0.1527   0.1185   0.2369   0.1067   0.1275   0.1601  -0.19    1.1
2017/07/23 10:59:24.800   2773746.5580   1652346.1063   5482225.9437   2  19   0.1520   0.1180   0.2357   0.1061   0.1269   0.1593  -0.19    1.1
2017/07/23 10:59:25.000   2773746.5578   1652346.1013   5482225.9427   2  19   0.1514   0.1176   0.2344   0.1056   0.1262   0.1585  -0.19    1.1
2017/07/23 10:59:25.200   2773746.5586   1652346.0971   5482225.9398   2  19   0.1507   0.1172   0.2332   0.1051   0.1256   0.1576  -0.19    1.1
2017/07/23 10:59:25.400   2773746.5611   1652346.0936   5482225.9395   2  19   0.1500   0.1167   0.2320   0.1046   0.1250   0.1568  -0.19    1.1
2017/07/23 10:59:25.600   2773746.5625   1652346.0900   5482225.9427   2  19   0.1494   0.1163   0.2308   0.1042   0.1244   0.1560  -0.19    1.1
2017/07/23 10:59:25.800   2773746.5603   1652346.0839   5482225.9398   2  19   0.1487   0.1159   0.2296   0.1037   0.1237   0.1552  -0.19    1.1
2017/07/23 10:59:26.000   2773746.5575   1652346.0772   5482225.9366   2  19   0.1481   0.1154   0.2284   0.1032   0.1231   0.1544  -0.19    1.1
2017/07/23 10:59:26.200   2773746.5553   1652346.0714   5482225.9354   2  19   0.1475   0.1150   0.2273   0.1027   0.1225   0.1537  -0.19    1.1
2017/07/23 10:59:26.400   2773746.5527   1652346.0650   5482225.9335   2  19   0.1468   0.1146   0.2261   0.1022   0.1219   0.1529  -0.19    1.1
2017/07/23 10:59:26.600   2773746.5522   1652346.0599   5482225.9364   2  19   0.1462   0.1142   0.2250   0.1017   0.1213   0.1521  -0.19    1.1
2017/07/23 10:59:26.800   2773746.5481   1652346.0534   5482225.9319   2  19   0.1456   0.1138   0.2238   0.1013   0.1207   0.1513  -0.19    1.1
2017/07/23 10:59:27.000   2773746.5439   1652346.0460   5482225.9256   2  19   0.1450   0.1134   0.2227   0.1008   0.1201   0.1506  -0.19    1.1
2017/07/23 10:59:27.200   2773746.5411   1652346.0401   5482225.9232   2  19   0.1444   0.1130   0.2215   0.1003   0.1195   0.1498  -0.19    1.1
2017/07/23 10:59:27.400   2773746.5380   1652346.0333   5482225.9213   2  19   0.1437   0.1126   0.2204   0.0999   0.1189   0.1491  -0.19    1.1
2017/07/23 10:59:27.600   2773746.5354   1652346.0267   5482225.9169   2  19   0.1431   0.1121   0.2193   0.0994   0.1184   0.1483  -0.19    1.1
2017/07/23 10:59:27.800   2773746.5334   1652346.0204   5482225.9155   2  19   0.1425   0.1117   0.2182   0.0990   0.1178   0.1476  -0.19    1.1
2017/07/23 10:59:28.000   2773746.5337   1652346.0150   5482225.9155   2  19   0.1419   0.1114   0.2171   0.0985   0.1172   0.1469  -0.19    1.1
2017/07/23 10:59:28.200   2773746.5323   1652346.0081   5482225.9159   2  19   0.1413   0.1110   0.2160   0.0981   0.1167   0.1461  -0.19    1.1
2017/07/23 10:59:28.400   2773746.5318   1652346.0023   5482225.9162   2  19   0.1408   0.1106   0.2150   0.0976   0.1161   0.1454  -0.19    1.1
2017/07/23 10:59:28.600   2773746.5301   1652345.9953   5482225.9143   2  19   0.1402   0.1102   0.2139   0.0972   0.1155   0.1447  -0.19    1.1
2017/07/23 10:59:28.800   2773746.5303   1652345.9893   5482225.9162   2  19   0.1396   0.1098   0.2128   0.0967   0.1150   0.1440  -0.19    1.1
2017/07/23 10:59:29.000   2773746.5320   1652345.9846   5482225.9211   2  19   0.1390   0.1094   0.2118   0.0963   0.1144   0.1433  -0.19    1.1
2017/07/23 10:59:29.200   2773746.5312   1652345.9777   5482225.9199   2  19   0.1384   0.1090   0.2107   0.0959   0.1139   0.1426  -0.19    1.1
2017/07/23 10:59:29.400   2773746.5335   1652345.9725   5482225.9177   2  19   0.1379   0.1086   0.2097   0.0954   0.1134   0.1419  -0.19    1.1
2017/07/23 10:59:29.600   2773746.5375   1652345.9694   5482225.9207   2  19   0.1373   0.1083   0.2087   0.0950   0.1128   0.1412  -0.19    1.1
2017/07/23 10:59:29.800   2773746.5361   1652345.9631   5482225.9174   2  19   0.1368   0.1079   0.2076   0.0946   0.1123   0.1405  -0.19    1.1
2017/07/23 10:59:30.000   2773746.5350   1652345.9565   5482225.9117   2  19   0.1362   0.1075   0.2066   0.0942   0.1118   0.1399  -0.19    1.1
2017/07/23 10:59:30.200   2773746.5322   1652345.9481   5482225.8984   2  19   0.1356   0.1072   0.2056   0.0937   0.1112   0.1392  -0.19    1.1
2017/07/23 10:59:30.400   2773746.5310   1652345.9413   5482225.8932   2  19   0.1351   0.1068   0.2046   0.0933   0.1107   0.1385  -0.19    1.1
2017/07/23 10:59:30.600   2773746.5299   1652345.9342   5482225.8895   2  19   0.1345   0.1064   0.2036   0.0929   0.1102   0.1378  -0.19    1.1
2017/07/23 10:59:30.800   2773746.5307   1652345.9289   5482225.8872   2  19   0.1340   0.1061   0.2026   0.0925   0.1097   0.1372  -0.19    1.1
2017/07/23 10:59:31.000   2773746.5351   1652345.9264   5482225.8909   2  19   0.1335   0.1057   0.2017   0.0921   0.1092   0.1365  -0.19    1.1
2017/07/23 10:59:31.200   2773746.5369   1652345.9228   5482225.8904   2  19   0.1329   0.1053   0.2007   0.0917   0.1087   0.1359  -0.19    1.1
2017/07/23 10:59:31.400   2773746.5360   1652345.9169   5482225.8890   2  19   0.1324   0.1050   0.1997   0.0913   0.1082   0.1352  -0.19    1.1
2017/07/23 10:59:31.600   2773746.5374   1652345.9125   5482225.8872   2  19   0.1319   0.1046   0.1988   0.0909   0.1077   0.1346  -0.19    1.1
2017/07/23 10:59:31.800   2773746.5388   1652345.9083   5482225.8860   2  19   0.1313   0.1043   0.1978   0.0905   0.1072   0.1340  -0.19    1.1
2017/07/23 10:59:32.000   2773746.5415   1652345.9050   5482225.8887   2  19   0.1308   0.1039   0.1969   0.0901   0.1067   0.1333  -0.19    1.2
2017/07/23 10:59:32.200   2773746.5418   1652345.8994   5482225.8885   2  19   0.1303   0.1036   0.1959   0.0897   0.1062   0.1327  -0.19    1.2
2017/07/23 10:59:32.400   2773746.5410   1652345.8930   5482225.8844   2  19   0.1298   0.1032   0.1950   0.0893   0.1057   0.1321  -0.19    1.2
2017/07/23 10:59:32.600   2773746.5407   1652345.8874   5482225.8835   2  19   0.1293   0.1029   0.1941   0.0889   0.1052   0.1315  -0.19    1.2
2017/07/23 10:59:32.800   2773746.5404   1652345.8825   5482225.8816   2  19   0.1288   0.1026   0.1931   0.0885   0.1047   0.1309  -0.19    1.2
2017/07/23 10:59:33.000   2773746.5404   1652345.8781   5482225.8824   2  19   0.1283   0.1022   0.1922   0.0881   0.1043   0.1303  -0.19    1.2
2017/07/23 10:59:33.200   2773746.5409   1652345.8732   5482225.8819   2  19   0.1278   0.1019   0.1913   0.0878   0.1038   0.1296  -0.19    1.2
2017/07/23 10:59:33.400   2773746.5399   1652345.8672   5482225.8802   2  19   0.1273   0.1015   0.1904   0.0874   0.1033   0.1290  -0.19    1.2
2017/07/23 10:59:33.600   2773746.5388   1652345.8615   5482225.8786   2  19   0.1268   0.1012   0.1895   0.0870   0.1029   0.1285  -0.19    1.2
2017/07/23 10:59:33.800   2773746.5374   1652345.8561   5482225.8781   2  19   0.1263   0.1009   0.1886   0.0866   0.1024   0.1279  -0.19    1.2
2017/07/23 10:59:34.000   2773746.5377   1652345.8516   5482225.8766   2  19   0.1258   0.1006   0.1878   0.0863   0.1019   0.1273  -0.19    1.2
2017/07/23 10:59:34.200   2773746.5331   1652345.8436   5482225.8696   2  19   0.1253   0.1002   0.1869   0.0859   0.1015   0.1267  -0.19    1.2
2017/07/23 10:59:34.400   2773746.5313   1652345.8372   5482225.8696   2  19   0.1248   0.0999   0.1860   0.0855   0.1010   0.1261  -0.19    1.2
2017/07/23 10:59:34.600   2773746.5247   1652345.8278   5482225.8601   2  19   0.1243   0.0996   0.1851   0.0852   0.1006   0.1255  -0.19    1.2
2017/07/23 10:59:34.800   2773746.5190   1652345.8200   5482225.8524   2  19   0.1239   0.0993   0.1843   0.0848   0.1001   0.1250  -0.19    1.2
2017/07/23 10:59:35.000   2773746.5151   1652345.8126   5482225.8453   2  19   0.1234   0.0989   0.1834   0.0844   0.0997   0.1244  -0.19    1.2
2017/07/23 10:59:35.200   2773746.5116   1652345.8056   5482225.8443   2  19   0.1229   0.0986   0.1826   0.0841   0.0992   0.1238  -0.19    1.2
2017/07/23 10:59:35.400   2773746.5117   1652345.8018   5482225.8454   2  19   0.1224   0.0983   0.1818   0.0837   0.0988   0.1233  -0.19    1.2
2017/07/23 10:59:35.600   2773746.5092   1652345.7960   5482225.8439   2  19   0.1220   0.0980   0.1809   0.0834   0.0984   0.1227  -0.19    1.2
2017/07/23 10:59:35.800   2773746.5083   1652345.7918   5482225.8428   2  19   0.1215   0.0977   0.1801   0.0830   0.0979   0.1222  -0.19    1.2
2017/07/23 10:59:36.000   2773746.5079   1652345.7888   5482225.8440   2  19   0.1211   0.0974   0.1793   0.0827   0.0975   0.1216  -0.19    1.2
2017/07/23 10:59:36.200   2773746.5108   1652345.7875   5482225.8471   2  19   0.1206   0.0971   0.1784   0.0823   0.0971   0.1211  -0.19    1.2
2017/07/23 10:59:36.400   2773746.5087   1652345.7841   5482225.8432   2  19   0.1201   0.0967   0.1776   0.0820   0.0967   0.1205  -0.19    1.2
2017/07/23 10:59:36.600   2773746.5076   1652345.7804   5482225.8398   2  19   0.1197   0.0964   0.1768   0.0816   0.0962   0.1200  -0.19    1.2
2017/07/23 10:59:36.800   2773746.5089   1652345.7783   5482225.8433   2  19   0.1192   0.0961   0.1760   0.0813   0.0958   0.1195  -0.19    1.2
2017/07/23 10:59:37.000   2773746.5090   1652345.7763   5482225.8438   2  19   0.1188   0.0958   0.1752   0.0809   0.0954   0.1189  -0.19    1.2
2017/07/23 10:59:37.200   2773746.5046   1652345.7709   5482225.8404   2  19   0.1183   0.0955   0.1744   0.0806   0.0950   0.1184  -0.19    1.2
2017/07/23 10:59:37.400   2773746.5000   1652345.7653   5482225.8368   2  19   0.1179   0.0952   0.1736   0.0803   0.0946   0.1179  -0.19    1.2
2017/07/23 10:59:37.600   2773746.4955   1652345.7603   5482225.8347   2  19   0.1175   0.0949   0.1729   0.0799   0.0942   0.1174  -0.19    1.2
2017/07/23 10:59:37.800   2773746.4935   1652345.7576   5482225.8339   2  19   0.1170   0.0946   0.1721   0.0796   0.0938   0.1168  -0.19    1.2
2017/07/23 10:59:38.000   2773746.4902   1652345.7535   5482225.8340   2  19   0.1166   0.0944   0.1713   0.0793   0.0934   0.1163  -0.19    1.2
2017/07/23 10:59:38.200   2773746.4886   1652345.7510   5482225.8299   2  19   0.1162   0.0941   0.1705   0.0789   0.0930   0.1158  -0.19    1.2
2017/07/23 10:59:38.400   2773746.4876   1652345.7489   5482225.8337   2  19   0.1157   0.0938   0.1698   0.0786   0.0926   0.1153  -0.19    1.2
2017/07/23 10:59:38.600   2773746.4878   1652345.7478   5482225.8346   2  19   0.1153   0.0935   0.1690   0.0783   0.0922   0.1148  -0.19    1.2
2017/07/23 10:59:38.800   2773746.4861   1652345.7457   5482225.8354   2  19   0.1149   0.0932   0.1683   0.0780   0.0918   0.1143  -0.19    1.2
2017/07/23 10:59:39.000   2773746.4840   1652345.7437   5482225.8354   2  19   0.1145   0.0929   0.1675   0.0776   0.0914   0.1138  -0.19    1.2
2017/07/23 10:59:39.200   2773746.4853   1652345.7429   5482225.8400   2  19   0.1140   0.0926   0.1668   0.0773   0.0910   0.1133  -0.19    1.2
2017/07/23 10:59:39.400   2773746.4841   1652345.7403   5482225.8398   2  19   0.1136   0.0923   0.1661   0.0770   0.0906   0.1128  -0.19    1.2
2017/07/23 10:59:39.600   2773746.4833   1652345.7387   5482225.8433   2  19   0.1132   0.0921   0.1653   0.0767   0.0902   0.1123  -0.19    1.2
2017/07/23 10:59:39.800   2773746.4809   1652345.7357   5482225.8454   2  19   0.1128   0.0918   0.1646   0.0764   0.0899   0.1118  -0.19    1.2
2017/07/23 10:59:40.000   2773746.4776   1652345.7328   5482225.8469   2  19   0.1124   0.0915   0.1639   0.0761   0.0895   0.1114  -0.19    1.2
2017/07/23 10:59:40.200   2773746.4749   1652345.7289   5482225.8440   2  19   0.1120   0.0912   0.1632   0.0758   0.0891   0.1109  -0.19    1.2
2017/07/23 10:59:40.400   2773746.4732   1652345.7271   5482225.8481   2  19   0.1116   0.0910   0.1624   0.0754   0.0887   0.1104  -0.19    1.2
2017/07/23 10:59:40.600   2773746.4730   1652345.7254   5482225.8530   2  19   0.1112   0.0907   0.1617   0.0751   0.0884   0.1099  -0.19    1.2
2017/07/23 10:59:40.800   2773746.4721   1652345.7233   5482225.8528   2  19   0.1108   0.0904   0.1610   0.0748   0.0880   0.1095  -0.19    1.2
2017/07/23 10:59:41.000   2773746.4715   1652345.7210   5482225.8514   2  19   0.1104   0.0901   0.1603   0.0745   0.0876   0.1090  -0.19    1.2
2017/07/23 10:59:41.200   2773746.4701   1652345.7185   5482225.8508   2  19   0.1100   0.0899   0.1596   0.0742   0.0873   0.1085  -0.19    1.2
2017/07/23 10:59:41.400   2773746.4691   1652345.7161   5482225.8500   2  19   0.1096   0.0896   0.1589   0.0739   0.0869   0.1081  -0.19    1.2
2017/07/23 10:59:41.600   2773746.4663   1652345.7125   5482225.8473   2  19   0.1092   0.0893   0.1583   0.0736   0.0865   0.1076  -0.19    1.2
2017/07/23 10:59:41.800   2773746.4628   1652345.7090   5482225.8444   2  19   0.1088   0.0891   0.1576   0.0733   0.0862   0.1072  -0.19    1.2
2017/07/23 10:59:42.000   2773746.4600   1652345.7060   5482225.8412   2  19   0.1084   0.0888   0.1569   0.0730   0.0858   0.1067  -0.19    1.2
2017/07/23 10:59:42.200   2773746.4558   1652345.7017   5482225.8375   2  19   0.1080   0.0885   0.1562   0.0727   0.0855   0.1063  -0.19    1.2
2017/07/23 10:59:42.400   2773746.4517   1652345.6977   5482225.8329   2  19   0.1076   0.0883   0.1556   0.0725   0.0851   0.1058  -0.19    1.2
2017/07/23 10:59:42.600   2773746.4470   1652345.6935   5482225.8283   2  19   0.1073   0.0880   0.1549   0.0722   0.0848   0.1054  -0.19    1.1
2017/07/23 10:59:42.800   2773746.4459   1652345.6908   5482225.8269   2  19   0.1069   0.0878   0.1542   0.0719   0.0844   0.1049  -0.19    1.1
2017/07/23 10:59:43.000   2773746.4426   1652345.6867   5482225.8235   2  19   0.1065   0.0875   0.1536   0.0716   0.0841   0.1045  -0.19    1.1
2017/07/23 10:59:43.200   2773746.4397   1652345.6834   5482225.8230   2  19   0.1061   0.0872   0.1529   0.0713   0.0837   0.1041  -0.19    1.1
2017/07/23 10:59:43.400   2773746.4375   1652345.6807   5482225.8212   2  19   0.1058   0.0870   0.1523   0.0710   0.0834   0.1036  -0.19    1.1
2017/07/23 10:59:43.600   2773746.4356   1652345.6784   5482225.8184   2  19   0.1054   0.0867   0.1516   0.0707   0.0831   0.1032  -0.19    1.1
2017/07/23 10:59:43.800   2773746.4335   1652345.6761   5482225.8178   2  19   0.1050   0.0865   0.1510   0.0704   0.0827   0.1028  -0.19    1.1
2017/07/23 10:59:44.000   2773746.4291   1652345.6725   5482225.8140   2  19   0.1046   0.0862   0.1503   0.0702   0.0824   0.1024  -0.19    1.1
2017/07/23 10:59:44.200   2773746.4261   1652345.6695   5482225.8121   2  19   0.1043   0.0860   0.1497   0.0699   0.0821   0.1019  -0.19    1.1
2017/07/23 10:59:44.400   2773746.4221   1652345.6659   5482225.8112   2  19   0.1039   0.0857   0.1491   0.0696   0.0817   0.1015  -0.19    1.1
2017/07/23 10:59:44.600   2773746.4209   1652345.6640   5482225.8101   2  19   0.1036   0.0855   0.1485   0.0693   0.0814   0.1011  -0.19    1.1
2017/07/23 10:59:44.800   2773746.4183   1652345.6615   5482225.8084   2  19   0.1032   0.0852   0.1478   0.0691   0.0811   0.1007  -0.19    1.1
2017/07/23 10:59:45.000   2773746.4178   1652345.6612   5482225.8100   2  19   0.1028   0.0850   0.1472   0.0688   0.0808   0.1003  -0.19    1.1
2017/07/23 10:59:45.200   2773746.4169   1652345.6601   5482225.8094   2  19   0.1025   0.0848   0.1466   0.0685   0.0804   0.0999  -0.19    1.1
2017/07/23 10:59:45.400   2773746.4154   1652345.6589   5482225.8078   2  19   0.1021   0.0845   0.1460   0.0682   0.0801   0.0995  -0.19    1.1
2017/07/23 10:59:45.600   2773746.4126   1652345.6566   5482225.8056   2  19   0.1018   0.0843   0.1454   0.0680   0.0798   0.0991  -0.19    1.1
2017/07/23 10:59:45.800   2773746.4087   1652345.6541   5482225.7995   2  19   0.1014   0.0840   0.1448   0.0677   0.0795   0.0987  -0.19    1.1
2017/07/23 10:59:46.000   2773746.4064   1652345.6528   5482225.7996   2  19   0.1011   0.0838   0.1442   0.0674   0.0792   0.0983  -0.19    1.1
2017/07/23 10:59:46.200   2773746.4047   1652345.6513   5482225.7960   2  19   0.1007   0.0836   0.1436   0.0672   0.0789   0.0979  -0.19    1.1
2017/07/23 10:59:46.400   2773746.4011   1652345.6491   5482225.7920   2  19   0.1004   0.0833   0.1430   0.0669   0.0785   0.0975  -0.19    1.1
2017/07/23 10:59:46.600   2773746.3974   1652345.6472   5482225.7861   2  19   0.1000   0.0831   0.1424   0.0667   0.0782   0.0971  -0.19    1.1
2017/07/23 10:59:46.800   2773746.3944   1652345.6455   5482225.7792   2  19   0.0997   0.0828   0.1418   0.0664   0.0779   0.0967  -0.19    1.1
2017/07/23 10:59:47.000   2773746.3911   1652345.6441   5482225.7726   2  19   0.0994   0.0826   0.1412   0.0661   0.0776   0.0963  -0.19    1.1
2017/07/23 10:59:47.200   2773746.3872   1652345.6418   5482225.7651   2  19   0.0990   0.0824   0.1407   0.0659   0.0773   0.0959  -0.19    1.0
2017/07/23 10:59:47.400   2773746.3821   1652345.6385   5482225.7569   2  19   0.0987   0.0822   0.1401   0.0656   0.0770   0.0955  -0.19    1.0
2017/07/23 10:59:47.600   2773746.3787   1652345.6369   5482225.7531   2  19   0.0984   0.0819   0.1395   0.0654   0.0767   0.0952  -0.19    1.0
2017/07/23 10:59:47.800   2773746.3764   1652345.6358   5482225.7498   2  19   0.0980   0.0817   0.1390   0.0651   0.0764   0.0948  -0.19    1.0
2017/07/23 10:59:48.000   2773746.3726   1652345.6328   5482225.7423   2  19   0.0977   0.0815   0.1384   0.0649   0.0761   0.0944  -0.19    1.0
2017/07/23 10:59:48.200   2773746.3704   1652345.6316   5482225.7377   2  19   0.0974   0.0812   0.1378   0.0646   0.0758   0.0940  -0.19    1.0
2017/07/23 10:59:48.400   2773746.3684   1652345.6304   5482225.7341   2  19   0.0970   0.0810   0.1373   0.0644   0.0755   0.0937  -0.19    1.0
2017/07/23 10:59:48.600   2773746.3673   1652345.6288   5482225.7301   2  19   0.0967   0.0808   0.1367   0.0641   0.0752   0.0933  -0.19    1.0
2017/07/23 10:59:48.800   2773746.3666   1652345.6282   5482225.7277   2  19   0.0964   0.0806   0.1362   0.0639   0.0750   0.0929  -0.19    1.0
2017/07/23 10:59:49.000   2773746.3662   1652345.6283   5482225.7242   2  19   0.0961   0.0803   0.1356   0.0636   0.0747   0.0926  -0.19    1.0
2017/07/23 10:59:49.200   2773746.3634   1652345.6269   5482225.7158   2  19   0.0958   0.0801   0.1351   0.0634   0.0744   0.0922  -0.19    1.0
2017/07/23 10:59:49.400   2773746.3599   1652345.6245   5482225.7069   2  19   0.0954   0.0799   0.1345   0.0631   0.0741   0.0918  -0.19    1.0
2017/07/23 10:59:49.600   2773746.3585   1652345.6237   5482225.7027   2  19   0.0951   0.0797   0.1340   0.0629   0.0738   0.0915  -0.19    1.0
2017/07/23 10:59:49.800   2773746.3573   1652345.6224   5482225.6985   2  19   0.0948   0.0795   0.1335   0.0627   0.0735   0.0911  -0.19    1.0
2017/07/23 10:59:50.000   2773746.3557   1652345.6211   5482225.6936   2  19   0.0945   0.0793   0.1329   0.0624   0.0733   0.0908  -0.19    1.0
2017/07/23 10:59:50.200   2773746.3538   1652345.6194   5482225.6879   2  19   0.0942   0.0790   0.1324   0.0622   0.0730   0.0904  -0.19    1.0
2017/07/23 10:59:50.400   2773746.3529   1652345.6190   5482225.6858   2  19   0.0939   0.0788   0.1319   0.0619   0.0727   0.0901  -0.19    1.0
2017/07/23 10:59:50.600   2773746.3520   1652345.6183   5482225.6817   2  19   0.0936   0.0786   0.1314   0.0617   0.0724   0.0897  -0.19    1.0
2017/07/23 10:59:50.800   2773746.3488   1652345.6161   5482225.6749   2  19   0.0932   0.0784   0.1309   0.0615   0.0722   0.0894  -0.19    1.0
2017/07/23 10:59:51.000   2773746.3471   1652345.6145   5482225.6689   2  19   0.0929   0.0782   0.1303   0.0612   0.0719   0.0890  -0.19    1.0
2017/07/23 10:59:51.200   2773746.3440   1652345.6124   5482225.6618   2  19   0.0926   0.0780   0.1298   0.0610   0.0716   0.0887  -0.19    1.0
2017/07/23 10:59:51.400   2773746.3407   1652345.6104   5482225.6548   2  19   0.0923   0.0778   0.1293   0.0608   0.0713   0.0883  -0.19    1.0
2017/07/23 10:59:51.600   2773746.3357   1652345.6070   5482225.6445   2  19   0.0920   0.0776   0.1288   0.0605   0.0711   0.0880  -0.19    1.0
2017/07/23 10:59:51.800   2773746.3326   1652345.6045   5482225.6366   2  19   0.0917   0.0773   0.1283   0.0603   0.0708   0.0877  -0.19    1.0
2017/07/23 10:59:52.000   2773746.3279   1652345.6011   5482225.6287   2  19   0.0914   0.0771   0.1278   0.0601   0.0705   0.0873  -0.19    1.1
2017/07/23 10:59:52.200   2773746.3242   1652345.5991   5482225.6210   2  19   0.0911   0.0769   0.1273   0.0599   0.0703   0.0870  -0.19    1.1
2017/07/23 10:59:52.400   2773746.3200   1652345.5969   5482225.6127   2  19   0.0908   0.0767   0.1268   0.0596   0.0700   0.0867  -0.19    1.1
2017/07/23 10:59:52.600   2773746.3175   1652345.5955   5482225.6053   2  19   0.0905   0.0765   0.1263   0.0594   0.0698   0.0863  -0.19    1.1
2017/07/23 10:59:52.800   2773746.3146   1652345.5926   5482225.5970   2  19   0.0903   0.0763   0.1258   0.0592   0.0695   0.0860  -0.19    1.1
2017/07/23 10:59:53.000   2773746.3104   1652345.5900   5482225.5883   2  19   0.0900   0.0761   0.1253   0.0590   0.0693   0.0857  -0.19    1.1
2017/07/23 10:59:53.200   2773746.3070   1652345.5873   5482225.5803   2  19   0.0897   0.0759   0.1249   0.0587   0.0690   0.0854  -0.19    1.1
2017/07/23 10:59:53.400   2773746.3025   1652345.5840   5482225.5720   2  19   0.0894   0.0757   0.1244   0.0585   0.0687   0.0851  -0.19    1.1
2017/07/23 10:59:53.600   2773746.2993   1652345.5819   5482225.5653   2  19   0.0891   0.0755   0.1239   0.0583   0.0685   0.0847  -0.19    1.1
2017/07/23 10:59:53.800   2773746.2967   1652345.5801   5482225.5582   2  19   0.0888   0.0753   0.1234   0.0581   0.0682   0.0844  -0.19    1.1
2017/07/23 10:59:54.000   2773746.2926   1652345.5775   5482225.5504   2  19   0.0885   0.0751   0.1230   0.0579   0.0680   0.0841  -0.19    1.1
2017/07/23 10:59:54.200   2773746.2883   1652345.5750   5482225.5443   2  19   0.0882   0.0749   0.1225   0.0577   0.0677   0.0838  -0.19    1.1
2017/07/23 10:59:54.400   2773746.2836   1652345.5730   5482225.5342   2  19   0.0880   0.0747   0.1220   0.0574   0.0675   0.0835  -0.19    1.1
2017/07/23 10:59:54.600   2773746.2767   1652345.5699   5482225.5262   2  19   0.0877   0.0745   0.1216   0.0572   0.0672   0.0832  -0.19    1.1
2017/07/23 10:59:54.800   2773746.2730   1652345.5682   5482225.5194   2  19   0.0874   0.0743   0.1211   0.0570   0.0670   0.0829  -0.19    1.1
2017/07/23 10:59:55.000   2773746.2675   1652345.5657   5482225.5110   2  19   0.0871   0.0741   0.1206   0.0568   0.0668   0.0826  -0.19    1.1
2017/07/23 10:59:55.200   2773746.2622   1652345.5634   5482225.5022   2  19   0.0868   0.0739   0.1202   0.0566   0.0665   0.0822  -0.19    1.1
2017/07/23 10:59:55.400   2773746.2571   1652345.5604   5482225.4930   2  19   0.0866   0.0738   0.1197   0.0564   0.0663   0.0819  -0.19    1.1
2017/07/23 10:59:55.600   2773746.2510   1652345.5572   5482225.4821   2  19   0.0863   0.0736   0.1193   0.0562   0.0660   0.0816  -0.19    1.1
2017/07/23 10:59:55.800   2773746.2465   1652345.5548   5482225.4726   2  19   0.0860   0.0734   0.1188   0.0560   0.0658   0.0813  -0.19    1.1
2017/07/23 10:59:56.000   2773746.2402   1652345.5509   5482225.4624   2  19   0.0858   0.0732   0.1184   0.0558   0.0656   0.0810  -0.19    1.1
2017/07/23 10:59:56.200   2773746.2367   1652345.5492   5482225.4548   2  19   0.0855   0.0730   0.1179   0.0556   0.0653   0.0807  -0.19    1.1
2017/07/23 10:59:56.400   2773746.2320   1652345.5468   5482225.4489   2  19   0.0852   0.0728   0.1175   0.0554   0.0651   0.0805  -0.19    1.1
2017/07/23 10:59:56.600   2773746.2273   1652345.5442   5482225.4413   2  19   0.0850   0.0726   0.1171   0.0552   0.0649   0.0802  -0.19    1.1
2017/07/23 10:59:56.800   2773746.2216   1652345.5413   5482225.4347   2  19   0.0847   0.0724   0.1166   0.0550   0.0646   0.0799  -0.19    1.1
2017/07/23 10:59:57.000   2773746.2165   1652345.5380   5482225.4274   2  19   0.0844   0.0722   0.1162   0.0548   0.0644   0.0796  -0.19    1.1
2017/07/23 10:59:57.200   2773746.2108   1652345.5343   5482225.4182   2  19   0.0842   0.0721   0.1158   0.0546   0.0642   0.0793  -0.19    1.1
2017/07/23 10:59:57.400   2773746.2051   1652345.5307   5482225.4097   2  19   0.0839   0.0719   0.1153   0.0544   0.0640   0.0790  -0.19    1.1
2017/07/23 10:59:57.600   2773746.2003   1652345.5273   5482225.4008   2  19   0.0836   0.0717   0.1149   0.0542   0.0637   0.0787  -0.19    1.1
2017/07/23 10:59:57.800   2773746.1955   1652345.5245   5482225.3956   2  19   0.0834   0.0715   0.1145   0.0540   0.0635   0.0784  -0.19    1.1
2017/07/23 10:59:58.000   2773746.1902   1652345.5210   5482225.3885   2  19   0.0831   0.0713   0.1141   0.0538   0.0633   0.0782  -0.19    1.1
2017/07/23 10:59:58.200   2773746.1850   1652345.5176   5482225.3829   2  19   0.0829   0.0712   0.1136   0.0536   0.0631   0.0779  -0.19    1.1
2017/07/23 10:59:58.400   2773746.1795   1652345.5134   5482225.3747   2  19   0.0826   0.0710   0.1132   0.0534   0.0628   0.0776  -0.19    1.1
2017/07/23 10:59:58.600   2773746.1748   1652345.5094   5482225.3675   2  19   0.0824   0.0708   0.1128   0.0532   0.0626   0.0773  -0.19    1.1
2017/07/23 10:59:58.800   2773746.1698   1652345.5061   5482225.3596   2  19   0.0821   0.0706   0.1124   0.0530   0.0624   0.0770  -0.19    1.1
2017/07/23 10:59:59.000   2773746.1663   1652345.5035   5482225.3548   2  19   0.0818   0.0704   0.1120   0.0528   0.0622   0.0768  -0.19    1.1
2017/07/23 10:59:59.200   2773746.1624   1652345.5004   5482225.3475   2  19   0.0816   0.0703   0.1116   0.0526   0.0620   0.0765  -0.19    1.1
2017/07/23 10:59:59.400   2773746.1572   1652345.4966   5482225.3403   2  19   0.0813   0.0701   0.1112   0.0524   0.0617   0.0762  -0.19    1.1
2017/07/23 10:59:59.600   2773746.1526   1652345.4941   5482225.3333   2  19   0.0811   0.0699   0.1108   0.0522   0.0615   0.0760  -0.19    1.1
2017/07/23 10:59:59.800   2773746.1485   1652345.4913   5482225.3253   2  19   0.0809   0.0697   0.1104   0.0520   0.0613   0.0757  -0.19    1.1
2017/07/23 11:00:00.000   2773746.1427   1652345.4876   5482225.3171   2  19   0.0806   0.0696   0.1100   0.0519   0.0611   0.0754  -0.19    1.1
2017/07/23 11:00:00.200   2773746.1361   1652345.4840   5482225.3081   2  19   0.0804   0.0694   0.1096   0.0517   0.0609   0.0752  -0.19    1.1
2017/07/23 11:00:00.400   2773746.1292   1652345.4798   5482225.2976   2  19   0.0801   0.0692   0.1092   0.0515   0.0607   0.0749  -0.19    1.1
2017/07/23 11:00:00.600   2773746.1228   1652345.4758   5482225.2878   2  19   0.0799   0.0690   0.1088   0.0513   0.0605   0.0746  -0.19    1.1
2017/07/23 11:00:00.800   2773746.1165   1652345.4716   5482225.2773   2  19   0.0796   0.0689   0.1084   0.0511   0.0603   0.0744  -0.19    1.1
2017/07/23 11:00:01.000   2773746.1108   1652345.4671   5482225.2679   2  19   0.0794   0.0687   0.1080   0.0509   0.0601   0.0741  -0.19    1.1
2017/07/23 11:00:01.200   2773746.1057   1652345.4632   5482225.2584   2  19   0.0792   0.0685   0.1076   0.0507   0.0599   0.0738  -0.19    1.1
2017/07/23 11:00:01.400   2773746.1004   1652345.4599   5482225.2507   2  19   0.0789   0.0684   0.1072   0.0506   0.0597   0.0736  -0.19    1.1
2017/07/23 11:00:01.600   2773746.0959   1652345.4573   5482225.2444   2  19   0.0787   0.0682   0.1069   0.0504   0.0595   0.0733  -0.19    1.1
2017/07/23 11:00:01.800   2773746.0922   1652345.4549   5482225.2372   2  19   0.0784   0.0680   0.1065   0.0502   0.0593   0.0731  -0.19    1.1
2017/07/23 11:00:02.000   2773746.0879   1652345.4523   5482225.2303   2  19   0.0782   0.0679   0.1061   0.0500   0.0591   0.0728  -0.19    1.1
2017/07/23 11:00:02.200   2773746.0831   1652345.4484   5482225.2233   2  19   0.0780   0.0677   0.1057   0.0499   0.0589   0.0726  -0.19    1.1
2017/07/23 11:00:02.400   2773746.0791   1652345.4456   5482225.2164   2  19   0.0777   0.0675   0.1054   0.0497   0.0587   0.0723  -0.19    1.1
2017/07/23 11:00:02.600   2773746.0756   1652345.4432   5482225.2110   2  19   0.0775   0.0674   0.1050   0.0495   0.0585   0.0721  -0.19    1.1
2017/07/23 11:00:02.800   2773746.0718   1652345.4409   5482225.2053   2  19   0.0773   0.0672   0.1046   0.0493   0.0583   0.0718  -0.19    1.1
2017/07/23 11:00:03.000   2773746.0663   1652345.4374   5482225.1992   2  19   0.0770   0.0670   0.1043   0.0492   0.0581   0.0716  -0.19    1.1
2017/07/23 11:00:03.200   2773746.0615   1652345.4345   5482225.1941   2  19   0.0768   0.0669   0.1039   0.0490   0.0579   0.0713  -0.19    1.1
2017/07/23 11:00:03.400   2773746.0563   1652345.4304   5482225.1864   2  19   0.0766   0.0667   0.1035   0.0488   0.0577   0.0711  -0.19    1.1
2017/07/23 11:00:03.600   2773746.0529   1652345.4279   5482225.1820   2  19   0.0764   0.0665   0.1032   0.0486   0.0575   0.0709  -0.19    1.1
2017/07/23 11:00:03.800   2773746.0496   1652345.4253   5482225.1764   2  19   0.0761   0.0664   0.1028   0.0485   0.0573   0.0706  -0.19    1.1
2017/07/23 11:00:04.000   2773746.0461   1652345.4228   5482225.1713   2  19   0.0759   0.0662   0.1024   0.0483   0.0571   0.0704  -0.19    1.1
2017/07/23 11:00:04.200   2773746.0440   1652345.4212   5482225.1678   2  19   0.0757   0.0661   0.1021   0.0481   0.0569   0.0701  -0.19    1.1
2017/07/23 11:00:04.400   2773746.0408   1652345.4191   5482225.1617   2  19   0.0755   0.0659   0.1017   0.0480   0.0567   0.0699  -0.19    1.1
2017/07/23 11:00:04.600   2773746.0372   1652345.4169   5482225.1554   2  19   0.0752   0.0658   0.1014   0.0478   0.0565   0.0697  -0.19    1.1
2017/07/23 11:00:04.800   2773746.0334   1652345.4145   5482225.1494   2  19   0.0750   0.0656   0.1010   0.0476   0.0563   0.0694  -0.19    1.1
