% program   : RTKLIB ver.2.4.3 Emlid
% inp file  : /home/artur/RTKLIB/test/test/static/6_pp9a/rover.obs
% inp file  : /home/artur/RTKLIB/test/test/static/6_pp9a/base.obs
% inp file  : /home/artur/RTKLIB/test/test/static/6_pp9a/rover.nav
% obs start : 2017/07/23 09:35:56.0 GPST (week1959  34556.0s)
% obs end   : 2017/07/23 09:46:09.2 GPST (week1959  35169.2s)
% pos mode  : static
% freqs     : L1
% solution  : forward
% elev mask : 15.0 deg
% dynamics  : on
% tidecorr  : off
% ionos opt : broadcast
% tropo opt : est ztd
% ephemeris : broadcast
% navi sys  : gps glonass galileo qzss beidou sbas
% amb res   : continuous
% amb glo   : off
% val thres : 3.0
% antenna1  :                       ( 0.0000  0.0000  0.0000)
% antenna2  :                       ( 0.0000  0.0000  0.0000)
% ref pos   :  2773909.8712  1654076.4507  5481627.6877
%
% (x/y/z-ecef=WGS84,Q=1:fix,2:float,3:sbas,4:dgps,5:single,6:ppp,ns=# of satellites)
%  GPST                      x-ecef(m)      y-ecef(m)      z-ecef(m)   Q  ns   sdx(m)   sdy(m)   sdz(m)  sdxy(m)  sdyz(m)  sdzx(m) age(s)  ratio
2017/07/23 09:35:56.000   2773707.7652   1653135.4978   5481976.1163   5  17   2.2391   2.0478   4.3894   1.0892   2.1575   1.0593 -198.21    0.0
2017/07/23 09:35:56.200   2773707.8810   1653135.6121   5481976.5554   5  17   2.2391   2.0478   4.3895   1.0892   2.1575   1.0594 -198.01    0.0
2017/07/23 09:35:56.400   2773707.9396   1653135.6265   5481976.6267   5  17   2.2391   2.0479   4.3895   1.0892   2.1576   1.0595 -197.81    0.0
2017/07/23 09:35:56.600   2773707.9599   1653135.6669   5481976.7814   5  17   2.2391   2.0479   4.3896   1.0893   2.1576   1.0595 -197.61    0.0
2017/07/23 09:35:56.800   2773708.0179   1653135.6969   5481976.8102   5  17   2.2391   2.0479   4.3897   1.0893   2.1577   1.0596 -197.41    0.0
2017/07/23 09:35:57.000   2773708.0302   1653135.6159   5481976.7355   5  17   2.2391   2.0479   4.3898   1.0893   2.1577   1.0597 -197.21    0.0
2017/07/23 09:35:57.200   2773708.0684   1653135.6999   5481976.8179   5  17   2.2391   2.0479   4.3898   1.0893   2.1578   1.0597 -197.01    0.0
2017/07/23 09:35:57.400   2773708.0190   1653135.5745   5481976.5746   5  17   2.2391   2.0480   4.3899   1.0894   2.1579   1.0598 -196.81    0.0
2017/07/23 09:35:57.600   2773708.0727   1653135.5799   5481976.5960   5  17   2.2391   2.0480   4.3900   1.0894   2.1579   1.0599 -196.61    0.0
2017/07/23 09:35:57.800   2773708.0838   1653135.5176   5481976.6423   5  17   2.2391   2.0480   4.3901   1.0894   2.1580   1.0599 -196.41    0.0
2017/07/23 09:35:58.000   2773707.9946   1653135.4378   5481976.4449   5  17   2.2391   2.0480   4.3902   1.0895   2.1580   1.0600 -196.21    0.0
2017/07/23 09:35:58.200   2773707.9648   1653135.4685   5481976.6100   5  17   2.2391   2.0480   4.3902   1.0895   2.1581   1.0601 -196.01    0.0
2017/07/23 09:35:58.400   2773707.8793   1653135.4874   5481976.5514   5  17   2.2391   2.0481   4.3903   1.0895   2.1581   1.0602 -195.81    0.0
2017/07/23 09:35:58.600   2773707.8016   1653135.3433   5481976.4574   5  17   2.2391   2.0481   4.3904   1.0895   2.1582   1.0602 -195.61    0.0
2017/07/23 09:35:58.800   2773707.7904   1653135.3262   5481976.5869   5  17   2.2391   2.0481   4.3905   1.0896   2.1582   1.0603 -195.41    0.0
2017/07/23 09:35:59.000   2773707.8407   1653135.2123   5481976.6014   5  17   2.2391   2.0481   4.3905   1.0896   2.1583   1.0604 -195.21    0.0
2017/07/23 09:35:59.200   2773707.7556   1653135.1406   5481976.5882   5  17   2.2391   2.0481   4.3906   1.0896   2.1583   1.0604 -195.01    0.0
2017/07/23 09:35:59.400   2773707.6625   1653135.1485   5481976.5675   5  17   2.2391   2.0482   4.3907   1.0896   2.1584   1.0605 -194.81    0.0
2017/07/23 09:35:59.600   2773707.7219   1653135.2788   5481976.7968   5  17   2.2391   2.0482   4.3908   1.0897   2.1584   1.0606 -194.61    0.0
2017/07/23 09:35:59.800   2773707.7102   1653135.1811   5481976.7812   5  17   2.2391   2.0482   4.3908   1.0897   2.1585   1.0607 -194.41    0.0
2017/07/23 09:36:00.000   2773707.6421   1653135.1307   5481976.9788   5  17   2.2391   2.0482   4.3909   1.0897   2.1585   1.0607 -194.21    0.0
2017/07/23 09:36:00.200   2773707.6091   1653135.0802   5481977.2095   5  17   2.2391   2.0482   4.3910   1.0897   2.1586   1.0608 -194.01    0.0
2017/07/23 09:36:00.400   2773707.5039   1653135.0328   5481977.2213   5  17   2.2391   2.0483   4.3911   1.0898   2.1586   1.0609 -193.81    0.0
2017/07/23 09:36:00.600   2773707.5012   1653135.0959   5481977.2320   5  17   2.2391   2.0483   4.3911   1.0898   2.1587   1.0609 -193.61    0.0
2017/07/23 09:36:00.800   2773707.4936   1653135.1406   5481977.3688   5  17   2.2391   2.0483   4.3912   1.0898   2.1587   1.0610 -193.41    0.0
2017/07/23 09:36:01.000   2773707.5698   1653135.1578   5481977.2335   5  17   2.2391   2.0483   4.3913   1.0899   2.1588   1.0611 -193.21    0.0
2017/07/23 09:36:01.200   2773707.6639   1653135.1156   5481977.1959   5  17   2.2392   2.0483   4.3914   1.0899   2.1589   1.0612 -193.01    0.0
2017/07/23 09:36:01.400   2773707.6283   1653135.0722   5481977.3507   5  17   2.2392   2.0484   4.3914   1.0899   2.1589   1.0612 -192.81    0.0
2017/07/23 09:36:01.600   2773707.6544   1653135.1794   5481977.3135   5  17   2.2392   2.0484   4.3915   1.0899   2.1590   1.0613 -192.61    0.0
2017/07/23 09:36:01.800   2773707.6560   1653135.1629   5481977.2505   5  17   2.2392   2.0484   4.3916   1.0900   2.1590   1.0614 -192.41    0.0
2017/07/23 09:36:02.000   2773707.6288   1653135.1856   5481977.2189   5  17   2.2392   2.0484   4.3917   1.0900   2.1591   1.0614 -192.21    0.0
2017/07/23 09:36:02.200   2773707.5889   1653135.0927   5481976.9498   5  17   2.2392   2.0484   4.3918   1.0900   2.1591   1.0615 -192.01    0.0
2017/07/23 09:36:02.400   2773707.5035   1653135.0009   5481976.6816   5  17   2.2392   2.0485   4.3918   1.0900   2.1592   1.0616 -191.81    0.0
2017/07/23 09:36:02.600   2773707.4367   1653134.8477   5481976.5290   5  17   2.2392   2.0485   4.3919   1.0901   2.1592   1.0617 -191.61    0.0
2017/07/23 09:36:02.800   2773707.4992   1653134.8895   5481976.7589   5  17   2.2392   2.0485   4.3920   1.0901   2.1593   1.0617 -191.41    0.0
2017/07/23 09:36:03.000   2773707.5418   1653134.9015   5481976.9203   5  17   2.2392   2.0485   4.3921   1.0901   2.1593   1.0618 -191.21    0.0
2017/07/23 09:36:03.200   2773707.5378   1653134.8813   5481976.7113   5  17   2.2392   2.0485   4.3921   1.0901   2.1594   1.0619 -191.01    0.0
2017/07/23 09:36:03.400   2773707.5176   1653134.8510   5481976.5813   5  17   2.2392   2.0486   4.3922   1.0902   2.1594   1.0619 -190.81    0.0
2017/07/23 09:36:03.600   2773707.5337   1653134.8872   5481976.6313   5  17   2.2392   2.0486   4.3923   1.0902   2.1595   1.0620 -190.61    0.0
2017/07/23 09:36:03.800   2773707.5054   1653134.8921   5481976.4899   5  17   2.2392   2.0486   4.3924   1.0902   2.1595   1.0621 -190.41    0.0
2017/07/23 09:36:04.000   2773707.4595   1653134.9632   5481976.5871   5  17   2.2392   2.0486   4.3924   1.0903   2.1596   1.0622 -190.21    0.0
2017/07/23 09:36:04.200   2773707.4623   1653135.0497   5481976.4228   5  17   2.2392   2.0486   4.3925   1.0903   2.1596   1.0622 -190.01    0.0
2017/07/23 09:36:04.400   2773707.5536   1653135.1335   5481976.5790   5  17   2.2392   2.0487   4.3926   1.0903   2.1597   1.0623 -189.81    0.0
2017/07/23 09:36:04.600   2773707.5618   1653135.1370   5481976.4032   5  17   2.2392   2.0487   4.3927   1.0903   2.1598   1.0624 -189.61    0.0
2017/07/23 09:36:04.800   2773707.5167   1653135.0594   5481976.3454   5  17   2.2392   2.0487   4.3927   1.0904   2.1598   1.0624 -189.41    0.0
2017/07/23 09:36:05.000   2773707.5167   1653135.0038   5481976.0751   5  17   2.2392   2.0487   4.3928   1.0904   2.1599   1.0625 -189.21    0.0
2017/07/23 09:36:05.200   2773707.4952   1653135.1046   5481976.2078   5  17   2.2392   2.0487   4.3929   1.0904   2.1599   1.0626 -189.01    0.0
2017/07/23 09:36:05.400   2773707.4752   1653135.2091   5481976.4221   5  17   2.2392   2.0488   4.3930   1.0904   2.1600   1.0627 -188.81    0.0
2017/07/23 09:36:05.600   2773707.4951   1653135.2334   5481976.5221   5  17   2.2392   2.0488   4.3930   1.0905   2.1600   1.0627 -188.61    0.0
2017/07/23 09:36:05.800   2773707.4310   1653135.2899   5481976.5689   5  17   2.2392   2.0488   4.3931   1.0905   2.1601   1.0628 -188.41    0.0
2017/07/23 09:36:06.000   2773707.4605   1653135.3347   5481976.7036   5  17   2.2392   2.0488   4.3932   1.0905   2.1601   1.0629 -188.21    0.0
2017/07/23 09:36:06.200   2773707.3835   1653135.3018   5481976.6014   5  17   2.2392   2.0488   4.3933   1.0906   2.1602   1.0629 -188.01    0.0
2017/07/23 09:36:06.400   2773707.3339   1653135.3677   5481976.7487   5  17   2.2392   2.0488   4.3934   1.0906   2.1602   1.0630 -187.81    0.0
2017/07/23 09:36:06.600   2773707.3398   1653135.4036   5481976.6332   5  17   2.2392   2.0489   4.3934   1.0906   2.1603   1.0631 -187.61    0.0
2017/07/23 09:36:06.800   2773707.2553   1653135.4380   5481976.7241   5  17   2.2392   2.0489   4.3935   1.0906   2.1603   1.0632 -187.41    0.0
2017/07/23 09:36:07.000   2773707.1779   1653135.4221   5481976.5604   5  17   2.2392   2.0489   4.3936   1.0907   2.1604   1.0632 -187.21    0.0
2017/07/23 09:36:07.200   2773707.2202   1653135.5527   5481976.6827   5  17   2.2392   2.0489   4.3937   1.0907   2.1604   1.0633 -187.01    0.0
2017/07/23 09:36:07.400   2773707.2509   1653135.7654   5481976.9019   5  17   2.2392   2.0489   4.3937   1.0907   2.1605   1.0634 -186.81    0.0
2017/07/23 09:36:07.600   2773707.1253   1653135.7075   5481976.7868   5  17   2.2392   2.0490   4.3938   1.0907   2.1605   1.0634 -186.61    0.0
2017/07/23 09:36:07.800   2773707.0617   1653135.7710   5481976.8401   5  17   2.2392   2.0490   4.3939   1.0908   2.1606   1.0635 -186.41    0.0
2017/07/23 09:36:08.000   2773706.9771   1653135.8449   5481977.0390   5  17   2.2392   2.0490   4.3940   1.0908   2.1606   1.0636 -186.21    0.0
2017/07/23 09:36:08.200   2773706.9153   1653135.8969   5481977.2273   5  17   2.2392   2.0490   4.3940   1.0908   2.1607   1.0637 -186.01    0.0
2017/07/23 09:36:08.400   2773706.9323   1653135.8282   5481977.3816   5  17   2.2392   2.0490   4.3941   1.0908   2.1607   1.0637 -185.81    0.0
2017/07/23 09:36:08.600   2773707.0732   1653135.9637   5481977.5332   5  17   2.2392   2.0491   4.3942   1.0909   2.1608   1.0638 -185.61    0.0
2017/07/23 09:36:08.800   2773707.1901   1653135.9321   5481977.4915   5  17   2.2392   2.0491   4.3943   1.0909   2.1609   1.0639 -185.41    0.0
2017/07/23 09:36:09.000   2773707.2975   1653135.9606   5481977.6132   5  17   2.2392   2.0491   4.3943   1.0909   2.1609   1.0639 -185.21    0.0
2017/07/23 09:36:09.200   2773707.2563   1653135.9631   5481977.6167   5  17   2.2392   2.0491   4.3944   1.0910   2.1610   1.0640 -185.01    0.0
2017/07/23 09:36:09.400   2773707.0829   1653135.9834   5481977.5714   5  17   2.2392   2.0491   4.3945   1.0910   2.1610   1.0641 -184.81    0.0
2017/07/23 09:36:09.600   2773707.0855   1653135.9786   5481977.6568   5  17   2.2392   2.0492   4.3946   1.0910   2.1611   1.0642 -184.61    0.0
2017/07/23 09:36:09.800   2773707.0105   1653135.9656   5481977.7137   5  17   2.2392   2.0492   4.3946   1.0910   2.1611   1.0642 -184.41    0.0
2017/07/23 09:36:10.000   2773706.9173   1653135.9281   5481978.0561   5  17   2.2393   2.0492   4.3947   1.0911   2.1612   1.0643 -184.21    0.0
2017/07/23 09:36:10.200   2773706.8341   1653135.9294   5481977.8506   5  17   2.2393   2.0492   4.3948   1.0911   2.1612   1.0644 -184.01    0.0
2017/07/23 09:36:10.400   2773706.7817   1653135.9933   5481977.8772   5  17   2.2393   2.0492   4.3949   1.0911   2.1613   1.0644 -183.81    0.0
2017/07/23 09:36:10.600   2773706.6652   1653135.9563   5481977.8148   5  17   2.2393   2.0493   4.3949   1.0911   2.1613   1.0645 -183.61    0.0
2017/07/23 09:36:10.800   2773706.6229   1653136.0120   5481977.8421   5  17   2.2393   2.0493   4.3950   1.0912   2.1614   1.0646 -183.41    0.0
2017/07/23 09:36:11.000   2773706.5503   1653136.0624   5481977.9521   5  17   2.2393   2.0493   4.3951   1.0912   2.1614   1.0647 -183.21    0.0
2017/07/23 09:36:11.200   2773706.5198   1653136.0413   5481977.9710   5  17   2.2393   2.0493   4.3952   1.0912   2.1615   1.0647 -183.01    0.0
2017/07/23 09:36:11.400   2773706.4897   1653136.0745   5481977.9243   5  17   2.2393   2.0493   4.3952   1.0913   2.1615   1.0648 -182.81    0.0
2017/07/23 09:36:11.600   2773706.5319   1653136.1318   5481978.1028   5  17   2.2393   2.0494   4.3953   1.0913   2.1616   1.0649 -182.61    0.0
2017/07/23 09:36:11.800   2773706.5664   1653136.2186   5481978.1817   5  17   2.2393   2.0494   4.3954   1.0913   2.1616   1.0649 -182.41    0.0
2017/07/23 09:36:12.000   2773706.5765   1653136.3389   5481978.1458   5  17   2.2393   2.0494   4.3955   1.0913   2.1617   1.0650 -182.21    0.0
2017/07/23 09:36:12.200   2773706.5064   1653136.4295   5481978.3173   5  17   2.2393   2.0494   4.3956   1.0914   2.1617   1.0651 -182.01    0.0
2017/07/23 09:36:12.400   2773706.4061   1653136.3483   5481978.0471   5  17   2.2393   2.0494   4.3956   1.0914   2.1618   1.0652 -181.81    0.0
2017/07/23 09:36:12.600   2773706.4014   1653136.3562   5481977.9845   5  17   2.2393   2.0495   4.3957   1.0914   2.1619   1.0652 -181.61    0.0
2017/07/23 09:36:12.800   2773706.4608   1653136.4879   5481978.0792   5  17   2.2393   2.0495   4.3958   1.0914   2.1619   1.0653 -181.41    0.0
2017/07/23 09:36:13.000   2773706.4979   1653136.6087   5481978.2990   5  17   2.2393   2.0495   4.3959   1.0915   2.1620   1.0654 -181.21    0.0
2017/07/23 09:36:13.200   2773706.5341   1653136.7845   5481978.5086   5  17   2.2393   2.0495   4.3959   1.0915   2.1620   1.0654 -181.01    0.0
2017/07/23 09:36:13.400   2773706.5209   1653136.8314   5481978.3504   5  17   2.2393   2.0495   4.3960   1.0915   2.1621   1.0655 -180.81    0.0
2017/07/23 09:36:13.600   2773706.4828   1653136.7770   5481978.2619   5  17   2.2393   2.0496   4.3961   1.0916   2.1621   1.0656 -180.61    0.0
2017/07/23 09:36:13.800   2773706.5364   1653136.7722   5481978.2051   5  17   2.2393   2.0496   4.3962   1.0916   2.1622   1.0657 -180.41    0.0
2017/07/23 09:36:14.000   2773706.5418   1653136.7541   5481978.1758   5  17   2.2393   2.0496   4.3962   1.0916   2.1622   1.0657 -180.21    0.0
2017/07/23 09:36:14.200   2773706.4771   1653136.6812   5481978.1513   5  17   2.2393   2.0496   4.3963   1.0916   2.1623   1.0658 -180.01    0.0
2017/07/23 09:36:14.400   2773706.5131   1653136.7139   5481978.3128   5  17   2.2393   2.0496   4.3964   1.0917   2.1623   1.0659 -179.81    0.0
2017/07/23 09:36:14.600   2773706.5202   1653136.6655   5481978.3279   5  17   2.2393   2.0497   4.3965   1.0917   2.1624   1.0659 -179.61    0.0
2017/07/23 09:36:14.800   2773706.5268   1653136.5774   5481978.1235   5  17   2.2393   2.0497   4.3965   1.0917   2.1624   1.0660 -179.41    0.0
2017/07/23 09:36:15.000   2773706.5583   1653136.5757   5481978.0147   5  17   2.2393   2.0497   4.3966   1.0917   2.1625   1.0661 -179.21    0.0
2017/07/23 09:36:15.200   2773706.6381   1653136.6391   5481978.0604   5  17   2.2393   2.0497   4.3967   1.0918   2.1625   1.0662 -179.01    0.0
2017/07/23 09:36:15.400   2773706.5133   1653136.5279   5481977.8910   5  17   2.2393   2.0497   4.3968   1.0918   2.1626   1.0662 -178.81    0.0
2017/07/23 09:36:15.600   2773706.4738   1653136.4657   5481977.7691   5  17   2.2393   2.0498   4.3968   1.0918   2.1626   1.0663 -178.61    0.0
2017/07/23 09:36:15.800   2773706.5736   1653136.5402   5481977.9519   5  17   2.2393   2.0498   4.3969   1.0918   2.1627   1.0664 -178.41    0.0
2017/07/23 09:36:16.000   2773706.6148   1653136.5677   5481978.2215   5  17   2.2393   2.0498   4.3970   1.0919   2.1627   1.0664 -178.21    0.0
2017/07/23 09:36:16.200   2773706.5859   1653136.4888   5481978.4009   5  17   2.2393   2.0498   4.3971   1.0919   2.1628   1.0665 -178.01    0.0
2017/07/23 09:36:16.400   2773706.6436   1653136.5570   5481978.5573   5  17   2.2393   2.0498   4.3971   1.0919   2.1628   1.0666 -177.81    0.0
2017/07/23 09:36:16.600   2773706.6810   1653136.5800   5481978.4430   5  17   2.2393   2.0499   4.3972   1.0920   2.1629   1.0667 -177.61    0.0
2017/07/23 09:36:16.800   2773706.7328   1653136.6305   5481978.3745   5  17   2.2393   2.0499   4.3973   1.0920   2.1630   1.0667 -177.41    0.0
2017/07/23 09:36:17.000   2773706.8052   1653136.7190   5481978.5139   5  17   2.2393   2.0499   4.3974   1.0920   2.1630   1.0668 -177.21    0.0
2017/07/23 09:36:17.200   2773706.7895   1653136.7127   5481978.5473   5  17   2.2393   2.0499   4.3974   1.0920   2.1631   1.0669 -177.01    0.0
2017/07/23 09:36:17.400   2773706.8336   1653136.8225   5481978.5885   5  17   2.2393   2.0499   4.3975   1.0921   2.1631   1.0669 -176.81    0.0
2017/07/23 09:36:17.600   2773706.8338   1653136.9119   5481978.7424   5  17   2.2393   2.0500   4.3976   1.0921   2.1632   1.0670 -176.61    0.0
2017/07/23 09:36:17.800   2773706.8272   1653136.8914   5481978.5897   5  17   2.2393   2.0500   4.3977   1.0921   2.1632   1.0671 -176.41    0.0
2017/07/23 09:36:18.000   2773706.7550   1653136.8760   5481978.6360   5  17   2.2393   2.0500   4.3977   1.0921   2.1633   1.0672 -176.21    0.0
2017/07/23 09:36:18.200   2773706.6295   1653136.7156   5481978.4894   5  17   2.2393   2.0500   4.3978   1.0922   2.1633   1.0672 -176.01    0.0
2017/07/23 09:36:18.400   2773706.6426   1653136.7986   5481978.5937   5  17   2.2393   2.0500   4.3979   1.0922   2.1634   1.0673 -175.81    0.0
2017/07/23 09:36:18.600   2773706.7705   1653136.8812   5481978.6438   5  17   2.2394   2.0501   4.3980   1.0922   2.1634   1.0674 -175.61    0.0
2017/07/23 09:36:18.800   2773706.7893   1653136.7473   5481978.5166   5  17   2.2394   2.0501   4.3980   1.0923   2.1635   1.0675 -175.41    0.0
2017/07/23 09:36:19.000   2773706.7282   1653136.7367   5481978.6162   5  17   2.2394   2.0501   4.3981   1.0923   2.1635   1.0675 -175.21    0.0
2017/07/23 09:36:19.200   2773706.6500   1653136.7116   5481978.5934   5  17   2.2394   2.0501   4.3982   1.0923   2.1636   1.0676 -175.01    0.0
2017/07/23 09:36:19.400   2773706.5859   1653136.7102   5481978.5164   5  17   2.2394   2.0501   4.3983   1.0923   2.1636   1.0677 -174.81    0.0
2017/07/23 09:36:19.600   2773706.5914   1653136.6859   5481978.2721   5  17   2.2394   2.0502   4.3983   1.0924   2.1637   1.0677 -174.61    0.0
2017/07/23 09:36:19.800   2773706.5439   1653136.6535   5481978.3235   5  17   2.2394   2.0502   4.3984   1.0924   2.1637   1.0678 -174.41    0.0
2017/07/23 09:36:20.000   2773706.5782   1653136.6681   5481978.4623   5  17   2.2394   2.0502   4.3985   1.0924   2.1638   1.0679 -174.21    0.0
2017/07/23 09:36:20.200   2773706.6216   1653136.5822   5481978.5694   5  17   2.2394   2.0502   4.3986   1.0924   2.1638   1.0680 -174.01    0.0
2017/07/23 09:36:20.400   2773706.5841   1653136.5547   5481978.5988   5  17   2.2394   2.0502   4.3986   1.0925   2.1639   1.0680 -173.81    0.0
2017/07/23 09:36:20.600   2773706.6461   1653136.6523   5481978.7540   5  17   2.2394   2.0503   4.3987   1.0925   2.1639   1.0681 -173.61    0.0
2017/07/23 09:36:20.800   2773706.7387   1653136.6765   5481978.7402   5  17   2.2394   2.0503   4.3988   1.0925   2.1640   1.0682 -173.41    0.0
2017/07/23 09:36:21.000   2773706.7031   1653136.6509   5481978.6902   5  17   2.2394   2.0503   4.3989   1.0926   2.1640   1.0682 -173.21    0.0
2017/07/23 09:36:21.200   2773706.8173   1653136.6570   5481978.6198   5  17   2.2394   2.0503   4.3989   1.0926   2.1641   1.0683 -173.01    0.0
2017/07/23 09:36:21.400   2773706.8630   1653136.7564   5481978.7051   5  17   2.2394   2.0503   4.3990   1.0926   2.1642   1.0684 -172.81    0.0
2017/07/23 09:36:21.600   2773706.8707   1653136.7686   5481978.6984   5  17   2.2394   2.0504   4.3991   1.0926   2.1642   1.0685 -172.61    0.0
2017/07/23 09:36:21.800   2773706.8692   1653136.7046   5481978.5761   5  17   2.2394   2.0504   4.3992   1.0927   2.1643   1.0685 -172.41    0.0
2017/07/23 09:36:22.000   2773706.8231   1653136.7314   5481978.4581   5  17   2.2394   2.0504   4.3992   1.0927   2.1643   1.0686 -172.21    0.0
2017/07/23 09:36:22.200   2773706.8029   1653136.7162   5481978.2346   5  17   2.2394   2.0504   4.3993   1.0927   2.1644   1.0687 -172.01    0.0
2017/07/23 09:36:22.400   2773706.8245   1653136.7453   5481978.1381   5  17   2.2394   2.0504   4.3994   1.0927   2.1644   1.0687 -171.81    0.0
2017/07/23 09:36:22.600   2773706.8318   1653136.7928   5481978.1956   5  17   2.2394   2.0505   4.3995   1.0928   2.1645   1.0688 -171.61    0.0
2017/07/23 09:36:22.800   2773706.8753   1653136.8361   5481978.0177   5  17   2.2394   2.0505   4.3995   1.0928   2.1645   1.0689 -171.41    0.0
2017/07/23 09:36:23.000   2773706.8945   1653136.8685   5481978.1223   5  17   2.2394   2.0505   4.3996   1.0928   2.1646   1.0690 -171.21    0.0
2017/07/23 09:36:23.200   2773706.8525   1653136.8161   5481978.0155   5  17   2.2394   2.0505   4.3997   1.0929   2.1646   1.0690 -171.01    0.0
2017/07/23 09:36:23.400   2773706.9036   1653136.7910   5481977.8722   5  18   2.2394   2.0505   4.3998   1.0929   2.1647   1.0691 -170.81    0.0
2017/07/23 09:36:23.600   2773706.8279   1653136.7106   5481977.6599   5  18   2.2394   2.0505   4.3998   1.0929   2.1647   1.0692 -170.61    0.0
2017/07/23 09:36:23.800   2773706.8530   1653136.6903   5481977.4519   5  17   2.2394   2.0506   4.3999   1.0929   2.1648   1.0693 -170.41    0.0
2017/07/23 09:36:24.000   2773706.8699   1653136.6775   5481977.6309   5  17   2.2394   2.0506   4.4000   1.0930   2.1648   1.0693 -170.21    0.0
2017/07/23 09:36:24.200   2773706.7867   1653136.6456   5481977.6451   5  17   2.2394   2.0506   4.4001   1.0930   2.1649   1.0694 -170.01    0.0
2017/07/23 09:36:24.400   2773706.7229   1653136.6207   5481977.6116   5  17   2.2394   2.0506   4.4001   1.0930   2.1649   1.0695 -169.81    0.0
2017/07/23 09:36:24.600   2773706.7140   1653136.6305   5481977.8872   5  17   2.2394   2.0506   4.4002   1.0930   2.1650   1.0695 -169.61    0.0
2017/07/23 09:36:24.800   2773706.6593   1653136.6326   5481977.7532   5  17   2.2394   2.0507   4.4003   1.0931   2.1650   1.0696 -169.41    0.0
2017/07/23 09:36:25.000   2773706.6999   1653136.6554   5481977.4774   5  17   2.2394   2.0507   4.4004   1.0931   2.1651   1.0697 -169.21    0.0
2017/07/23 09:36:25.200   2773706.7076   1653136.6922   5481977.4463   5  17   2.2394   2.0507   4.4004   1.0931   2.1651   1.0698 -169.01    0.0
2017/07/23 09:36:25.400   2773706.7162   1653136.7849   5481977.5346   5  17   2.2394   2.0507   4.4005   1.0932   2.1652   1.0698 -168.81    0.0
2017/07/23 09:36:25.600   2773706.7661   1653136.7995   5481977.5886   5  17   2.2394   2.0507   4.4006   1.0932   2.1652   1.0699 -168.61    0.0
2017/07/23 09:36:25.800   2773706.8458   1653136.8077   5481977.6192   5  17   2.2394   2.0508   4.4007   1.0932   2.1653   1.0700 -168.41    0.0
2017/07/23 09:36:26.000   2773706.8640   1653136.7617   5481977.5676   5  17   2.2394   2.0508   4.4007   1.0932   2.1653   1.0700 -168.21    0.0
2017/07/23 09:36:26.200   2773706.8277   1653136.7397   5481977.6878   5  17   2.2394   2.0508   4.4008   1.0933   2.1654   1.0701 -168.01    0.0
2017/07/23 09:36:26.400   2773706.8888   1653136.8570   5481977.7266   5  17   2.2394   2.0508   4.4009   1.0933   2.1655   1.0702 -167.81    0.0
2017/07/23 09:36:26.600   2773706.8769   1653136.8276   5481977.5006   5  18   2.2394   2.0508   4.4010   1.0933   2.1655   1.0703 -167.61    0.0
2017/07/23 09:36:26.800   2773706.8674   1653136.7072   5481977.1689   5  18   2.2394   2.0509   4.4010   1.0933   2.1656   1.0703 -167.41    0.0
2017/07/23 09:36:27.000   2773706.8425   1653136.5811   5481977.2393   5  18   2.2395   2.0509   4.4011   1.0934   2.1656   1.0704 -167.21    0.0
2017/07/23 09:36:27.200   2773706.8679   1653136.5388   5481977.1518   5  18   2.2395   2.0509   4.4012   1.0934   2.1657   1.0705 -167.01    0.0
2017/07/23 09:36:27.400   2773706.8232   1653136.4572   5481977.0937   5  18   2.2395   2.0509   4.4013   1.0934   2.1657   1.0706 -166.81    0.0
2017/07/23 09:36:27.600   2773706.7508   1653136.3994   5481976.9901   5  18   2.2395   2.0509   4.4013   1.0935   2.1658   1.0706 -166.61    0.0
2017/07/23 09:36:27.800   2773706.6430   1653136.3155   5481976.7151   5  18   2.2395   2.0510   4.4014   1.0935   2.1658   1.0707 -166.41    0.0
2017/07/23 09:36:28.000   2773706.5597   1653136.2383   5481976.5856   5  18   2.2395   2.0510   4.4015   1.0935   2.1659   1.0708 -166.21    0.0
2017/07/23 09:36:28.200   2773706.7044   1653136.1533   5481976.5037   5  18   2.2395   2.0510   4.4016   1.0935   2.1659   1.0708 -166.01    0.0
2017/07/23 09:36:28.400   2773706.6921   1653136.1025   5481976.7535   5  17   2.2395   2.0510   4.4016   1.0936   2.1660   1.0709 -165.81    0.0
2017/07/23 09:36:28.600   2773706.7660   1653136.1734   5481977.0966   5  17   2.2395   2.0510   4.4017   1.0936   2.1660   1.0710 -165.61    0.0
2017/07/23 09:36:28.800   2773706.6576   1653136.1477   5481977.2367   5  17   2.2395   2.0511   4.4018   1.0936   2.1661   1.0711 -165.41    0.0
2017/07/23 09:36:29.000   2773706.7255   1653136.1989   5481977.4244   5  17   2.2395   2.0511   4.4019   1.0936   2.1661   1.0711 -165.21    0.0
2017/07/23 09:36:29.200   2773706.8041   1653136.2773   5481977.3878   5  17   2.2395   2.0511   4.4019   1.0937   2.1662   1.0712 -165.01    0.0
2017/07/23 09:36:29.400   2773706.7698   1653136.3022   5481977.4614   5  17   2.2395   2.0511   4.4020   1.0937   2.1662   1.0713 -164.81    0.0
2017/07/23 09:36:29.600   2773706.7059   1653136.2882   5481977.5014   5  17   2.2395   2.0511   4.4021   1.0937   2.1663   1.0713 -164.61    0.0
2017/07/23 09:36:29.800   2773706.8432   1653136.3689   5481977.7319   5  17   2.2395   2.0512   4.4022   1.0938   2.1663   1.0714 -164.41    0.0
2017/07/23 09:36:30.000   2773706.7821   1653136.3271   5481977.6618   5  17   2.2395   2.0512   4.4022   1.0938   2.1664   1.0715 -164.21    0.0
2017/07/23 09:36:30.200   2773706.7790   1653136.3504   5481977.5202   5  17   2.2395   2.0512   4.4023   1.0938   2.1664   1.0716 -164.01    0.0
2017/07/23 09:36:30.400   2773706.3463   1653135.6863   5481976.6056   5  16   2.5190   3.1595   5.0828   1.9920   3.2862   2.0195 -163.81    0.0
2017/07/23 09:36:30.600   2773706.3504   1653135.6412   5481976.3929   5  16   2.5190   3.1596   5.0829   1.9920   3.2862   2.0196 -163.61    0.0
2017/07/23 09:36:30.800   2773706.6521   1653136.2284   5481976.8686   5  17   2.2395   2.0513   4.4025   1.0939   2.1666   1.0718 -163.41    0.0
2017/07/23 09:36:31.000   2773706.7655   1653136.2040   5481976.9106   5  17   2.2395   2.0513   4.4026   1.0939   2.1666   1.0719 -163.21    0.0
2017/07/23 09:36:31.200   2773706.7844   1653136.1421   5481977.0671   5  17   2.2395   2.0513   4.4027   1.0939   2.1667   1.0719 -163.01    0.0
2017/07/23 09:36:31.400   2773706.8519   1653136.1249   5481977.1306   5  17   2.2395   2.0513   4.4028   1.0940   2.1668   1.0720 -162.81    0.0
2017/07/23 09:36:31.600   2773706.9042   1653136.0727   5481976.8811   5  17   2.2395   2.0513   4.4028   1.0940   2.1668   1.0721 -162.61    0.0
2017/07/23 09:36:31.800   2773706.9391   1653136.0188   5481976.8378   5  17   2.2395   2.0514   4.4029   1.0940   2.1669   1.0721 -162.41    0.0
2017/07/23 09:36:32.000   2773706.9090   1653136.0633   5481976.9816   5  17   2.2395   2.0514   4.4030   1.0941   2.1669   1.0722 -162.21    0.0
2017/07/23 09:36:32.200   2773706.8841   1653135.9989   5481976.9379   5  17   2.2395   2.0514   4.4031   1.0941   2.1670   1.0723 -162.01    0.0
2017/07/23 09:36:32.400   2773706.9368   1653136.0611   5481977.0298   5  17   2.2395   2.0514   4.4031   1.0941   2.1670   1.0724 -161.81    0.0
2017/07/23 09:36:32.600   2773706.9937   1653136.0228   5481977.0922   5  17   2.2395   2.0514   4.4032   1.0941   2.1671   1.0724 -161.61    0.0
2017/07/23 09:36:32.800   2773706.9508   1653136.0081   5481976.9677   5  17   2.2395   2.0515   4.4033   1.0942   2.1671   1.0725 -161.41    0.0
2017/07/23 09:36:33.000   2773707.1079   1653136.1038   5481977.1228   5  17   2.2395   2.0515   4.4034   1.0942   2.1672   1.0726 -161.21    0.0
2017/07/23 09:36:33.200   2773707.1052   1653136.0811   5481977.2046   5  17   2.2395   2.0515   4.4034   1.0942   2.1672   1.0727 -161.01    0.0
2017/07/23 09:36:33.400   2773707.1028   1653136.0513   5481977.3839   5  17   2.2395   2.0515   4.4035   1.0942   2.1673   1.0727 -160.81    0.0
2017/07/23 09:36:33.600   2773707.0627   1653136.1471   5481977.4342   5  17   2.2395   2.0515   4.4036   1.0943   2.1673   1.0728 -160.61    0.0
2017/07/23 09:36:33.800   2773707.0823   1653136.2909   5481977.5795   5  17   2.2395   2.0516   4.4037   1.0943   2.1674   1.0729 -160.41    0.0
2017/07/23 09:36:34.000   2773707.0911   1653136.3679   5481977.5441   5  17   2.2395   2.0516   4.4037   1.0943   2.1674   1.0729 -160.21    0.0
2017/07/23 09:36:34.200   2773706.9950   1653136.3645   5481977.4644   5  17   2.2395   2.0516   4.4038   1.0944   2.1675   1.0730 -160.01    0.0
2017/07/23 09:36:34.400   2773707.0823   1653136.4326   5481977.6579   5  17   2.2395   2.0516   4.4039   1.0944   2.1675   1.0731 -159.81    0.0
2017/07/23 09:36:34.600   2773707.1426   1653136.4232   5481977.4817   5  17   2.2395   2.0516   4.4040   1.0944   2.1676   1.0732 -159.61    0.0
2017/07/23 09:36:34.800   2773707.0977   1653136.5060   5481977.5417   5  17   2.2395   2.0517   4.4040   1.0944   2.1676   1.0732 -159.41    0.0
2017/07/23 09:36:35.000   2773707.0653   1653136.4625   5481977.5170   5  17   2.2395   2.0517   4.4041   1.0945   2.1677   1.0733 -159.21    0.0
2017/07/23 09:36:35.200   2773707.1026   1653136.4747   5481977.5782   5  17   2.2395   2.0517   4.4042   1.0945   2.1677   1.0734 -159.01    0.0
2017/07/23 09:36:35.400   2773707.0527   1653136.4662   5481977.7438   5  17   2.2396   2.0517   4.4043   1.0945   2.1678   1.0735 -158.81    0.0
2017/07/23 09:36:35.600   2773707.0224   1653136.5602   5481977.9712   5  17   2.2396   2.0517   4.4043   1.0945   2.1678   1.0735 -158.61    0.0
2017/07/23 09:36:35.800   2773706.9730   1653136.5823   5481977.7506   5  17   2.2396   2.0518   4.4044   1.0946   2.1679   1.0736 -158.41    0.0
2017/07/23 09:36:36.000   2773707.0023   1653136.5707   5481977.5832   5  17   2.2396   2.0518   4.4045   1.0946   2.1679   1.0737 -158.21    0.0
2017/07/23 09:36:36.200   2773707.0348   1653136.5305   5481977.5462   5  17   2.2396   2.0518   4.4046   1.0946   2.1680   1.0737 -158.01    0.0
2017/07/23 09:36:36.400   2773706.9170   1653136.5296   5481977.3440   5  17   2.2396   2.0518   4.4046   1.0947   2.1680   1.0738 -157.81    0.0
2017/07/23 09:36:36.600   2773706.9159   1653136.5022   5481977.4230   5  17   2.2396   2.0518   4.4047   1.0947   2.1681   1.0739 -157.61    0.0
2017/07/23 09:36:36.800   2773706.9199   1653136.5348   5481977.6919   5  17   2.2396   2.0519   4.4048   1.0947   2.1681   1.0740 -157.41    0.0
2017/07/23 09:36:37.000   2773706.8842   1653136.5530   5481977.7085   5  17   2.2396   2.0519   4.4049   1.0947   2.1682   1.0740 -157.21    0.0
2017/07/23 09:36:37.200   2773706.9338   1653136.6530   5481977.7865   5  17   2.2396   2.0519   4.4049   1.0948   2.1683   1.0741 -157.01    0.0
2017/07/23 09:36:37.400   2773706.9836   1653136.6644   5481977.7745   5  17   2.2396   2.0519   4.4050   1.0948   2.1683   1.0742 -156.81    0.0
2017/07/23 09:36:37.600   2773706.9701   1653136.6784   5481977.8123   5  17   2.2396   2.0519   4.4051   1.0948   2.1684   1.0742 -156.61    0.0
2017/07/23 09:36:37.800   2773706.9864   1653136.6587   5481977.3384   5  17   2.2396   2.0520   4.4051   1.0949   2.1684   1.0743 -156.41    0.0
2017/07/23 09:36:38.000   2773707.0470   1653136.6746   5481977.2071   5  17   2.2396   2.0520   4.4052   1.0949   2.1685   1.0744 -156.21    0.0
2017/07/23 09:36:38.200   2773707.0992   1653136.7816   5481977.2239   5  17   2.2396   2.0520   4.4053   1.0949   2.1685   1.0745 -156.01    0.0
2017/07/23 09:36:38.400   2773707.1616   1653136.8581   5481977.3258   5  17   2.2396   2.0520   4.4054   1.0949   2.1686   1.0745 -155.81    0.0
2017/07/23 09:36:38.600   2773707.3293   1653137.0970   5481977.6517   5  17   2.2396   2.0520   4.4054   1.0950   2.1686   1.0746 -155.61    0.0
2017/07/23 09:36:38.800   2773707.4513   1653137.1938   5481977.5930   5  17   2.2396   2.0521   4.4055   1.0950   2.1687   1.0747 -155.41    0.0
2017/07/23 09:36:39.000   2773707.3579   1653137.1427   5481977.5880   5  17   2.2396   2.0521   4.4056   1.0950   2.1687   1.0748 -155.21    0.0
2017/07/23 09:36:39.200   2773707.2815   1653137.0743   5481977.3946   5  17   2.2396   2.0521   4.4057   1.0950   2.1688   1.0748 -155.01    0.0
2017/07/23 09:36:39.400   2773707.2717   1653137.1151   5481977.0664   5  17   2.2396   2.0521   4.4057   1.0951   2.1688   1.0749 -154.81    0.0
2017/07/23 09:36:39.600   2773707.1988   1653137.1357   5481976.9479   5  17   2.2396   2.0521   4.4058   1.0951   2.1689   1.0750 -154.61    0.0
2017/07/23 09:36:39.800   2773707.2397   1653137.0980   5481976.9601   5  17   2.2396   2.0522   4.4059   1.0951   2.1689   1.0750 -154.41    0.0
2017/07/23 09:36:40.000   2773707.2806   1653137.0155   5481976.9025   5  17   2.2396   2.0522   4.4060   1.0952   2.1690   1.0751 -154.21    0.0
2017/07/23 09:36:40.200   2773707.2403   1653137.0567   5481977.0783   5  17   2.2396   2.0522   4.4060   1.0952   2.1690   1.0752 -154.01    0.0
2017/07/23 09:36:40.400   2773707.1534   1653137.0606   5481977.1211   5  17   2.2396   2.0522   4.4061   1.0952   2.1691   1.0753 -153.81    0.0
2017/07/23 09:36:40.600   2773707.0836   1653136.9572   5481977.0389   5  17   2.2396   2.0522   4.4062   1.0952   2.1691   1.0753 -153.61    0.0
2017/07/23 09:36:40.800   2773707.0014   1653136.8361   5481976.6675   5  17   2.2396   2.0523   4.4063   1.0953   2.1692   1.0754 -153.41    0.0
2017/07/23 09:36:41.000   2773707.0130   1653136.7517   5481976.5169   5  17   2.2396   2.0523   4.4063   1.0953   2.1692   1.0755 -153.21    0.0
2017/07/23 09:36:41.200   2773707.0428   1653136.6193   5481976.5043   5  17   2.2396   2.0523   4.4064   1.0953   2.1693   1.0756 -153.01    0.0
2017/07/23 09:36:41.400   2773707.0721   1653136.5227   5481976.6101   5  17   2.2396   2.0523   4.4065   1.0953   2.1693   1.0756 -152.81    0.0
2017/07/23 09:36:41.600   2773706.9936   1653136.4879   5481976.4502   5  17   2.2396   2.0523   4.4066   1.0954   2.1694   1.0757 -152.61    0.0
2017/07/23 09:36:41.800   2773706.9433   1653136.5002   5481976.6172   5  17   2.2396   2.0524   4.4066   1.0954   2.1694   1.0758 -152.41    0.0
2017/07/23 09:36:42.000   2773706.9686   1653136.5259   5481976.4948   5  17   2.2396   2.0524   4.4067   1.0954   2.1695   1.0759 -152.21    0.0
2017/07/23 09:36:42.200   2773707.0158   1653136.4680   5481976.1824   5  17   2.2396   2.0524   4.4068   1.0955   2.1695   1.0759 -152.01    0.0
2017/07/23 09:36:42.400   2773707.0188   1653136.3873   5481976.0714   5  17   2.2396   2.0524   4.4069   1.0955   2.1696   1.0760 -151.81    0.0
2017/07/23 09:36:42.600   2773707.0577   1653136.4793   5481976.1401   5  17   2.2396   2.0524   4.4069   1.0955   2.1696   1.0761 -151.61    0.0
2017/07/23 09:36:42.800   2773707.0455   1653136.4392   5481976.1092   5  17   2.2396   2.0525   4.4070   1.0955   2.1697   1.0761 -151.41    0.0
2017/07/23 09:36:43.000   2773707.0362   1653136.4563   5481976.0654   5  17   2.2396   2.0525   4.4071   1.0956   2.1697   1.0762 -151.21    0.0
2017/07/23 09:36:43.200   2773707.0263   1653136.4384   5481975.9175   5  17   2.2396   2.0525   4.4071   1.0956   2.1698   1.0763 -151.01    0.0
2017/07/23 09:36:43.400   2773707.0991   1653136.4837   5481975.9473   5  17   2.2396   2.0525   4.4072   1.0956   2.1699   1.0764 -150.81    0.0
2017/07/23 09:36:43.600   2773707.0799   1653136.4350   5481976.0274   5  17   2.2397   2.0525   4.4073   1.0956   2.1699   1.0764 -150.61    0.0
2017/07/23 09:36:43.800   2773707.1604   1653136.4522   5481976.0796   5  17   2.2397   2.0526   4.4074   1.0957   2.1700   1.0765 -150.41    0.0
2017/07/23 09:36:44.000   2773707.1758   1653136.3874   5481976.2073   5  17   2.2397   2.0526   4.4074   1.0957   2.1700   1.0766 -150.21    0.0
2017/07/23 09:36:44.200   2773707.2327   1653136.4620   5481976.5650   5  17   2.2397   2.0526   4.4075   1.0957   2.1701   1.0767 -150.01    0.0
2017/07/23 09:36:44.400   2773707.3285   1653136.4361   5481976.7012   5  17   2.2397   2.0526   4.4076   1.0958   2.1701   1.0767 -149.81    0.0
2017/07/23 09:36:44.600   2773707.3903   1653136.4953   5481976.7472   5  17   2.2397   2.0526   4.4077   1.0958   2.1702   1.0768 -149.61    0.0
2017/07/23 09:36:44.800   2773707.4123   1653136.5847   5481977.0326   5  17   2.2397   2.0526   4.4077   1.0958   2.1702   1.0769 -149.41    0.0
2017/07/23 09:36:45.000   2773707.4459   1653136.5981   5481977.0076   5  17   2.2397   2.0527   4.4078   1.0958   2.1703   1.0769 -149.21    0.0
2017/07/23 09:36:45.200   2773707.4590   1653136.5459   5481977.1965   5  17   2.2397   2.0527   4.4079   1.0959   2.1703   1.0770 -149.01    0.0
2017/07/23 09:36:45.400   2773707.3409   1653136.4599   5481977.1701   5  17   2.2397   2.0527   4.4080   1.0959   2.1704   1.0771 -148.81    0.0
2017/07/23 09:36:45.600   2773707.4161   1653136.3926   5481977.3242   5  17   2.2397   2.0527   4.4080   1.0959   2.1704   1.0772 -148.61    0.0
2017/07/23 09:36:45.800   2773707.4890   1653136.3516   5481977.3208   5  17   2.2397   2.0527   4.4081   1.0960   2.1705   1.0772 -148.41    0.0
2017/07/23 09:36:46.000   2773707.5392   1653136.3934   5481977.4235   5  17   2.2397   2.0528   4.4082   1.0960   2.1705   1.0773 -148.21    0.0
2017/07/23 09:36:46.200   2773707.6046   1653136.4034   5481977.3826   5  17   2.2397   2.0528   4.4083   1.0960   2.1706   1.0774 -148.01    0.0
2017/07/23 09:36:46.400   2773707.6171   1653136.3712   5481977.2825   5  17   2.2397   2.0528   4.4083   1.0960   2.1706   1.0775 -147.81    0.0
2017/07/23 09:36:46.600   2773707.4883   1653136.3963   5481977.2163   5  17   2.2397   2.0528   4.4084   1.0961   2.1707   1.0775 -147.61    0.0
2017/07/23 09:36:46.800   2773707.4280   1653136.2905   5481976.9362   5  17   2.2397   2.0528   4.4085   1.0961   2.1707   1.0776 -147.41    0.0
2017/07/23 09:36:47.000   2773707.4370   1653136.3010   5481976.8355   5  17   2.2397   2.0529   4.4085   1.0961   2.1708   1.0777 -147.21    0.0
2017/07/23 09:36:47.200   2773707.5493   1653136.3553   5481976.8804   5  17   2.2397   2.0529   4.4086   1.0961   2.1708   1.0777 -147.01    0.0
2017/07/23 09:36:47.400   2773707.6046   1653136.4101   5481977.1141   5  17   2.2397   2.0529   4.4087   1.0962   2.1709   1.0778 -146.81    0.0
2017/07/23 09:36:47.600   2773707.6659   1653136.5008   5481977.2591   5  17   2.2397   2.0529   4.4088   1.0962   2.1709   1.0779 -146.61    0.0
2017/07/23 09:36:47.800   2773707.7378   1653136.5299   5481977.4856   5  17   2.2397   2.0529   4.4088   1.0962   2.1710   1.0780 -146.41    0.0
2017/07/23 09:36:48.000   2773707.7597   1653136.5653   5481977.4400   5  17   2.2397   2.0530   4.4089   1.0963   2.1710   1.0780 -146.21    0.0
2017/07/23 09:36:48.200   2773707.7979   1653136.5205   5481977.3771   5  17   2.2397   2.0530   4.4090   1.0963   2.1711   1.0781 -146.01    0.0
2017/07/23 09:36:48.400   2773707.8027   1653136.5120   5481977.2675   5  17   2.2397   2.0530   4.4091   1.0963   2.1711   1.0782 -145.81    0.0
2017/07/23 09:36:48.600   2773707.8346   1653136.4256   5481977.3793   5  17   2.2397   2.0530   4.4091   1.0963   2.1712   1.0783 -145.61    0.0
2017/07/23 09:36:48.800   2773707.8321   1653136.4233   5481977.3820   5  17   2.2397   2.0530   4.4092   1.0964   2.1712   1.0783 -145.41    0.0
2017/07/23 09:36:49.000   2773707.8650   1653136.4188   5481977.4976   5  17   2.2397   2.0531   4.4093   1.0964   2.1713   1.0784 -145.21    0.0
2017/07/23 09:36:49.200   2773707.7564   1653136.3592   5481977.3959   5  17   2.2397   2.0531   4.4094   1.0964   2.1713   1.0785 -145.01    0.0
2017/07/23 09:36:49.400   2773707.7550   1653136.4226   5481977.5607   5  17   2.2397   2.0531   4.4094   1.0965   2.1714   1.0786 -144.81    0.0
2017/07/23 09:36:49.600   2773707.7300   1653136.5116   5481977.5888   5  17   2.2397   2.0531   4.4095   1.0965   2.1714   1.0786 -144.61    0.0
2017/07/23 09:36:49.800   2773707.7785   1653136.5770   5481977.3912   5  17   2.2397   2.0531   4.4096   1.0965   2.1715   1.0787 -144.41    0.0
2017/07/23 09:36:50.000   2773707.8442   1653136.5522   5481977.2355   5  17   2.2397   2.0532   4.4097   1.0965   2.1715   1.0788 -144.21    0.0
2017/07/23 09:36:50.200   2773707.8137   1653136.6335   5481977.2224   5  17   2.2397   2.0532   4.4097   1.0966   2.1716   1.0788 -144.01    0.0
2017/07/23 09:36:50.400   2773707.7707   1653136.5147   5481977.2402   5  17   2.2397   2.0532   4.4098   1.0966   2.1717   1.0789 -143.81    0.0
2017/07/23 09:36:50.600   2773707.8098   1653136.4987   5481977.2915   5  17   2.2397   2.0532   4.4099   1.0966   2.1717   1.0790 -143.61    0.0
2017/07/23 09:36:50.800   2773707.8125   1653136.5244   5481977.3257   5  17   2.2397   2.0532   4.4099   1.0966   2.1718   1.0791 -143.41    0.0
2017/07/23 09:36:51.000   2773707.8601   1653136.5564   5481977.3270   5  17   2.2397   2.0533   4.4100   1.0967   2.1718   1.0791 -143.21    0.0
2017/07/23 09:36:51.200   2773707.7544   1653136.6274   5481977.3961   5  17   2.2397   2.0533   4.4101   1.0967   2.1719   1.0792 -143.01    0.0
2017/07/23 09:36:51.400   2773707.6907   1653136.6871   5481977.2742   5  17   2.2397   2.0533   4.4102   1.0967   2.1719   1.0793 -142.81    0.0
2017/07/23 09:36:51.600   2773707.7297   1653136.8114   5481977.3962   5  17   2.2398   2.0533   4.4102   1.0968   2.1720   1.0794 -142.61    0.0
2017/07/23 09:36:51.800   2773707.7764   1653136.9227   5481977.4882   5  17   2.2398   2.0533   4.4103   1.0968   2.1720   1.0794 -142.41    0.0
2017/07/23 09:36:52.000   2773707.7355   1653136.9058   5481977.4702   5  17   2.2398   2.0534   4.4104   1.0968   2.1721   1.0795 -142.21    0.0
2017/07/23 09:36:52.200   2773707.7847   1653136.9945   5481977.4011   5  17   2.2398   2.0534   4.4105   1.0968   2.1721   1.0796 -142.01    0.0
2017/07/23 09:36:52.400   2773707.7169   1653136.9222   5481977.1573   5  17   2.2398   2.0534   4.4105   1.0969   2.1722   1.0797 -141.81    0.0
2017/07/23 09:36:52.600   2773707.7186   1653136.9394   5481977.1239   5  17   2.2398   2.0534   4.4106   1.0969   2.1722   1.0797 -141.61    0.0
2017/07/23 09:36:52.800   2773707.5962   1653136.8714   5481977.0148   5  17   2.2398   2.0534   4.4107   1.0969   2.1723   1.0798 -141.41    0.0
2017/07/23 09:36:53.000   2773707.5244   1653136.8728   5481976.7417   5  17   2.2398   2.0535   4.4108   1.0970   2.1723   1.0799 -141.21    0.0
2017/07/23 09:36:53.200   2773707.5542   1653136.8095   5481976.6488   5  17   2.2398   2.0535   4.4108   1.0970   2.1724   1.0799 -141.01    0.0
2017/07/23 09:36:53.400   2773707.5358   1653136.8252   5481976.6239   5  17   2.2398   2.0535   4.4109   1.0970   2.1724   1.0800 -140.81    0.0
2017/07/23 09:36:53.600   2773707.4833   1653136.6482   5481976.6114   5  17   2.2398   2.0535   4.4110   1.0970   2.1725   1.0801 -140.61    0.0
2017/07/23 09:36:53.800   2773707.4675   1653136.6904   5481976.7714   5  17   2.2398   2.0535   4.4110   1.0971   2.1725   1.0802 -140.41    0.0
2017/07/23 09:36:54.000   2773707.4209   1653136.6981   5481976.8981   5  17   2.2398   2.0536   4.4111   1.0971   2.1726   1.0802 -140.21    0.0
2017/07/23 09:36:54.200   2773707.4356   1653136.6933   5481976.9011   5  17   2.2398   2.0536   4.4112   1.0971   2.1726   1.0803 -140.01    0.0
2017/07/23 09:36:54.400   2773707.2699   1653136.6038   5481976.9980   5  17   2.2398   2.0536   4.4113   1.0971   2.1727   1.0804 -139.81    0.0
2017/07/23 09:36:54.600   2773707.1972   1653136.5027   5481976.5922   5  17   2.2398   2.0536   4.4113   1.0972   2.1727   1.0805 -139.61    0.0
2017/07/23 09:36:54.800   2773707.2137   1653136.4755   5481976.6968   5  17   2.2398   2.0536   4.4114   1.0972   2.1728   1.0805 -139.41    0.0
2017/07/23 09:36:55.000   2773707.3698   1653136.5303   5481976.8784   5  17   2.2398   2.0537   4.4115   1.0972   2.1728   1.0806 -139.21    0.0
2017/07/23 09:36:55.200   2773707.4257   1653136.5448   5481976.8981   5  17   2.2398   2.0537   4.4116   1.0973   2.1729   1.0807 -139.01    0.0
2017/07/23 09:36:55.400   2773707.4382   1653136.5402   5481976.9059   5  17   2.2398   2.0537   4.4116   1.0973   2.1729   1.0808 -138.81    0.0
2017/07/23 09:36:55.600   2773707.4689   1653136.5239   5481976.9932   5  17   2.2398   2.0537   4.4117   1.0973   2.1730   1.0808 -138.61    0.0
2017/07/23 09:36:55.800   2773707.3958   1653136.5234   5481977.0922   5  17   2.2398   2.0537   4.4118   1.0973   2.1730   1.0809 -138.41    0.0
2017/07/23 09:36:56.000   2773707.3838   1653136.4810   5481977.1191   5  17   2.2398   2.0538   4.4119   1.0974   2.1731   1.0810 -138.21    0.0
2017/07/23 09:36:56.200   2773707.2631   1653136.3791   5481976.9679   5  17   2.2398   2.0538   4.4119   1.0974   2.1731   1.0810 -138.01    0.0
2017/07/23 09:36:56.400   2773707.2461   1653136.3504   5481977.0611   5  17   2.2398   2.0538   4.4120   1.0974   2.1732   1.0811 -137.81    0.0
2017/07/23 09:36:56.600   2773707.3193   1653136.3454   5481977.0973   5  17   2.2398   2.0538   4.4121   1.0975   2.1732   1.0812 -137.61    0.0
2017/07/23 09:36:56.800   2773707.3783   1653136.4656   5481977.5457   5  17   2.2398   2.0538   4.4121   1.0975   2.1733   1.0813 -137.41    0.0
2017/07/23 09:36:57.000   2773707.4404   1653136.4809   5481977.4592   5  17   2.2398   2.0539   4.4122   1.0975   2.1733   1.0813 -137.21    0.0
2017/07/23 09:36:57.200   2773707.4547   1653136.4612   5481977.5182   5  17   2.2398   2.0539   4.4123   1.0975   2.1734   1.0814 -137.01    0.0
2017/07/23 09:36:57.400   2773707.4282   1653136.4616   5481977.4021   5  17   2.2398   2.0539   4.4124   1.0976   2.1734   1.0815 -136.81    0.0
2017/07/23 09:36:57.600   2773707.4005   1653136.3769   5481976.9660   5  17   2.2398   2.0539   4.4124   1.0976   2.1735   1.0816 -136.61    0.0
2017/07/23 09:36:57.800   2773707.3454   1653136.2840   5481976.9328   5  18   2.2398   2.0539   4.4125   1.0976   2.1735   1.0816 -136.41    0.0
2017/07/23 09:36:58.000   2773707.3399   1653136.3198   5481976.9961   5  18   2.2398   2.0540   4.4126   1.0976   2.1736   1.0817 -136.21    0.0
2017/07/23 09:36:58.200   2773707.3803   1653136.3903   5481976.8638   5  18   2.2398   2.0540   4.4127   1.0977   2.1736   1.0818 -136.01    0.0
2017/07/23 09:36:58.400   2773707.4635   1653136.4455   5481976.9716   5  18   2.2398   2.0540   4.4127   1.0977   2.1737   1.0819 -135.81    0.0
2017/07/23 09:36:58.600   2773707.4521   1653136.4399   5481977.0277   5  18   2.2398   2.0540   4.4128   1.0977   2.1737   1.0819 -135.61    0.0
2017/07/23 09:36:58.800   2773707.4042   1653136.5022   5481977.0671   5  18   2.2398   2.0540   4.4129   1.0978   2.1738   1.0820 -135.41    0.0
2017/07/23 09:36:59.000   2773707.4803   1653136.5534   5481977.1053   5  18   2.2398   2.0541   4.4130   1.0978   2.1739   1.0821 -135.21    0.0
2017/07/23 09:36:59.200   2773707.2739   1653136.4544   5481976.7472   5  17   2.2398   2.0541   4.4130   1.0978   2.1739   1.0821 -135.01    0.0
2017/07/23 09:36:59.400   2773707.2391   1653136.4856   5481976.7056   5  17   2.2398   2.0541   4.4131   1.0978   2.1740   1.0822 -134.81    0.0
2017/07/23 09:36:59.600   2773707.1847   1653136.5047   5481976.7762   5  17   2.2399   2.0541   4.4132   1.0979   2.1740   1.0823 -134.61    0.0
2017/07/23 09:36:59.800   2773707.1503   1653136.5212   5481976.7596   5  18   2.2399   2.0541   4.4132   1.0979   2.1741   1.0824 -134.41    0.0
2017/07/23 09:37:00.000   2773707.1454   1653136.4210   5481976.5552   5  17   2.2399   2.0542   4.4133   1.0979   2.1741   1.0824 -134.21    0.0
2017/07/23 09:37:00.200   2773707.1599   1653136.4570   5481976.4596   5  17   2.2399   2.0542   4.4134   1.0980   2.1742   1.0825 -134.01    0.0
2017/07/23 09:37:00.400   2773707.0984   1653136.3786   5481976.3169   5  17   2.2399   2.0542   4.4135   1.0980   2.1742   1.0826 -133.81    0.0
2017/07/23 09:37:00.600   2773707.0753   1653136.2778   5481976.0202   5  17   2.2399   2.0542   4.4135   1.0980   2.1743   1.0827 -133.61    0.0
2017/07/23 09:37:00.800   2773706.9718   1653136.1096   5481975.8983   5  17   2.2399   2.0542   4.4136   1.0980   2.1743   1.0827 -133.41    0.0
2017/07/23 09:37:01.000   2773706.9133   1653136.1687   5481975.9489   5  17   2.2399   2.0543   4.4137   1.0981   2.1744   1.0828 -133.21    0.0
2017/07/23 09:37:01.200   2773707.0404   1653136.2230   5481975.8750   5  17   2.2399   2.0543   4.4138   1.0981   2.1744   1.0829 -133.01    0.0
2017/07/23 09:37:01.400   2773707.0022   1653136.2298   5481975.7313   5  17   2.2399   2.0543   4.4138   1.0981   2.1745   1.0830 -132.81    0.0
2017/07/23 09:37:01.600   2773707.0821   1653136.3175   5481975.9713   5  17   2.2399   2.0543   4.4139   1.0981   2.1745   1.0830 -132.61    0.0
2017/07/23 09:37:01.800   2773707.0643   1653136.3722   5481976.2661   5  17   2.2399   2.0543   4.4140   1.0982   2.1746   1.0831 -132.41    0.0
2017/07/23 09:37:02.000   2773707.1801   1653136.4717   5481976.4699   5  17   2.2399   2.0544   4.4140   1.0982   2.1746   1.0832 -132.21    0.0
2017/07/23 09:37:02.200   2773707.1034   1653136.3831   5481976.6710   5  17   2.2399   2.0544   4.4141   1.0982   2.1747   1.0833 -132.01    0.0
2017/07/23 09:37:02.400   2773707.1618   1653136.3442   5481976.6555   5  17   2.2399   2.0544   4.4142   1.0983   2.1747   1.0833 -131.81    0.0
2017/07/23 09:37:02.600   2773707.1206   1653136.3207   5481976.7315   5  17   2.2399   2.0544   4.4143   1.0983   2.1748   1.0834 -131.61    0.0
2017/07/23 09:37:02.800   2773707.2377   1653136.4113   5481976.9286   5  17   2.2399   2.0544   4.4143   1.0983   2.1748   1.0835 -131.41    0.0
2017/07/23 09:37:03.000   2773707.3099   1653136.5153   5481977.3114   5  17   2.2399   2.0545   4.4144   1.0983   2.1749   1.0835 -131.21    0.0
2017/07/23 09:37:03.200   2773707.3805   1653136.6181   5481977.2762   5  17   2.2399   2.0545   4.4145   1.0984   2.1749   1.0836 -131.01    0.0
2017/07/23 09:37:03.400   2773707.3657   1653136.6061   5481977.1558   5  17   2.2399   2.0545   4.4146   1.0984   2.1750   1.0837 -130.81    0.0
2017/07/23 09:37:03.600   2773707.2390   1653136.4807   5481976.9798   5  17   2.2399   2.0545   4.4146   1.0984   2.1750   1.0838 -130.61    0.0
2017/07/23 09:37:03.800   2773707.2044   1653136.4797   5481977.1202   5  17   2.2399   2.0545   4.4147   1.0985   2.1751   1.0838 -130.41    0.0
2017/07/23 09:37:04.000   2773707.2388   1653136.5063   5481976.9247   5  17   2.2399   2.0546   4.4148   1.0985   2.1751   1.0839 -130.21    0.0
2017/07/23 09:37:04.200   2773707.1946   1653136.4428   5481976.8075   5  17   2.2399   2.0546   4.4148   1.0985   2.1752   1.0840 -130.01    0.0
2017/07/23 09:37:04.400   2773707.1411   1653136.4239   5481976.9341   5  17   2.2399   2.0546   4.4149   1.0985   2.1752   1.0841 -129.81    0.0
2017/07/23 09:37:04.600   2773707.2510   1653136.3248   5481976.9751   5  17   2.2399   2.0546   4.4150   1.0986   2.1753   1.0841 -129.61    0.0
2017/07/23 09:37:04.800   2773707.3541   1653136.4158   5481977.3599   5  17   2.2399   2.0546   4.4151   1.0986   2.1753   1.0842 -129.41    0.0
2017/07/23 09:37:05.000   2773707.3926   1653136.4634   5481977.5947   5  17   2.2399   2.0547   4.4151   1.0986   2.1754   1.0843 -129.21    0.0
2017/07/23 09:37:05.200   2773707.5163   1653136.5543   5481977.8062   5  17   2.2399   2.0547   4.4152   1.0987   2.1754   1.0844 -129.01    0.0
2017/07/23 09:37:05.400   2773707.5944   1653136.4714   5481977.5929   5  17   2.2399   2.0547   4.4153   1.0987   2.1755   1.0844 -128.81    0.0
2017/07/23 09:37:05.600   2773707.6700   1653136.5240   5481977.6475   5  17   2.2399   2.0547   4.4154   1.0987   2.1755   1.0845 -128.61    0.0
2017/07/23 09:37:05.800   2773707.6404   1653136.4134   5481977.7273   5  17   2.2399   2.0547   4.4154   1.0987   2.1756   1.0846 -128.41    0.0
2017/07/23 09:37:06.000   2773707.6738   1653136.3675   5481977.6590   5  17   2.2399   2.0548   4.4155   1.0988   2.1756   1.0847 -128.21    0.0
2017/07/23 09:37:06.200   2773707.6999   1653136.4231   5481977.9371   5  17   2.2399   2.0548   4.4156   1.0988   2.1757   1.0847 -128.01    0.0
2017/07/23 09:37:06.400   2773707.7154   1653136.3504   5481977.8093   5  17   2.2399   2.0548   4.4156   1.0988   2.1757   1.0848 -127.81    0.0
2017/07/23 09:37:06.600   2773707.7044   1653136.3794   5481978.0607   5  17   2.2399   2.0548   4.4157   1.0988   2.1758   1.0849 -127.61    0.0
2017/07/23 09:37:06.800   2773707.6711   1653136.2823   5481978.0593   5  17   2.2399   2.0548   4.4158   1.0989   2.1758   1.0850 -127.41    0.0
2017/07/23 09:37:07.000   2773707.6363   1653136.3348   5481978.1313   5  17   2.2399   2.0549   4.4159   1.0989   2.1759   1.0850 -127.21    0.0
2017/07/23 09:37:07.200   2773707.5488   1653136.2730   5481977.9578   5  17   2.2399   2.0549   4.4159   1.0989   2.1759   1.0851 -127.01    0.0
2017/07/23 09:37:07.400   2773707.5181   1653136.1819   5481977.9571   5  17   2.2400   2.0549   4.4160   1.0990   2.1760   1.0852 -126.81    0.0
2017/07/23 09:37:07.600   2773707.4086   1653136.0878   5481978.0152   5  17   2.2400   2.0549   4.4161   1.0990   2.1760   1.0852 -126.61    0.0
2017/07/23 09:37:07.800   2773707.4233   1653136.1440   5481978.1868   5  17   2.2400   2.0549   4.4162   1.0990   2.1761   1.0853 -126.41    0.0
2017/07/23 09:37:08.000   2773707.4680   1653136.1652   5481978.3268   5  17   2.2400   2.0549   4.4162   1.0990   2.1761   1.0854 -126.21    0.0
2017/07/23 09:37:08.200   2773707.4710   1653136.0844   5481978.3311   5  17   2.2400   2.0550   4.4163   1.0991   2.1762   1.0855 -126.01    0.0
2017/07/23 09:37:08.400   2773707.4883   1653136.0765   5481978.3257   5  17   2.2400   2.0550   4.4164   1.0991   2.1762   1.0855 -125.81    0.0
2017/07/23 09:37:08.600   2773707.4511   1653136.0985   5481978.2910   5  17   2.2400   2.0550   4.4164   1.0991   2.1763   1.0856 -125.61    0.0
2017/07/23 09:37:08.800   2773707.4178   1653136.0015   5481978.2716   5  17   2.2400   2.0550   4.4165   1.0992   2.1763   1.0857 -125.41    0.0
2017/07/23 09:37:09.000   2773707.3839   1653135.9909   5481978.1121   5  17   2.2400   2.0550   4.4166   1.0992   2.1764   1.0858 -125.21    0.0
2017/07/23 09:37:09.200   2773707.2638   1653135.8527   5481978.1867   5  17   2.2400   2.0551   4.4167   1.0992   2.1764   1.0858 -125.01    0.0
2017/07/23 09:37:09.400   2773707.2461   1653135.9102   5481978.3181   5  17   2.2400   2.0551   4.4167   1.0992   2.1765   1.0859 -124.81    0.0
2017/07/23 09:37:09.600   2773707.2519   1653135.8512   5481978.1044   5  17   2.2400   2.0551   4.4168   1.0993   2.1765   1.0860 -124.61    0.0
2017/07/23 09:37:09.800   2773707.3365   1653135.8808   5481978.1014   5  17   2.2400   2.0551   4.4169   1.0993   2.1766   1.0861 -124.41    0.0
2017/07/23 09:37:10.000   2773707.3457   1653135.7617   5481978.0332   5  17   2.2400   2.0551   4.4169   1.0993   2.1766   1.0861 -124.21    0.0
2017/07/23 09:37:10.200   2773707.3417   1653135.8054   5481977.9272   5  17   2.2400   2.0552   4.4170   1.0994   2.1767   1.0862 -124.01    0.0
2017/07/23 09:37:10.400   2773707.4091   1653135.8556   5481977.9200   5  17   2.2400   2.0552   4.4171   1.0994   2.1767   1.0863 -123.81    0.0
2017/07/23 09:37:10.600   2773707.2999   1653135.7200   5481977.6245   5  17   2.2400   2.0552   4.4172   1.0994   2.1768   1.0864 -123.61    0.0
2017/07/23 09:37:10.800   2773707.2709   1653135.6273   5481977.5642   5  17   2.2400   2.0552   4.4172   1.0994   2.1768   1.0864 -123.41    0.0
2017/07/23 09:37:11.000   2773707.2096   1653135.6098   5481977.6417   5  17   2.2400   2.0552   4.4173   1.0995   2.1769   1.0865 -123.21    0.0
2017/07/23 09:37:11.200   2773707.2649   1653135.6608   5481978.0054   5  17   2.2400   2.0553   4.4174   1.0995   2.1770   1.0866 -123.01    0.0
2017/07/23 09:37:11.400   2773707.3539   1653135.7906   5481978.2885   5  17   2.2400   2.0553   4.4175   1.0995   2.1770   1.0867 -122.81    0.0
2017/07/23 09:37:11.600   2773707.3146   1653135.7736   5481978.3124   5  17   2.2400   2.0553   4.4175   1.0995   2.1771   1.0867 -122.61    0.0
2017/07/23 09:37:11.800   2773707.3321   1653135.8238   5481978.0995   5  17   2.2400   2.0553   4.4176   1.0996   2.1771   1.0868 -122.41    0.0
2017/07/23 09:37:12.000   2773707.3092   1653135.8475   5481978.1697   5  17   2.2400   2.0553   4.4177   1.0996   2.1772   1.0869 -122.21    0.0
2017/07/23 09:37:12.200   2773707.3489   1653135.8077   5481978.1245   5  17   2.2400   2.0554   4.4177   1.0996   2.1772   1.0869 -122.01    0.0
2017/07/23 09:37:12.400   2773707.3003   1653135.8334   5481978.1659   5  17   2.2400   2.0554   4.4178   1.0997   2.1773   1.0870 -121.81    0.0
2017/07/23 09:37:12.600   2773707.4174   1653135.8886   5481978.2153   5  17   2.2400   2.0554   4.4179   1.0997   2.1773   1.0871 -121.61    0.0
2017/07/23 09:37:12.800   2773707.4502   1653135.9198   5481978.0592   5  17   2.2400   2.0554   4.4180   1.0997   2.1774   1.0872 -121.41    0.0
2017/07/23 09:37:13.000   2773707.5729   1653136.0941   5481978.5515   5  17   2.2400   2.0554   4.4180   1.0997   2.1774   1.0872 -121.21    0.0
2017/07/23 09:37:13.200   2773707.5458   1653136.0952   5481978.7337   5  17   2.2400   2.0555   4.4181   1.0998   2.1775   1.0873 -121.01    0.0
2017/07/23 09:37:13.400   2773707.4354   1653136.1293   5481978.5953   5  17   2.2400   2.0555   4.4182   1.0998   2.1775   1.0874 -120.81    0.0
2017/07/23 09:37:13.600   2773707.3206   1653136.1142   5481978.4776   5  17   2.2400   2.0555   4.4182   1.0998   2.1776   1.0875 -120.61    0.0
2017/07/23 09:37:13.800   2773707.3254   1653136.2723   5481978.5109   5  17   2.2400   2.0555   4.4183   1.0999   2.1776   1.0875 -120.41    0.0
2017/07/23 09:37:14.000   2773707.3321   1653136.2092   5481978.2732   5  17   2.2400   2.0555   4.4184   1.0999   2.1777   1.0876 -120.21    0.0
2017/07/23 09:37:14.200   2773707.2503   1653136.1384   5481977.8858   5  17   2.2400   2.0556   4.4185   1.0999   2.1777   1.0877 -120.01    0.0
2017/07/23 09:37:14.400   2773707.2224   1653136.2111   5481977.9708   5  17   2.2400   2.0556   4.4185   1.0999   2.1778   1.0878 -119.81    0.0
2017/07/23 09:37:14.600   2773707.2460   1653136.2498   5481978.2232   5  18   2.2400   2.0556   4.4186   1.1000   2.1778   1.0878 -119.61    0.0
2017/07/23 09:37:14.800   2773707.2253   1653136.3075   5481978.5354   5  18   2.2400   2.0556   4.4187   1.1000   2.1779   1.0879 -119.41    0.0
2017/07/23 09:37:15.000   2773707.2149   1653136.2908   5481978.5167   5  18   2.2400   2.0556   4.4188   1.1000   2.1779   1.0880 -119.21    0.0
2017/07/23 09:37:15.200   2773707.2204   1653136.2847   5481978.7153   5  17   2.2401   2.0557   4.4188   1.1001   2.1780   1.0881 -119.01    0.0
2017/07/23 09:37:15.400   2773707.0798   1653136.2762   5481978.7930   5  17   2.2401   2.0557   4.4189   1.1001   2.1780   1.0881 -118.81    0.0
2017/07/23 09:37:15.600   2773707.0318   1653136.2691   5481978.7585   5  17   2.2401   2.0557   4.4190   1.1001   2.1781   1.0882 -118.61    0.0
2017/07/23 09:37:15.800   2773707.0834   1653136.3305   5481978.7205   5  18   2.2401   2.0557   4.4190   1.1001   2.1781   1.0883 -118.41    0.0
2017/07/23 09:37:16.000   2773707.1900   1653136.2828   5481978.4493   5  17   2.2401   2.0557   4.4191   1.1002   2.1782   1.0884 -118.21    0.0
2017/07/23 09:37:16.200   2773707.1547   1653136.1434   5481978.2149   5  17   2.2401   2.0558   4.4192   1.1002   2.1782   1.0884 -118.01    0.0
2017/07/23 09:37:16.400   2773707.2118   1653136.1658   5481978.4240   5  17   2.2401   2.0558   4.4193   1.1002   2.1783   1.0885 -117.81    0.0
