% program   : RTKLIB ver.2.4.3 Emlid
% inp file  : /home/artur/RTKLIB/test/test/static/2_ostanets/rover.obs
% inp file  : /home/artur/RTKLIB/test/test/static/2_ostanets/base.obs
% inp file  : /home/artur/RTKLIB/test/test/static/2_ostanets/rover.nav
% obs start : 2017/07/23 10:23:06.2 GPST (week1959  37386.2s)
% obs end   : 2017/07/23 10:33:24.2 GPST (week1959  38004.2s)
% pos mode  : static
% freqs     : L1
% solution  : forward
% elev mask : 15.0 deg
% dynamics  : on
% tidecorr  : off
% ionos opt : broadcast
% tropo opt : est ztd
% ephemeris : broadcast
% navi sys  : gps glonass galileo qzss beidou sbas
% amb res   : continuous
% amb glo   : off
% val thres : 3.0
% antenna1  :                       ( 0.0000  0.0000  0.0000)
% antenna2  :                       ( 0.0000  0.0000  0.0000)
% ref pos   :  2773909.8712  1654076.4507  5481627.6877
%
% (x/y/z-ecef=WGS84,Q=1:fix,2:float,3:sbas,4:dgps,5:single,6:ppp,ns=# of satellites)
%  GPST                      x-ecef(m)      y-ecef(m)      z-ecef(m)   Q  ns   sdx(m)   sdy(m)   sdz(m)  sdxy(m)  sdyz(m)  sdzx(m) age(s)  ratio
2017/07/23 10:23:06.200   2773520.1755   1652606.5811   5482253.7503   2  16   2.0534   1.7039   3.0604   1.3647   1.5748   1.9817  -0.01    0.0
2017/07/23 10:23:06.400   2773520.1722   1652606.6230   5482253.7914   2  16   1.5639   1.2792   2.3459   1.0385   1.1958   1.5189  -0.01    0.0
2017/07/23 10:23:06.600   2773520.1353   1652606.6383   5482253.7164   2  16   1.3230   1.0713   2.0056   0.8798   1.0183   1.3009  -0.01    0.0
2017/07/23 10:23:06.800   2773520.0944   1652606.6397   5482253.6688   2  16   1.1741   0.9425   1.7994   0.7824   0.9117   1.1698  -0.01    0.0
2017/07/23 10:23:07.000   2773520.0828   1652606.6684   5482253.6602   2  16   1.0708   0.8530   1.6586   0.7151   0.8392   1.0807  -0.01    0.0
2017/07/23 10:23:07.200   2773520.0853   1652606.7159   5482253.7013   2  16   0.9941   0.7863   1.5552   0.6653   0.7861   1.0155  -0.01    0.0
2017/07/23 10:23:07.400   2773520.0901   1652606.7778   5482253.7117   2  16   0.9343   0.7341   1.4755   0.6266   0.7453   0.9653  -0.01    0.0
2017/07/23 10:23:07.600   2773520.0847   1652606.8221   5482253.7103   2  16   0.8861   0.6919   1.4117   0.5955   0.7127   0.9253  -0.01    0.0
2017/07/23 10:23:07.800   2773520.0817   1652606.8659   5482253.7243   2  16   0.8463   0.6568   1.3594   0.5698   0.6860   0.8925  -0.01    0.0
2017/07/23 10:23:08.000   2773520.0815   1652606.9110   5482253.7323   2  16   0.8126   0.6271   1.3154   0.5481   0.6635   0.8650  -0.01    0.0
2017/07/23 10:23:08.200   2773520.0729   1652606.9377   5482253.7062   2  16   0.7838   0.6016   1.2779   0.5296   0.6444   0.8416  -0.01    0.0
2017/07/23 10:23:08.400   2773520.0674   1652606.9706   5482253.7042   2  16   0.7587   0.5793   1.2453   0.5135   0.6278   0.8212  -0.01    0.0
2017/07/23 10:23:08.600   2773520.0694   1652606.9976   5482253.7332   2  16   0.7366   0.5597   1.2167   0.4993   0.6133   0.8034  -0.01    0.0
2017/07/23 10:23:08.800   2773520.0802   1652607.0266   5482253.7703   2  16   0.7169   0.5422   1.1912   0.4867   0.6004   0.7875  -0.01    0.0
2017/07/23 10:23:09.000   2773520.0845   1652607.0547   5482253.7955   2  16   0.6993   0.5265   1.1685   0.4754   0.5888   0.7733  -0.01    0.0
2017/07/23 10:23:09.200   2773520.0907   1652607.0890   5482253.8294   2  16   0.6834   0.5123   1.1479   0.4652   0.5784   0.7605  -0.01    0.0
2017/07/23 10:23:09.400   2773520.0978   1652607.1230   5482253.8497   2  16   0.6689   0.4994   1.1291   0.4560   0.5689   0.7488  -0.01    0.0
2017/07/23 10:23:09.600   2773520.1016   1652607.1532   5482253.8571   2  16   0.6556   0.4875   1.1119   0.4475   0.5601   0.7380  -0.01    0.0
2017/07/23 10:23:09.800   2773520.0995   1652607.1794   5482253.8586   2  16   0.6434   0.4766   1.0961   0.4397   0.5521   0.7281  -0.01    0.0
2017/07/23 10:23:10.000   2773520.0959   1652607.2013   5482253.8457   2  16   0.6321   0.4666   1.0814   0.4324   0.5447   0.7189  -0.01    0.0
2017/07/23 10:23:10.200   2773520.0907   1652607.2172   5482253.8348   2  16   0.6217   0.4573   1.0676   0.4257   0.5377   0.7104  -0.01    0.0
2017/07/23 10:23:10.400   2773520.0791   1652607.2307   5482253.8152   2  16   0.6119   0.4486   1.0548   0.4195   0.5313   0.7023  -0.01    0.0
2017/07/23 10:23:10.600   2773520.0615   1652607.2394   5482253.7952   2  16   0.6027   0.4404   1.0427   0.4136   0.5251   0.6947  -0.01    0.0
2017/07/23 10:23:10.800   2773520.0437   1652607.2457   5482253.7869   2  16   0.5941   0.4328   1.0312   0.4081   0.5194   0.6875  -0.01    0.0
2017/07/23 10:23:11.000   2773520.0275   1652607.2524   5482253.7785   2  16   0.5860   0.4256   1.0204   0.4029   0.5139   0.6807  -0.01    0.0
2017/07/23 10:23:11.200   2773520.0217   1652607.2597   5482253.7819   2  16   0.5784   0.4189   1.0101   0.3979   0.5087   0.6742  -0.01    0.0
2017/07/23 10:23:11.400   2773520.0168   1652607.2701   5482253.7876   2  16   0.5711   0.4125   1.0002   0.3932   0.5038   0.6680  -0.01    0.0
2017/07/23 10:23:11.600   2773520.0145   1652607.2803   5482253.8013   2  16   0.5642   0.4064   0.9907   0.3888   0.4990   0.6620  -0.01    0.0
2017/07/23 10:23:11.800   2773520.0134   1652607.2929   5482253.8143   2  16   0.5576   0.4006   0.9817   0.3845   0.4945   0.6563  -0.01    0.0
2017/07/23 10:23:12.000   2773520.0102   1652607.3083   5482253.8210   2  16   0.5513   0.3952   0.9729   0.3804   0.4901   0.6508  -0.01    0.0
2017/07/23 10:23:12.200   2773520.0099   1652607.3251   5482253.8341   2  16   0.5452   0.3899   0.9645   0.3765   0.4858   0.6454  -0.01    0.0
2017/07/23 10:23:12.400   2773520.0053   1652607.3398   5482253.8329   2  16   0.5394   0.3849   0.9564   0.3728   0.4818   0.6402  -0.01    0.0
2017/07/23 10:23:12.600   2773520.0033   1652607.3528   5482253.8379   2  16   0.5339   0.3801   0.9485   0.3692   0.4778   0.6352  -0.01    0.0
2017/07/23 10:23:12.800   2773519.9998   1652607.3637   5482253.8492   2  16   0.5285   0.3756   0.9408   0.3657   0.4740   0.6303  -0.01    0.0
2017/07/23 10:23:13.000   2773519.9932   1652607.3695   5482253.8568   2  16   0.5233   0.3712   0.9334   0.3623   0.4702   0.6256  -0.01    0.0
2017/07/23 10:23:13.200   2773519.9849   1652607.3723   5482253.8549   2  16   0.5183   0.3669   0.9261   0.3590   0.4666   0.6209  -0.01    0.0
2017/07/23 10:23:13.400   2773519.9721   1652607.3736   5482253.8519   2  16   0.5135   0.3629   0.9190   0.3559   0.4631   0.6164  -0.01    0.0
2017/07/23 10:23:13.600   2773519.9579   1652607.3736   5482253.8518   2  16   0.5088   0.3589   0.9121   0.3528   0.4596   0.6120  -0.01    0.0
2017/07/23 10:23:13.800   2773519.9470   1652607.3731   5482253.8525   2  16   0.5043   0.3551   0.9054   0.3498   0.4562   0.6076  -0.01    0.0
2017/07/23 10:23:14.000   2773519.9277   1652607.3640   5482253.8374   2  16   0.4998   0.3515   0.8988   0.3469   0.4529   0.6034  -0.01    0.0
2017/07/23 10:23:14.200   2773519.9105   1652607.3542   5482253.8252   2  16   0.4956   0.3479   0.8923   0.3441   0.4497   0.5992  -0.01    0.0
2017/07/23 10:23:14.400   2773519.8954   1652607.3435   5482253.8168   2  16   0.4914   0.3445   0.8860   0.3414   0.4465   0.5951  -0.01    0.0
2017/07/23 10:23:14.600   2773519.8796   1652607.3334   5482253.8097   2  16   0.4873   0.3412   0.8798   0.3387   0.4434   0.5911  -0.01    0.0
2017/07/23 10:23:14.800   2773519.8635   1652607.3234   5482253.7989   2  16   0.4833   0.3379   0.8737   0.3361   0.4404   0.5872  -0.01    0.0
2017/07/23 10:23:15.000   2773519.8493   1652607.3121   5482253.7872   2  16   0.4795   0.3348   0.8677   0.3335   0.4374   0.5833  -0.01    0.0
2017/07/23 10:23:15.200   2773519.8315   1652607.2977   5482253.7742   2  16   0.4757   0.3318   0.8618   0.3310   0.4345   0.5794  -0.01    0.0
2017/07/23 10:23:15.400   2773519.8083   1652607.2814   5482253.7512   2  16   0.4720   0.3288   0.8560   0.3285   0.4316   0.5757  -0.01    0.0
2017/07/23 10:23:15.600   2773519.7894   1652607.2673   5482253.7378   2  16   0.4684   0.3259   0.8503   0.3261   0.4287   0.5720  -0.01    0.0
2017/07/23 10:23:15.800   2773519.7699   1652607.2516   5482253.7257   2  16   0.4649   0.3231   0.8446   0.3238   0.4259   0.5683  -0.01    0.0
2017/07/23 10:23:16.000   2773519.7422   1652607.2340   5482253.7035   2  16   0.4614   0.3204   0.8391   0.3215   0.4232   0.5647  -0.01    1.5
2017/07/23 10:23:16.200   2773519.7154   1652607.2174   5482253.6771   2  16   0.4580   0.3177   0.8337   0.3192   0.4205   0.5611  -0.01    1.5
2017/07/23 10:23:16.400   2773519.6875   1652607.1992   5482253.6468   2  16   0.4547   0.3151   0.8283   0.3170   0.4178   0.5576  -0.01    1.5
2017/07/23 10:23:16.600   2773519.6551   1652607.1798   5482253.6130   2  16   0.4514   0.3126   0.8230   0.3148   0.4151   0.5542  -0.01    1.6
2017/07/23 10:23:16.800   2773519.6235   1652607.1616   5482253.5846   2  16   0.4482   0.3101   0.8178   0.3127   0.4125   0.5508  -0.01    1.6
2017/07/23 10:23:17.000   2773519.5865   1652607.1392   5482253.5423   2  16   0.4451   0.3077   0.8127   0.3106   0.4100   0.5474  -0.01    1.7
2017/07/23 10:23:17.200   2773519.5576   1652607.1213   5482253.5143   2  16   0.4420   0.3053   0.8076   0.3085   0.4075   0.5441  -0.01    1.7
2017/07/23 10:23:17.400   2773519.5274   1652607.1037   5482253.4798   2  16   0.4390   0.3030   0.8026   0.3065   0.4050   0.5408  -0.01    1.7
2017/07/23 10:23:17.600   2773519.4983   1652607.0884   5482253.4421   2  16   0.4361   0.3007   0.7976   0.3045   0.4025   0.5375  -0.01    1.8
2017/07/23 10:23:17.800   2773519.4768   1652607.0788   5482253.4238   2  16   0.4331   0.2985   0.7928   0.3025   0.4001   0.5343  -0.01    1.8
2017/07/23 10:23:18.000   2773519.4475   1652607.0649   5482253.3918   2  16   0.4303   0.2963   0.7880   0.3006   0.3977   0.5312  -0.01    1.9
2017/07/23 10:23:18.200   2773519.4231   1652607.0531   5482253.3732   2  16   0.4275   0.2942   0.7832   0.2986   0.3953   0.5280  -0.01    1.9
2017/07/23 10:23:18.400   2773519.4016   1652607.0419   5482253.3619   2  16   0.4247   0.2921   0.7785   0.2968   0.3930   0.5250  -0.01    2.0
2017/07/23 10:23:18.600   2773519.3701   1652607.0259   5482253.3294   2  16   0.4220   0.2901   0.7739   0.2949   0.3907   0.5219  -0.01    2.0
2017/07/23 10:23:18.800   2773519.3382   1652607.0110   5482253.2961   2  16   0.4193   0.2881   0.7693   0.2931   0.3884   0.5189  -0.01    2.1
2017/07/23 10:23:19.000   2773519.3133   1652607.0008   5482253.2774   2  16   0.4166   0.2861   0.7648   0.2913   0.3861   0.5159  -0.01    2.1
2017/07/23 10:23:19.200   2773519.2956   1652606.9935   5482253.2677   2  16   0.4140   0.2842   0.7604   0.2895   0.3839   0.5130  -0.01    2.2
2017/07/23 10:23:19.400   2773519.2725   1652606.9824   5482253.2434   2  16   0.4115   0.2823   0.7560   0.2878   0.3817   0.5101  -0.01    2.2
2017/07/23 10:23:19.600   2773519.2547   1652606.9740   5482253.2317   2  16   0.4090   0.2804   0.7516   0.2861   0.3796   0.5072  -0.01    2.3
2017/07/23 10:23:19.800   2773519.2373   1652606.9648   5482253.2166   2  16   0.4065   0.2786   0.7473   0.2844   0.3774   0.5043  -0.01    2.3
2017/07/23 10:23:20.000   2773519.2171   1652606.9524   5482253.1976   2  16   0.4040   0.2768   0.7431   0.2827   0.3753   0.5015  -0.01    2.3
2017/07/23 10:23:20.200   2773519.2021   1652606.9444   5482253.1903   2  16   0.4016   0.2750   0.7389   0.2811   0.3732   0.4987  -0.01    2.4
2017/07/23 10:23:20.400   2773519.1899   1652606.9382   5482253.1912   2  16   0.3992   0.2733   0.7347   0.2795   0.3712   0.4960  -0.01    2.4
2017/07/23 10:23:20.600   2773519.1723   1652606.9278   5482253.1796   2  16   0.3969   0.2716   0.7307   0.2779   0.3691   0.4933  -0.01    2.5
2017/07/23 10:23:20.800   2773519.1568   1652606.9190   5482253.1736   2  16   0.3946   0.2699   0.7266   0.2763   0.3671   0.4906  -0.01    2.5
2017/07/23 10:23:21.000   2773519.1462   1652606.9112   5482253.1804   2  16   0.3923   0.2683   0.7226   0.2747   0.3651   0.4880  -0.01    2.5
2017/07/23 10:23:21.200   2773519.1324   1652606.9008   5482253.1779   2  16   0.3901   0.2667   0.7187   0.2732   0.3631   0.4853  -0.01    2.6
2017/07/23 10:23:21.400   2773519.1221   1652606.8922   5482253.1809   2  16   0.3879   0.2651   0.7148   0.2717   0.3612   0.4827  -0.01    2.6
2017/07/23 10:23:21.600   2773519.1167   1652606.8844   5482253.1909   2  16   0.3857   0.2635   0.7109   0.2702   0.3593   0.4802  -0.01    2.6
2017/07/23 10:23:21.800   2773519.1084   1652606.8758   5482253.1943   2  16   0.3836   0.2620   0.7071   0.2687   0.3574   0.4776  -0.01    2.7
2017/07/23 10:23:22.000   2773519.1009   1652606.8672   5482253.1979   2  16   0.3814   0.2605   0.7033   0.2672   0.3555   0.4751  -0.01    2.7
2017/07/23 10:23:22.200   2773519.0891   1652606.8536   5482253.1909   2  16   0.3793   0.2590   0.6996   0.2658   0.3536   0.4727  -0.01    2.7
2017/07/23 10:23:22.400   2773519.0766   1652606.8377   5482253.1825   2  16   0.3773   0.2575   0.6959   0.2644   0.3518   0.4702  -0.01    2.8
2017/07/23 10:23:22.600   2773519.0650   1652606.8211   5482253.1753   2  16   0.3752   0.2560   0.6923   0.2630   0.3500   0.4678  -0.01    2.8
2017/07/23 10:23:22.800   2773519.0565   1652606.8058   5482253.1724   2  16   0.3732   0.2546   0.6887   0.2616   0.3482   0.4654  -0.01    2.8
2017/07/23 10:23:23.000   2773519.0482   1652606.7909   5482253.1737   2  16   0.3713   0.2532   0.6851   0.2602   0.3464   0.4630  -0.01    2.8
2017/07/23 10:23:23.200   2773519.0449   1652606.7796   5482253.1822   2  16   0.3693   0.2518   0.6816   0.2589   0.3447   0.4607  -0.01    2.9
2017/07/23 10:23:23.400   2773519.0433   1652606.7703   5482253.1936   2  16   0.3674   0.2505   0.6782   0.2576   0.3429   0.4584  -0.01    2.9
2017/07/23 10:23:23.600   2773519.0393   1652606.7609   5482253.1965   2  16   0.3655   0.2491   0.6747   0.2562   0.3412   0.4561  -0.01    2.9
2017/07/23 10:23:23.800   2773519.0360   1652606.7511   5482253.2014   2  16   0.3636   0.2478   0.6713   0.2549   0.3395   0.4538  -0.01    2.9
2017/07/23 10:23:24.000   2773519.0357   1652606.7429   5482253.2100   2  16   0.3617   0.2465   0.6680   0.2537   0.3379   0.4516  -0.01    2.9
2017/07/23 10:23:24.200   2773519.0345   1652606.7342   5482253.2160   2  16   0.3599   0.2452   0.6647   0.2524   0.3362   0.4494  -0.01    2.9
2017/07/23 10:23:24.400   2773519.0333   1652606.7277   5482253.2219   2  16   0.3581   0.2439   0.6614   0.2511   0.3346   0.4472  -0.01    2.9
2017/07/23 10:23:24.600   2773519.0336   1652606.7224   5482253.2309   2  16   0.3563   0.2427   0.6581   0.2499   0.3330   0.4450  -0.01    2.9
2017/07/23 10:23:24.800   2773519.0335   1652606.7165   5482253.2387   2  16   0.3545   0.2415   0.6549   0.2487   0.3314   0.4429  -0.01    3.0
2017/07/23 10:23:25.000   2773519.0354   1652606.7126   5482253.2496   2  16   0.3528   0.2402   0.6518   0.2475   0.3298   0.4407  -0.01    3.0
2017/07/23 10:23:25.200   2773519.0325   1652606.7069   5482253.2511   2  16   0.3511   0.2390   0.6486   0.2463   0.3282   0.4386  -0.01    3.0
2017/07/23 10:23:25.400   2773519.0307   1652606.7026   5482253.2518   2  16   0.3494   0.2379   0.6455   0.2451   0.3267   0.4366  -0.01    3.0
2017/07/23 10:23:25.600   2773518.1329   1652606.1339   5482251.6892   1  16   0.0031   0.0019   0.0063   0.0022   0.0031   0.0042  -0.01    3.0
2017/07/23 10:23:25.800   2773518.1329   1652606.1339   5482251.6892   1  16   0.0031   0.0019   0.0063   0.0022   0.0031   0.0042  -0.01    3.0
2017/07/23 10:23:26.000   2773518.1328   1652606.1339   5482251.6891   1  16   0.0031   0.0018   0.0063   0.0022   0.0031   0.0042  -0.01    3.0
2017/07/23 10:23:26.200   2773518.1328   1652606.1339   5482251.6891   1  16   0.0031   0.0018   0.0063   0.0022   0.0031   0.0042  -0.01    3.0
2017/07/23 10:23:26.400   2773518.1323   1652606.1337   5482251.6887   1  16   0.0030   0.0018   0.0062   0.0022   0.0031   0.0041  -0.01    3.0
2017/07/23 10:23:26.600   2773518.1319   1652606.1335   5482251.6884   1  16   0.0030   0.0018   0.0061   0.0021   0.0030   0.0041  -0.01    3.0
2017/07/23 10:23:26.800   2773519.1246   1652606.7227   5482253.4936   2  16   0.3289   0.2259   0.6010   0.2303   0.3052   0.4074  -0.01    3.0
2017/07/23 10:23:27.000   2773519.1459   1652606.7291   5482253.5510   2  16   0.3249   0.2237   0.5918   0.2274   0.3008   0.4014  -0.01    3.0
2017/07/23 10:23:27.200   2773519.1621   1652606.7327   5482253.5907   2  16   0.3211   0.2217   0.5832   0.2246   0.2967   0.3958  -0.01    3.0
2017/07/23 10:23:27.400   2773519.1840   1652606.7391   5482253.6469   2  16   0.3176   0.2197   0.5751   0.2220   0.2928   0.3906  -0.01    3.0
2017/07/23 10:23:27.600   2773519.1928   1652606.7367   5482253.6709   2  16   0.3142   0.2178   0.5675   0.2196   0.2892   0.3856  -0.01    2.9
2017/07/23 10:23:27.800   2773519.2021   1652606.7337   5482253.6881   2  16   0.3110   0.2160   0.5603   0.2172   0.2857   0.3809  -0.01    2.8
2017/07/23 10:23:28.000   2773519.2025   1652606.7258   5482253.6895   2  16   0.3079   0.2143   0.5534   0.2150   0.2824   0.3765  -0.01    2.7
2017/07/23 10:23:28.200   2773519.2062   1652606.7206   5482253.6974   2  16   0.3050   0.2126   0.5469   0.2129   0.2793   0.3722  -0.01    2.6
2017/07/23 10:23:28.400   2773519.2166   1652606.7212   5482253.7251   2  16   0.3022   0.2110   0.5407   0.2109   0.2763   0.3682  -0.01    2.5
2017/07/23 10:23:28.600   2773519.2163   1652606.7160   5482253.7248   2  16   0.2995   0.2095   0.5348   0.2089   0.2735   0.3643  -0.01    2.5
2017/07/23 10:23:28.800   2773519.2130   1652606.7097   5482253.7176   2  16   0.2969   0.2080   0.5291   0.2070   0.2708   0.3606  -0.01    2.4
2017/07/23 10:23:29.000   2773519.2130   1652606.7063   5482253.7191   2  16   0.2944   0.2065   0.5237   0.2052   0.2681   0.3571  -0.01    2.3
2017/07/23 10:23:29.200   2773519.2145   1652606.7045   5482253.7257   2  16   0.2920   0.2051   0.5184   0.2034   0.2656   0.3536  -0.01    2.3
2017/07/23 10:23:29.400   2773519.2158   1652606.7022   5482253.7344   2  16   0.2896   0.2038   0.5134   0.2017   0.2632   0.3503  -0.01    2.3
2017/07/23 10:23:29.600   2773519.2135   1652606.6981   5482253.7316   2  16   0.2873   0.2024   0.5085   0.2001   0.2608   0.3471  -0.01    2.2
2017/07/23 10:23:29.800   2773519.2115   1652606.6951   5482253.7287   2  16   0.2851   0.2011   0.5038   0.1985   0.2586   0.3440  -0.01    2.2
2017/07/23 10:23:30.000   2773519.2100   1652606.6931   5482253.7249   2  16   0.2830   0.1999   0.4992   0.1970   0.2563   0.3410  -0.01    2.2
2017/07/23 10:23:30.200   2773519.2141   1652606.6953   5482253.7333   2  16   0.2809   0.1986   0.4948   0.1955   0.2542   0.3381  -0.01    2.2
2017/07/23 10:23:30.400   2773519.2165   1652606.6955   5482253.7353   2  16   0.2789   0.1974   0.4905   0.1940   0.2521   0.3353  -0.01    2.1
2017/07/23 10:23:30.600   2773519.2295   1652606.7012   5482253.7611   2  16   0.2769   0.1962   0.4863   0.1926   0.2501   0.3326  -0.01    2.1
2017/07/23 10:23:30.800   2773519.2327   1652606.7003   5482253.7627   2  16   0.2749   0.1951   0.4823   0.1912   0.2481   0.3299  -0.01    2.1
2017/07/23 10:23:31.000   2773519.2322   1652606.6969   5482253.7578   2  16   0.2730   0.1939   0.4783   0.1898   0.2462   0.3273  -0.01    2.0
2017/07/23 10:23:31.200   2773519.2341   1652606.6941   5482253.7599   2  16   0.2712   0.1928   0.4745   0.1885   0.2444   0.3248  -0.01    2.0
2017/07/23 10:23:31.400   2773519.2369   1652606.6928   5482253.7625   2  16   0.2694   0.1917   0.4707   0.1872   0.2425   0.3223  -0.01    2.0
2017/07/23 10:23:31.600   2773519.2349   1652606.6895   5482253.7543   2  16   0.2676   0.1907   0.4671   0.1859   0.2408   0.3199  -0.01    2.0
2017/07/23 10:23:31.800   2773519.2437   1652606.6924   5482253.7756   2  16   0.2659   0.1896   0.4635   0.1847   0.2390   0.3176  -0.01    1.9
2017/07/23 10:23:32.000   2773519.2497   1652606.6948   5482253.7888   2  16   0.2642   0.1886   0.4600   0.1835   0.2373   0.3153  -0.01    1.9
2017/07/23 10:23:32.200   2773519.2527   1652606.6953   5482253.7966   2  16   0.2625   0.1876   0.4566   0.1823   0.2357   0.3130  -0.01    1.8
2017/07/23 10:23:32.400   2773519.2520   1652606.6947   5482253.7979   2  16   0.2609   0.1866   0.4532   0.1811   0.2340   0.3108  -0.01    1.8
2017/07/23 10:23:32.600   2773519.2536   1652606.6954   5482253.8037   2  16   0.2593   0.1856   0.4500   0.1799   0.2324   0.3086  -0.01    1.8
2017/07/23 10:23:32.800   2773519.2565   1652606.6961   5482253.8093   2  16   0.2577   0.1846   0.4468   0.1788   0.2309   0.3065  -0.01    1.7
2017/07/23 10:23:33.000   2773519.2577   1652606.6957   5482253.8107   2  16   0.2562   0.1837   0.4436   0.1777   0.2293   0.3044  -0.01    1.7
2017/07/23 10:23:33.200   2773519.2562   1652606.6926   5482253.8056   2  16   0.2546   0.1827   0.4405   0.1766   0.2278   0.3024  -0.01    1.6
2017/07/23 10:23:33.400   2773519.2570   1652606.6905   5482253.8096   2  16   0.2532   0.1818   0.4375   0.1756   0.2264   0.3004  -0.01    1.6
2017/07/23 10:23:33.600   2773519.2596   1652606.6897   5482253.8155   2  16   0.2517   0.1809   0.4345   0.1745   0.2249   0.2984  -0.01    1.5
2017/07/23 10:23:33.800   2773519.2625   1652606.6896   5482253.8265   2  16   0.2502   0.1800   0.4316   0.1735   0.2235   0.2965  -0.01    1.5
2017/07/23 10:23:34.000   2773519.2622   1652606.6866   5482253.8299   2  16   0.2488   0.1791   0.4288   0.1725   0.2221   0.2946  -0.01    1.5
2017/07/23 10:23:34.200   2773519.2648   1652606.6863   5482253.8414   2  16   0.2474   0.1783   0.4259   0.1715   0.2207   0.2927  -0.01    1.4
2017/07/23 10:23:34.400   2773519.2635   1652606.6844   5482253.8468   2  16   0.2460   0.1774   0.4232   0.1705   0.2194   0.2909  -0.01    1.4
2017/07/23 10:23:34.600   2773519.2606   1652606.6809   5482253.8440   2  16   0.2447   0.1766   0.4204   0.1695   0.2180   0.2891  -0.01    1.3
2017/07/23 10:23:34.800   2773519.2576   1652606.6763   5482253.8421   2  16   0.2433   0.1757   0.4178   0.1685   0.2167   0.2873  -0.01    1.3
2017/07/23 10:23:35.000   2773519.2566   1652606.6729   5482253.8438   2  16   0.2420   0.1749   0.4151   0.1676   0.2154   0.2856  -0.01    1.3
2017/07/23 10:23:35.200   2773519.2579   1652606.6708   5482253.8533   2  16   0.2407   0.1741   0.4125   0.1667   0.2141   0.2838  -0.01    1.2
2017/07/23 10:23:35.400   2773519.2535   1652606.6666   5482253.8484   2  16   0.2394   0.1733   0.4099   0.1658   0.2129   0.2821  -0.01    1.2
2017/07/23 10:23:35.600   2773519.2550   1652606.6656   5482253.8541   2  16   0.2381   0.1725   0.4074   0.1649   0.2116   0.2805  -0.01    1.2
2017/07/23 10:23:35.800   2773519.2500   1652606.6598   5482253.8476   2  16   0.2369   0.1717   0.4049   0.1640   0.2104   0.2788  -0.01    1.2
2017/07/23 10:23:36.000   2773519.2460   1652606.6553   5482253.8444   2  16   0.2356   0.1709   0.4025   0.1631   0.2092   0.2772  -0.01    1.1
2017/07/23 10:23:36.200   2773519.2401   1652606.6502   5482253.8385   2  16   0.2344   0.1702   0.4001   0.1622   0.2080   0.2756  -0.01    1.1
2017/07/23 10:23:36.400   2773519.2363   1652606.6470   5482253.8363   2  16   0.2332   0.1694   0.3977   0.1613   0.2068   0.2740  -0.01    1.1
2017/07/23 10:23:36.600   2773519.2349   1652606.6446   5482253.8363   2  16   0.2320   0.1687   0.3953   0.1605   0.2057   0.2724  -0.01    1.0
2017/07/23 10:23:36.800   2773519.2336   1652606.6409   5482253.8362   2  16   0.2308   0.1679   0.3930   0.1597   0.2045   0.2709  -0.01    1.0
2017/07/23 10:23:37.000   2773519.2340   1652606.6392   5482253.8375   2  16   0.2297   0.1672   0.3907   0.1588   0.2034   0.2694  -0.01    1.0
2017/07/23 10:23:37.200   2773519.2304   1652606.6365   5482253.8318   2  16   0.2285   0.1665   0.3884   0.1580   0.2023   0.2678  -0.01    1.0
2017/07/23 10:23:37.400   2773519.2282   1652606.6332   5482253.8288   2  16   0.2274   0.1658   0.3862   0.1572   0.2012   0.2664  -0.01    1.0
2017/07/23 10:23:37.600   2773519.2275   1652606.6304   5482253.8301   2  16   0.2263   0.1651   0.3840   0.1564   0.2001   0.2649  -0.01    1.1
2017/07/23 10:23:37.800   2773519.2228   1652606.6260   5482253.8225   2  16   0.2252   0.1644   0.3818   0.1556   0.1990   0.2634  -0.01    1.1
2017/07/23 10:23:38.000   2773519.2165   1652606.6202   5482253.8115   2  16   0.2241   0.1637   0.3796   0.1548   0.1980   0.2620  -0.01    1.1
2017/07/23 10:23:38.200   2773519.2134   1652606.6151   5482253.8044   2  16   0.2230   0.1630   0.3775   0.1541   0.1969   0.2606  -0.01    1.1
2017/07/23 10:23:38.400   2773519.2103   1652606.6102   5482253.7969   2  16   0.2219   0.1623   0.3754   0.1533   0.1959   0.2592  -0.01    1.2
2017/07/23 10:23:38.600   2773519.2066   1652606.6056   5482253.7886   2  16   0.2208   0.1616   0.3733   0.1525   0.1949   0.2578  -0.01    1.2
2017/07/23 10:23:38.800   2773519.2045   1652606.6018   5482253.7835   2  16   0.2198   0.1610   0.3712   0.1518   0.1938   0.2564  -0.01    1.2
2017/07/23 10:23:39.000   2773519.2028   1652606.5986   5482253.7798   2  16   0.2187   0.1603   0.3692   0.1510   0.1928   0.2550  -0.01    1.2
2017/07/23 10:23:39.200   2773519.1986   1652606.5939   5482253.7722   2  16   0.2177   0.1597   0.3671   0.1503   0.1918   0.2537  -0.01    1.2
2017/07/23 10:23:39.400   2773519.1900   1652606.5887   5482253.7551   2  16   0.2167   0.1590   0.3651   0.1496   0.1909   0.2524  -0.01    1.3
2017/07/23 10:23:39.600   2773519.1899   1652606.5885   5482253.7560   2  16   0.2156   0.1584   0.3632   0.1489   0.1899   0.2511  -0.01    1.3
2017/07/23 10:23:39.800   2773519.1855   1652606.5857   5482253.7450   2  16   0.2146   0.1577   0.3612   0.1481   0.1889   0.2498  -0.01    1.3
2017/07/23 10:23:40.000   2773519.1788   1652606.5821   5482253.7337   2  16   0.2137   0.1571   0.3593   0.1474   0.1880   0.2485  -0.01    1.3
2017/07/23 10:23:40.200   2773519.1721   1652606.5789   5482253.7234   2  16   0.2127   0.1565   0.3573   0.1467   0.1870   0.2472  -0.01    1.3
2017/07/23 10:23:40.400   2773519.1690   1652606.5782   5482253.7203   2  16   0.2117   0.1559   0.3554   0.1460   0.1861   0.2459  -0.01    1.3
2017/07/23 10:23:40.600   2773519.1605   1652606.5743   5482253.7097   2  16   0.2107   0.1553   0.3536   0.1454   0.1852   0.2447  -0.01    1.4
2017/07/23 10:23:40.800   2773519.1527   1652606.5705   5482253.7036   2  16   0.2098   0.1547   0.3517   0.1447   0.1842   0.2434  -0.01    1.4
2017/07/23 10:23:41.000   2773519.1437   1652606.5670   5482253.6926   2  16   0.2088   0.1541   0.3499   0.1440   0.1833   0.2422  -0.01    1.4
2017/07/23 10:23:41.200   2773519.1289   1652606.5598   5482253.6706   2  16   0.2079   0.1535   0.3480   0.1433   0.1824   0.2410  -0.01    1.4
2017/07/23 10:23:41.400   2773519.1171   1652606.5530   5482253.6526   2  16   0.2069   0.1529   0.3462   0.1427   0.1815   0.2398  -0.01    1.4
2017/07/23 10:23:41.600   2773519.1061   1652606.5463   5482253.6338   2  16   0.2060   0.1523   0.3444   0.1420   0.1807   0.2386  -0.01    1.4
2017/07/23 10:23:41.800   2773519.0929   1652606.5395   5482253.6143   2  16   0.2051   0.1517   0.3427   0.1414   0.1798   0.2374  -0.01    1.4
2017/07/23 10:23:42.000   2773519.0771   1652606.5315   5482253.5952   2  16   0.2042   0.1512   0.3409   0.1407   0.1789   0.2362  -0.01    1.4
2017/07/23 10:23:42.200   2773519.0607   1652606.5231   5482253.5717   2  16   0.2033   0.1506   0.3392   0.1401   0.1781   0.2351  -0.01    1.5
2017/07/23 10:23:42.400   2773519.0432   1652606.5134   5482253.5449   2  16   0.2024   0.1500   0.3374   0.1394   0.1772   0.2339  -0.01    1.5
2017/07/23 10:23:42.600   2773519.0307   1652606.5065   5482253.5286   2  16   0.2015   0.1495   0.3357   0.1388   0.1764   0.2328  -0.01    1.5
2017/07/23 10:23:42.800   2773519.0187   1652606.5006   5482253.5142   2  16   0.2006   0.1489   0.3340   0.1382   0.1755   0.2316  -0.01    1.5
2017/07/23 10:23:43.000   2773519.0063   1652606.4933   5482253.4984   2  16   0.1998   0.1484   0.3323   0.1376   0.1747   0.2305  -0.01    1.5
2017/07/23 10:23:43.200   2773518.9935   1652606.4860   5482253.4815   2  16   0.1989   0.1478   0.3307   0.1370   0.1739   0.2294  -0.01    1.5
2017/07/23 10:23:43.400   2773518.9812   1652606.4798   5482253.4672   2  16   0.1980   0.1473   0.3290   0.1364   0.1731   0.2283  -0.01    1.5
2017/07/23 10:23:43.600   2773518.9693   1652606.4734   5482253.4509   2  16   0.1972   0.1467   0.3274   0.1357   0.1722   0.2272  -0.01    1.6
2017/07/23 10:23:43.800   2773518.9579   1652606.4668   5482253.4354   2  16   0.1964   0.1462   0.3257   0.1352   0.1714   0.2261  -0.01    1.6
2017/07/23 10:23:44.000   2773518.9451   1652606.4583   5482253.4166   2  16   0.1955   0.1457   0.3241   0.1346   0.1706   0.2251  -0.01    1.6
2017/07/23 10:23:44.200   2773518.9348   1652606.4511   5482253.4077   2  16   0.1947   0.1451   0.3225   0.1340   0.1699   0.2240  -0.01    1.6
2017/07/23 10:23:44.400   2773518.9235   1652606.4436   5482253.3944   2  16   0.1939   0.1446   0.3209   0.1334   0.1691   0.2229  -0.01    1.7
2017/07/23 10:23:44.600   2773518.9120   1652606.4358   5482253.3826   2  16   0.1930   0.1441   0.3194   0.1328   0.1683   0.2219  -0.01    1.7
2017/07/23 10:23:44.800   2773518.9004   1652606.4281   5482253.3710   2  16   0.1922   0.1436   0.3178   0.1322   0.1675   0.2208  -0.01    1.7
2017/07/23 10:23:45.000   2773518.8894   1652606.4197   5482253.3609   2  16   0.1914   0.1431   0.3163   0.1317   0.1668   0.2198  -0.01    1.7
2017/07/23 10:23:45.200   2773518.8798   1652606.4110   5482253.3512   2  16   0.1906   0.1426   0.3147   0.1311   0.1660   0.2188  -0.01    1.7
2017/07/23 10:23:45.400   2773518.8720   1652606.4045   5482253.3452   2  16   0.1898   0.1421   0.3132   0.1305   0.1653   0.2178  -0.01    1.8
2017/07/23 10:23:45.600   2773518.8633   1652606.3974   5482253.3359   2  16   0.1890   0.1416   0.3117   0.1300   0.1645   0.2168  -0.01    1.8
2017/07/23 10:23:45.800   2773518.8573   1652606.3904   5482253.3334   2  16   0.1883   0.1411   0.3102   0.1294   0.1638   0.2158  -0.01    1.8
2017/07/23 10:23:46.000   2773518.8527   1652606.3857   5482253.3322   2  16   0.1875   0.1406   0.3087   0.1289   0.1630   0.2148  -0.01    1.8
2017/07/23 10:23:46.200   2773518.8466   1652606.3795   5482253.3255   2  16   0.1867   0.1401   0.3072   0.1283   0.1623   0.2138  -0.01    1.8
2017/07/23 10:23:46.400   2773518.8378   1652606.3707   5482253.3154   2  16   0.1860   0.1396   0.3058   0.1278   0.1616   0.2128  -0.01    1.8
2017/07/23 10:23:46.600   2773518.8307   1652606.3630   5482253.3061   2  16   0.1852   0.1391   0.3043   0.1272   0.1609   0.2118  -0.01    1.9
2017/07/23 10:23:46.800   2773518.8233   1652606.3546   5482253.2957   2  16   0.1844   0.1387   0.3029   0.1267   0.1601   0.2109  -0.01    1.9
2017/07/23 10:23:47.000   2773518.8170   1652606.3479   5482253.2908   2  16   0.1837   0.1382   0.3014   0.1262   0.1594   0.2099  -0.01    1.9
2017/07/23 10:23:47.200   2773518.8100   1652606.3403   5482253.2859   2  16   0.1829   0.1377   0.3000   0.1256   0.1587   0.2090  -0.01    1.9
2017/07/23 10:23:47.400   2773518.8021   1652606.3315   5482253.2801   2  16   0.1822   0.1373   0.2986   0.1251   0.1580   0.2080  -0.01    2.0
2017/07/23 10:23:47.600   2773518.7980   1652606.3254   5482253.2771   2  16   0.1815   0.1368   0.2972   0.1246   0.1574   0.2071  -0.01    2.0
2017/07/23 10:23:47.800   2773518.7923   1652606.3184   5482253.2706   2  16   0.1807   0.1363   0.2958   0.1241   0.1567   0.2062  -0.01    2.0
2017/07/23 10:23:48.000   2773518.7889   1652606.3122   5482253.2697   2  16   0.1800   0.1359   0.2944   0.1236   0.1560   0.2052  -0.01    2.0
2017/07/23 10:23:48.200   2773518.7847   1652606.3058   5482253.2672   2  16   0.1793   0.1354   0.2930   0.1231   0.1553   0.2043  -0.01    2.1
2017/07/23 10:23:48.400   2773518.7795   1652606.2990   5482253.2568   2  16   0.1786   0.1350   0.2917   0.1225   0.1546   0.2034  -0.01    2.1
2017/07/23 10:23:48.600   2773518.7764   1652606.2943   5482253.2517   2  16   0.1779   0.1345   0.2903   0.1220   0.1540   0.2025  -0.01    2.1
2017/07/23 10:23:48.800   2773518.7709   1652606.2886   5482253.2440   2  16   0.1772   0.1341   0.2890   0.1215   0.1533   0.2016  -0.01    2.1
2017/07/23 10:23:49.000   2773518.7638   1652606.2819   5482253.2315   2  16   0.1765   0.1336   0.2877   0.1210   0.1526   0.2007  -0.01    2.2
2017/07/23 10:23:49.200   2773518.7571   1652606.2761   5482253.2196   2  16   0.1758   0.1332   0.2863   0.1206   0.1520   0.1999  -0.01    2.2
2017/07/23 10:23:49.400   2773518.7525   1652606.2713   5482253.2107   2  16   0.1751   0.1328   0.2850   0.1201   0.1513   0.1990  -0.01    2.2
2017/07/23 10:23:49.600   2773518.7481   1652606.2666   5482253.2031   2  16   0.1744   0.1323   0.2837   0.1196   0.1507   0.1981  -0.01    2.2
2017/07/23 10:23:49.800   2773518.7442   1652606.2614   5482253.2001   2  16   0.1737   0.1319   0.2824   0.1191   0.1501   0.1972  -0.01    2.2
2017/07/23 10:23:50.000   2773518.7375   1652606.2549   5482253.1886   2  16   0.1730   0.1315   0.2811   0.1186   0.1494   0.1964  -0.01    2.3
2017/07/23 10:23:50.200   2773518.7310   1652606.2488   5482253.1767   2  16   0.1724   0.1310   0.2799   0.1181   0.1488   0.1955  -0.01    2.3
2017/07/23 10:23:50.400   2773518.7233   1652606.2415   5482253.1660   2  16   0.1717   0.1306   0.2786   0.1177   0.1482   0.1947  -0.01    2.3
2017/07/23 10:23:50.600   2773518.7132   1652606.2320   5482253.1501   2  16   0.1710   0.1302   0.2773   0.1172   0.1475   0.1938  -0.01    2.3
2017/07/23 10:23:50.800   2773518.7095   1652606.2257   5482253.1435   2  16   0.1704   0.1298   0.2761   0.1167   0.1469   0.1930  -0.01    2.3
2017/07/23 10:23:51.000   2773518.7061   1652606.2206   5482253.1378   2  16   0.1697   0.1294   0.2748   0.1163   0.1463   0.1922  -0.01    2.4
2017/07/23 10:23:51.200   2773518.6990   1652606.2142   5482253.1304   2  16   0.1691   0.1290   0.2736   0.1158   0.1457   0.1913  -0.01    2.4
2017/07/23 10:23:51.400   2773518.6902   1652606.2066   5482253.1156   2  16   0.1684   0.1285   0.2724   0.1153   0.1451   0.1905  -0.01    2.4
2017/07/23 10:23:51.600   2773518.6818   1652606.1996   5482253.1038   2  16   0.1678   0.1281   0.2712   0.1149   0.1445   0.1897  -0.01    2.4
2017/07/23 10:23:51.800   2773518.6757   1652606.1941   5482253.0961   2  16   0.1671   0.1277   0.2699   0.1144   0.1439   0.1889  -0.01    2.4
2017/07/23 10:23:52.000   2773518.6694   1652606.1886   5482253.0886   2  16   0.1665   0.1273   0.2687   0.1140   0.1433   0.1881  -0.01    2.4
2017/07/23 10:23:52.200   2773518.6595   1652606.1810   5482253.0737   2  16   0.1659   0.1269   0.2675   0.1135   0.1427   0.1873  -0.01    2.4
2017/07/23 10:23:52.400   2773518.6542   1652606.1758   5482253.0648   2  16   0.1652   0.1265   0.2664   0.1131   0.1421   0.1865  -0.01    2.4
2017/07/23 10:23:52.600   2773518.6483   1652606.1695   5482253.0577   2  16   0.1646   0.1261   0.2652   0.1126   0.1416   0.1857  -0.01    2.4
2017/07/23 10:23:52.800   2773518.6454   1652606.1648   5482253.0570   2  16   0.1640   0.1258   0.2640   0.1122   0.1410   0.1849  -0.01    2.5
2017/07/23 10:23:53.000   2773518.6427   1652606.1611   5482253.0552   2  16   0.1634   0.1254   0.2629   0.1118   0.1404   0.1842  -0.01    2.5
2017/07/23 10:23:53.200   2773518.6392   1652606.1568   5482253.0541   2  16   0.1628   0.1250   0.2617   0.1113   0.1398   0.1834  -0.01    2.5
2017/07/23 10:23:53.400   2773518.6361   1652606.1525   5482253.0517   2  16   0.1622   0.1246   0.2605   0.1109   0.1393   0.1826  -0.01    2.5
2017/07/23 10:23:53.600   2773518.6336   1652606.1487   5482253.0521   2  16   0.1615   0.1242   0.2594   0.1105   0.1387   0.1819  -0.01    2.5
2017/07/23 10:23:53.800   2773518.6283   1652606.1431   5482253.0461   2  16   0.1609   0.1238   0.2583   0.1100   0.1381   0.1811  -0.01    2.5
2017/07/23 10:23:54.000   2773518.6218   1652606.1367   5482253.0404   2  16   0.1603   0.1235   0.2572   0.1096   0.1376   0.1804  -0.01    2.5
2017/07/23 10:23:54.200   2773518.6216   1652606.1345   5482253.0459   2  16   0.1598   0.1231   0.2560   0.1092   0.1370   0.1796  -0.01    2.5
2017/07/23 10:23:54.400   2773518.6220   1652606.1338   5482253.0545   2  16   0.1592   0.1227   0.2549   0.1088   0.1365   0.1789  -0.01    2.6
2017/07/23 10:23:54.600   2773518.6209   1652606.1318   5482253.0593   2  16   0.1586   0.1223   0.2538   0.1084   0.1359   0.1781  -0.01    2.6
2017/07/23 10:23:54.800   2773518.6210   1652606.1301   5482253.0636   2  16   0.1580   0.1220   0.2527   0.1079   0.1354   0.1774  -0.01    2.6
2017/07/23 10:23:55.000   2773518.6193   1652606.1278   5482253.0652   2  16   0.1574   0.1216   0.2516   0.1075   0.1349   0.1767  -0.01    2.6
2017/07/23 10:23:55.200   2773518.6177   1652606.1247   5482253.0663   2  16   0.1568   0.1212   0.2505   0.1071   0.1343   0.1759  -0.01    2.6
2017/07/23 10:23:55.400   2773518.6153   1652606.1210   5482253.0679   2  16   0.1562   0.1209   0.2495   0.1067   0.1338   0.1752  -0.01    2.6
2017/07/23 10:23:55.600   2773518.6135   1652606.1177   5482253.0682   2  16   0.1557   0.1205   0.2484   0.1063   0.1333   0.1745  -0.01    2.7
2017/07/23 10:23:55.800   2773518.6117   1652606.1137   5482253.0696   2  16   0.1551   0.1202   0.2473   0.1059   0.1327   0.1738  -0.01    2.7
2017/07/23 10:23:56.000   2773518.6110   1652606.1110   5482253.0735   2  16   0.1545   0.1198   0.2463   0.1055   0.1322   0.1731  -0.01    2.7
2017/07/23 10:23:56.200   2773518.6088   1652606.1075   5482253.0715   2  16   0.1540   0.1195   0.2452   0.1051   0.1317   0.1724  -0.01    2.7
2017/07/23 10:23:56.400   2773518.6065   1652606.1038   5482253.0731   2  16   0.1534   0.1191   0.2442   0.1047   0.1312   0.1717  -0.01    2.8
2017/07/23 10:23:56.600   2773518.6062   1652606.1018   5482253.0743   2  16   0.1529   0.1187   0.2432   0.1043   0.1307   0.1710  -0.01    2.8
2017/07/23 10:23:56.800   2773518.6076   1652606.1009   5482253.0804   2  16   0.1523   0.1184   0.2421   0.1039   0.1302   0.1703  -0.01    2.8
2017/07/23 10:23:57.000   2773518.6077   1652606.0991   5482253.0824   2  16   0.1518   0.1181   0.2411   0.1035   0.1297   0.1696  -0.01    2.8
2017/07/23 10:23:57.200   2773518.6117   1652606.0987   5482253.0906   2  16   0.1512   0.1177   0.2401   0.1031   0.1292   0.1689  -0.01    2.9
2017/07/23 10:23:57.400   2773518.6114   1652606.0954   5482253.0913   2  16   0.1507   0.1174   0.2391   0.1028   0.1287   0.1682  -0.01    2.9
2017/07/23 10:23:57.600   2773518.6133   1652606.0935   5482253.0967   2  16   0.1501   0.1170   0.2381   0.1024   0.1282   0.1676  -0.01    2.9
2017/07/23 10:23:57.800   2773518.6142   1652606.0911   5482253.1006   2  16   0.1496   0.1167   0.2371   0.1020   0.1277   0.1669  -0.01    3.0
2017/07/23 10:23:58.000   2773518.6154   1652606.0889   5482253.1054   2  16   0.1491   0.1164   0.2361   0.1016   0.1272   0.1662  -0.01    3.0
2017/07/23 10:23:58.200   2773519.0967   1652606.2503   5482253.8326   1  16   0.0014   0.0009   0.0028   0.0010   0.0014   0.0019  -0.01    3.0
2017/07/23 10:23:58.400   2773519.0967   1652606.2503   5482253.8327   1  16   0.0014   0.0009   0.0028   0.0010   0.0014   0.0019  -0.01    3.0
2017/07/23 10:23:58.600   2773519.0967   1652606.2504   5482253.8328   1  16   0.0014   0.0009   0.0028   0.0010   0.0014   0.0019  -0.01    3.1
2017/07/23 10:23:58.800   2773519.0967   1652606.2504   5482253.8328   1  16   0.0014   0.0009   0.0028   0.0010   0.0014   0.0019  -0.01    3.1
2017/07/23 10:23:59.000   2773519.0967   1652606.2504   5482253.8328   1  16   0.0014   0.0009   0.0028   0.0010   0.0014   0.0019  -0.01    3.2
2017/07/23 10:23:59.200   2773519.0967   1652606.2504   5482253.8329   1  16   0.0014   0.0009   0.0028   0.0010   0.0014   0.0019  -0.01    3.2
2017/07/23 10:23:59.400   2773519.0967   1652606.2504   5482253.8330   1  16   0.0014   0.0009   0.0028   0.0010   0.0014   0.0019  -0.01    3.2
2017/07/23 10:23:59.600   2773519.0967   1652606.2504   5482253.8331   1  16   0.0014   0.0009   0.0028   0.0010   0.0014   0.0019  -0.01    3.2
2017/07/23 10:23:59.800   2773519.0967   1652606.2505   5482253.8331   1  16   0.0014   0.0009   0.0028   0.0010   0.0014   0.0019  -0.01    3.2
2017/07/23 10:24:00.000   2773519.0968   1652606.2505   5482253.8332   1  16   0.0014   0.0009   0.0028   0.0010   0.0014   0.0019  -0.01    3.3
2017/07/23 10:24:00.200   2773519.0968   1652606.2505   5482253.8333   1  16   0.0014   0.0009   0.0028   0.0010   0.0014   0.0019  -0.01    3.3
2017/07/23 10:24:00.400   2773519.0968   1652606.2505   5482253.8334   1  16   0.0014   0.0009   0.0028   0.0010   0.0014   0.0019  -0.01    3.3
2017/07/23 10:24:00.600   2773519.0969   1652606.2506   5482253.8336   1  16   0.0014   0.0009   0.0028   0.0010   0.0014   0.0019  -0.01    3.3
2017/07/23 10:24:00.800   2773519.0969   1652606.2506   5482253.8337   1  16   0.0014   0.0009   0.0028   0.0010   0.0014   0.0019  -0.01    3.4
2017/07/23 10:24:01.000   2773519.0969   1652606.2506   5482253.8338   1  16   0.0014   0.0009   0.0027   0.0010   0.0014   0.0019  -0.01    3.4
2017/07/23 10:24:01.200   2773519.0969   1652606.2506   5482253.8338   1  16   0.0014   0.0009   0.0027   0.0010   0.0014   0.0018  -0.01    3.4
2017/07/23 10:24:01.400   2773519.0970   1652606.2507   5482253.8339   1  16   0.0014   0.0009   0.0027   0.0010   0.0014   0.0018  -0.01    3.4
2017/07/23 10:24:01.600   2773519.0969   1652606.2507   5482253.8340   1  16   0.0014   0.0009   0.0027   0.0010   0.0014   0.0018  -0.01    3.5
2017/07/23 10:24:01.800   2773519.0970   1652606.2507   5482253.8340   1  16   0.0014   0.0008   0.0027   0.0010   0.0014   0.0018  -0.01    3.5
2017/07/23 10:24:02.000   2773519.0970   1652606.2507   5482253.8342   1  16   0.0014   0.0008   0.0027   0.0010   0.0014   0.0018  -0.01    3.5
2017/07/23 10:24:02.200   2773519.0970   1652606.2508   5482253.8343   1  16   0.0013   0.0008   0.0027   0.0010   0.0014   0.0018  -0.01    3.6
2017/07/23 10:24:02.400   2773519.0970   1652606.2508   5482253.8344   1  16   0.0013   0.0008   0.0027   0.0010   0.0014   0.0018  -0.01    3.6
2017/07/23 10:24:02.600   2773519.0971   1652606.2508   5482253.8345   1  16   0.0013   0.0008   0.0027   0.0010   0.0014   0.0018  -0.01    3.6
2017/07/23 10:24:02.800   2773519.0971   1652606.2509   5482253.8346   1  16   0.0013   0.0008   0.0027   0.0010   0.0014   0.0018  -0.01    3.6
2017/07/23 10:24:03.000   2773519.0971   1652606.2509   5482253.8346   1  16   0.0013   0.0008   0.0027   0.0010   0.0014   0.0018  -0.01    3.7
2017/07/23 10:24:03.200   2773519.0971   1652606.2509   5482253.8347   1  16   0.0013   0.0008   0.0027   0.0010   0.0014   0.0018  -0.01    3.7
2017/07/23 10:24:03.400   2773519.0971   1652606.2509   5482253.8347   1  16   0.0013   0.0008   0.0027   0.0010   0.0014   0.0018  -0.01    3.7
2017/07/23 10:24:03.600   2773519.0971   1652606.2509   5482253.8348   1  16   0.0013   0.0008   0.0027   0.0010   0.0014   0.0018  -0.01    3.7
2017/07/23 10:24:03.800   2773519.0971   1652606.2509   5482253.8349   1  16   0.0013   0.0008   0.0027   0.0010   0.0014   0.0018  -0.01    3.7
2017/07/23 10:24:04.000   2773519.0971   1652606.2510   5482253.8350   1  16   0.0013   0.0008   0.0027   0.0010   0.0014   0.0018  -0.01    3.7
2017/07/23 10:24:04.200   2773519.0971   1652606.2510   5482253.8351   1  16   0.0013   0.0008   0.0027   0.0010   0.0013   0.0018  -0.01    3.7
2017/07/23 10:24:04.400   2773519.0972   1652606.2510   5482253.8352   1  16   0.0013   0.0008   0.0027   0.0010   0.0013   0.0018  -0.01    3.7
2017/07/23 10:24:04.600   2773519.0972   1652606.2510   5482253.8352   1  16   0.0013   0.0008   0.0026   0.0010   0.0013   0.0018  -0.01    3.8
2017/07/23 10:24:04.800   2773519.0972   1652606.2510   5482253.8353   1  16   0.0013   0.0008   0.0026   0.0010   0.0013   0.0018  -0.01    3.8
2017/07/23 10:24:05.000   2773519.0972   1652606.2510   5482253.8354   1  16   0.0013   0.0008   0.0026   0.0010   0.0013   0.0018  -0.01    3.8
2017/07/23 10:24:05.200   2773519.0972   1652606.2510   5482253.8355   1  16   0.0013   0.0008   0.0026   0.0010   0.0013   0.0018  -0.01    3.8
2017/07/23 10:24:05.400   2773519.0973   1652606.2511   5482253.8356   1  16   0.0013   0.0008   0.0026   0.0010   0.0013   0.0018  -0.01    3.8
2017/07/23 10:24:05.600   2773519.0973   1652606.2511   5482253.8356   1  16   0.0013   0.0008   0.0026   0.0010   0.0013   0.0018  -0.01    3.8
2017/07/23 10:24:05.800   2773519.0973   1652606.2511   5482253.8357   1  16   0.0013   0.0008   0.0026   0.0010   0.0013   0.0018  -0.01    3.9
2017/07/23 10:24:06.000   2773519.0973   1652606.2511   5482253.8358   1  16   0.0013   0.0008   0.0026   0.0010   0.0013   0.0018  -0.01    3.9
2017/07/23 10:24:06.200   2773519.0973   1652606.2511   5482253.8359   1  16   0.0013   0.0008   0.0026   0.0009   0.0013   0.0018  -0.01    3.9
2017/07/23 10:24:06.400   2773519.0974   1652606.2512   5482253.8359   1  16   0.0013   0.0008   0.0026   0.0009   0.0013   0.0018  -0.01    3.9
2017/07/23 10:24:06.600   2773519.0974   1652606.2512   5482253.8360   1  16   0.0013   0.0008   0.0026   0.0009   0.0013   0.0018  -0.01    3.9
2017/07/23 10:24:06.800   2773519.0974   1652606.2512   5482253.8361   1  16   0.0013   0.0008   0.0026   0.0009   0.0013   0.0018  -0.01    3.9
2017/07/23 10:24:07.000   2773519.0974   1652606.2512   5482253.8361   1  16   0.0013   0.0008   0.0026   0.0009   0.0013   0.0017  -0.01    3.9
2017/07/23 10:24:07.200   2773519.0974   1652606.2512   5482253.8363   1  16   0.0013   0.0008   0.0026   0.0009   0.0013   0.0017  -0.01    3.9
2017/07/23 10:24:07.400   2773519.0974   1652606.2513   5482253.8363   1  16   0.0013   0.0008   0.0026   0.0009   0.0013   0.0017  -0.01    3.9
2017/07/23 10:24:07.600   2773519.0975   1652606.2513   5482253.8364   1  16   0.0013   0.0008   0.0026   0.0009   0.0013   0.0017  -0.01    4.0
2017/07/23 10:24:07.800   2773519.0975   1652606.2513   5482253.8365   1  16   0.0013   0.0008   0.0026   0.0009   0.0013   0.0017  -0.01    3.9
2017/07/23 10:24:08.000   2773519.0976   1652606.2514   5482253.8366   1  16   0.0013   0.0008   0.0026   0.0009   0.0013   0.0017  -0.01    4.0
2017/07/23 10:24:08.200   2773519.0976   1652606.2514   5482253.8367   1  16   0.0013   0.0008   0.0026   0.0009   0.0013   0.0017  -0.01    4.0
2017/07/23 10:24:08.400   2773519.0976   1652606.2514   5482253.8367   1  16   0.0013   0.0008   0.0026   0.0009   0.0013   0.0017  -0.01    4.0
2017/07/23 10:24:08.600   2773519.0976   1652606.2514   5482253.8368   1  16   0.0013   0.0008   0.0025   0.0009   0.0013   0.0017  -0.01    4.0
2017/07/23 10:24:08.800   2773519.0976   1652606.2515   5482253.8370   1  16   0.0013   0.0008   0.0025   0.0009   0.0013   0.0017  -0.01    4.0
2017/07/23 10:24:09.000   2773519.0977   1652606.2515   5482253.8371   1  16   0.0013   0.0008   0.0025   0.0009   0.0013   0.0017  -0.01    4.0
2017/07/23 10:24:09.200   2773519.0977   1652606.2515   5482253.8372   1  16   0.0013   0.0008   0.0025   0.0009   0.0013   0.0017  -0.01    4.0
2017/07/23 10:24:09.400   2773519.0978   1652606.2516   5482253.8373   1  16   0.0013   0.0008   0.0025   0.0009   0.0013   0.0017  -0.01    4.0
2017/07/23 10:24:09.600   2773519.0978   1652606.2516   5482253.8373   1  16   0.0013   0.0008   0.0025   0.0009   0.0013   0.0017  -0.01    4.1
2017/07/23 10:24:09.800   2773519.0978   1652606.2516   5482253.8374   1  16   0.0013   0.0008   0.0025   0.0009   0.0013   0.0017  -0.01    4.1
2017/07/23 10:24:10.000   2773519.0978   1652606.2516   5482253.8375   1  16   0.0013   0.0008   0.0025   0.0009   0.0013   0.0017  -0.01    4.1
2017/07/23 10:24:10.200   2773519.0978   1652606.2517   5482253.8375   1  16   0.0013   0.0008   0.0025   0.0009   0.0013   0.0017  -0.01    4.1
2017/07/23 10:24:10.400   2773519.0978   1652606.2517   5482253.8375   1  16   0.0013   0.0008   0.0025   0.0009   0.0013   0.0017  -0.01    4.1
2017/07/23 10:24:10.600   2773519.0978   1652606.2517   5482253.8376   1  16   0.0012   0.0008   0.0025   0.0009   0.0013   0.0017  -0.01    4.1
2017/07/23 10:24:10.800   2773519.0978   1652606.2517   5482253.8376   1  16   0.0012   0.0008   0.0025   0.0009   0.0013   0.0017  -0.01    4.2
2017/07/23 10:24:11.000   2773519.0979   1652606.2517   5482253.8377   1  16   0.0012   0.0008   0.0025   0.0009   0.0013   0.0017  -0.01    4.2
2017/07/23 10:24:11.200   2773519.0979   1652606.2517   5482253.8378   1  16   0.0012   0.0008   0.0025   0.0009   0.0013   0.0017  -0.01    4.2
2017/07/23 10:24:11.400   2773519.0979   1652606.2517   5482253.8378   1  16   0.0012   0.0008   0.0025   0.0009   0.0013   0.0017  -0.01    4.2
2017/07/23 10:24:11.600   2773519.0979   1652606.2518   5482253.8379   1  16   0.0012   0.0008   0.0025   0.0009   0.0013   0.0017  -0.01    4.2
2017/07/23 10:24:11.800   2773519.0979   1652606.2518   5482253.8380   1  16   0.0012   0.0008   0.0025   0.0009   0.0013   0.0017  -0.01    4.2
2017/07/23 10:24:12.000   2773519.0979   1652606.2518   5482253.8380   1  16   0.0012   0.0008   0.0025   0.0009   0.0013   0.0017  -0.01    4.2
2017/07/23 10:24:12.200   2773519.0979   1652606.2518   5482253.8381   1  16   0.0012   0.0008   0.0025   0.0009   0.0013   0.0017  -0.01    4.2
2017/07/23 10:24:12.400   2773519.0980   1652606.2518   5482253.8382   1  16   0.0012   0.0008   0.0025   0.0009   0.0013   0.0017  -0.01    4.2
2017/07/23 10:24:12.600   2773519.0980   1652606.2519   5482253.8383   1  16   0.0012   0.0008   0.0025   0.0009   0.0013   0.0017  -0.01    4.2
2017/07/23 10:24:12.800   2773519.0980   1652606.2519   5482253.8384   1  16   0.0012   0.0008   0.0025   0.0009   0.0013   0.0017  -0.01    4.2
2017/07/23 10:24:13.000   2773519.0980   1652606.2519   5482253.8384   1  16   0.0012   0.0008   0.0025   0.0009   0.0013   0.0017  -0.01    4.3
2017/07/23 10:24:13.200   2773519.0981   1652606.2519   5482253.8385   1  16   0.0012   0.0008   0.0025   0.0009   0.0013   0.0017  -0.01    4.3
2017/07/23 10:24:13.400   2773519.0981   1652606.2519   5482253.8386   1  16   0.0012   0.0008   0.0024   0.0009   0.0012   0.0017  -0.01    4.3
2017/07/23 10:24:13.600   2773519.0981   1652606.2520   5482253.8387   1  16   0.0012   0.0008   0.0024   0.0009   0.0012   0.0017  -0.01    4.3
2017/07/23 10:24:13.800   2773519.0981   1652606.2520   5482253.8388   1  16   0.0012   0.0008   0.0024   0.0009   0.0012   0.0017  -0.01    4.3
2017/07/23 10:24:14.000   2773519.0981   1652606.2520   5482253.8389   1  16   0.0012   0.0008   0.0024   0.0009   0.0012   0.0016  -0.01    4.3
2017/07/23 10:24:14.200   2773519.0981   1652606.2520   5482253.8389   1  16   0.0012   0.0008   0.0024   0.0009   0.0012   0.0016  -0.01    4.3
2017/07/23 10:24:14.400   2773519.0982   1652606.2520   5482253.8390   1  16   0.0012   0.0008   0.0024   0.0009   0.0012   0.0016  -0.01    4.3
2017/07/23 10:24:14.600   2773519.0982   1652606.2520   5482253.8391   1  16   0.0012   0.0008   0.0024   0.0009   0.0012   0.0016  -0.01    4.3
2017/07/23 10:24:14.800   2773519.0982   1652606.2521   5482253.8391   1  16   0.0012   0.0008   0.0024   0.0009   0.0012   0.0016  -0.01    4.3
2017/07/23 10:24:15.000   2773519.0982   1652606.2521   5482253.8392   1  16   0.0012   0.0008   0.0024   0.0009   0.0012   0.0016  -0.01    4.4
2017/07/23 10:24:15.200   2773519.0982   1652606.2521   5482253.8393   1  16   0.0012   0.0008   0.0024   0.0009   0.0012   0.0016  -0.01    4.4
2017/07/23 10:24:15.400   2773519.0983   1652606.2521   5482253.8394   1  16   0.0012   0.0008   0.0024   0.0009   0.0012   0.0016  -0.01    4.4
2017/07/23 10:24:15.600   2773519.0983   1652606.2522   5482253.8395   1  16   0.0012   0.0008   0.0024   0.0009   0.0012   0.0016  -0.01    4.4
2017/07/23 10:24:15.800   2773519.0983   1652606.2522   5482253.8396   1  16   0.0012   0.0008   0.0024   0.0009   0.0012   0.0016  -0.01    4.4
2017/07/23 10:24:16.000   2773519.0983   1652606.2522   5482253.8397   1  16   0.0012   0.0008   0.0024   0.0009   0.0012   0.0016  -0.01    4.4
2017/07/23 10:24:16.200   2773519.0984   1652606.2522   5482253.8397   1  16   0.0012   0.0008   0.0024   0.0009   0.0012   0.0016  -0.01    4.4
2017/07/23 10:24:16.400   2773519.0984   1652606.2522   5482253.8398   1  16   0.0012   0.0008   0.0024   0.0009   0.0012   0.0016  -0.01    4.4
2017/07/23 10:24:16.600   2773519.0984   1652606.2522   5482253.8399   1  16   0.0012   0.0008   0.0024   0.0009   0.0012   0.0016  -0.01    4.4
2017/07/23 10:24:16.800   2773519.0984   1652606.2522   5482253.8399   1  16   0.0012   0.0008   0.0024   0.0009   0.0012   0.0016  -0.01    4.4
2017/07/23 10:24:17.000   2773519.0984   1652606.2523   5482253.8400   1  16   0.0012   0.0008   0.0024   0.0009   0.0012   0.0016  -0.01    4.4
2017/07/23 10:24:17.200   2773519.0985   1652606.2523   5482253.8401   1  16   0.0012   0.0008   0.0024   0.0009   0.0012   0.0016  -0.01    4.5
2017/07/23 10:24:17.400   2773519.0985   1652606.2523   5482253.8402   1  16   0.0012   0.0008   0.0024   0.0009   0.0012   0.0016  -0.01    4.5
2017/07/23 10:24:17.600   2773519.0985   1652606.2523   5482253.8403   1  16   0.0012   0.0008   0.0024   0.0009   0.0012   0.0016  -0.01    4.5
2017/07/23 10:24:17.800   2773519.0985   1652606.2523   5482253.8403   1  16   0.0012   0.0008   0.0024   0.0009   0.0012   0.0016  -0.01    4.5
2017/07/23 10:24:18.000   2773519.0985   1652606.2523   5482253.8404   1  16   0.0012   0.0008   0.0024   0.0009   0.0012   0.0016  -0.01    4.5
2017/07/23 10:24:18.200   2773519.0985   1652606.2524   5482253.8405   1  16   0.0012   0.0008   0.0024   0.0009   0.0012   0.0016  -0.01    4.5
2017/07/23 10:24:18.400   2773519.0986   1652606.2524   5482253.8405   1  16   0.0012   0.0007   0.0024   0.0009   0.0012   0.0016  -0.01    4.5
2017/07/23 10:24:18.600   2773519.0986   1652606.2524   5482253.8406   1  16   0.0012   0.0007   0.0024   0.0009   0.0012   0.0016  -0.01    4.5
2017/07/23 10:24:18.800   2773519.0986   1652606.2524   5482253.8407   1  16   0.0012   0.0007   0.0024   0.0009   0.0012   0.0016  -0.01    4.5
2017/07/23 10:24:19.000   2773519.0986   1652606.2524   5482253.8408   1  16   0.0012   0.0007   0.0023   0.0009   0.0012   0.0016  -0.01    4.5
2017/07/23 10:24:19.200   2773519.0987   1652606.2524   5482253.8409   1  16   0.0012   0.0007   0.0023   0.0009   0.0012   0.0016  -0.01    4.5
2017/07/23 10:24:19.400   2773519.0987   1652606.2525   5482253.8410   1  16   0.0012   0.0007   0.0023   0.0009   0.0012   0.0016  -0.01    4.5
2017/07/23 10:24:19.600   2773519.0988   1652606.2525   5482253.8411   1  16   0.0012   0.0007   0.0023   0.0009   0.0012   0.0016  -0.01    4.5
2017/07/23 10:24:19.800   2773519.0988   1652606.2525   5482253.8411   1  16   0.0012   0.0007   0.0023   0.0009   0.0012   0.0016  -0.01    4.5
2017/07/23 10:24:20.000   2773519.0988   1652606.2525   5482253.8412   1  16   0.0012   0.0007   0.0023   0.0009   0.0012   0.0016  -0.01    4.5
2017/07/23 10:24:20.200   2773519.0988   1652606.2525   5482253.8413   1  16   0.0012   0.0007   0.0023   0.0009   0.0012   0.0016  -0.01    4.5
2017/07/23 10:24:20.400   2773519.0988   1652606.2525   5482253.8413   1  16   0.0012   0.0007   0.0023   0.0009   0.0012   0.0016  -0.01    4.5
2017/07/23 10:24:20.600   2773519.0989   1652606.2526   5482253.8414   1  16   0.0012   0.0007   0.0023   0.0009   0.0012   0.0016  -0.01    4.5
2017/07/23 10:24:20.800   2773519.0989   1652606.2526   5482253.8414   1  16   0.0012   0.0007   0.0023   0.0009   0.0012   0.0016  -0.01    4.5
2017/07/23 10:24:21.000   2773519.0989   1652606.2526   5482253.8415   1  16   0.0012   0.0007   0.0023   0.0009   0.0012   0.0016  -0.01    4.5
2017/07/23 10:24:21.200   2773519.0989   1652606.2526   5482253.8416   1  16   0.0012   0.0007   0.0023   0.0009   0.0012   0.0016  -0.01    4.5
2017/07/23 10:24:21.400   2773519.0990   1652606.2526   5482253.8417   1  16   0.0012   0.0007   0.0023   0.0009   0.0012   0.0016  -0.01    4.5
2017/07/23 10:24:21.600   2773519.0990   1652606.2526   5482253.8417   1  16   0.0012   0.0007   0.0023   0.0008   0.0012   0.0016  -0.01    4.4
2017/07/23 10:24:21.800   2773519.0990   1652606.2526   5482253.8418   1  16   0.0011   0.0007   0.0023   0.0008   0.0012   0.0016  -0.01    4.4
2017/07/23 10:24:22.000   2773519.0990   1652606.2527   5482253.8418   1  16   0.0011   0.0007   0.0023   0.0008   0.0012   0.0016  -0.01    4.4
2017/07/23 10:24:22.200   2773519.0990   1652606.2527   5482253.8419   1  16   0.0011   0.0007   0.0023   0.0008   0.0012   0.0016  -0.01    4.4
2017/07/23 10:24:22.400   2773519.0991   1652606.2527   5482253.8420   1  16   0.0011   0.0007   0.0023   0.0008   0.0012   0.0016  -0.01    4.4
2017/07/23 10:24:22.600   2773519.0991   1652606.2527   5482253.8420   1  16   0.0011   0.0007   0.0023   0.0008   0.0012   0.0016  -0.01    4.4
2017/07/23 10:24:22.800   2773519.0991   1652606.2527   5482253.8421   1  16   0.0011   0.0007   0.0023   0.0008   0.0012   0.0015  -0.01    4.4
2017/07/23 10:24:23.000   2773519.0991   1652606.2528   5482253.8421   1  16   0.0011   0.0007   0.0023   0.0008   0.0012   0.0015  -0.01    4.4
2017/07/23 10:24:23.200   2773519.0991   1652606.2528   5482253.8422   1  16   0.0011   0.0007   0.0023   0.0008   0.0012   0.0015  -0.01    4.4
2017/07/23 10:24:23.400   2773519.0991   1652606.2528   5482253.8422   1  16   0.0011   0.0007   0.0023   0.0008   0.0012   0.0015  -0.01    4.4
2017/07/23 10:24:23.600   2773519.0991   1652606.2528   5482253.8423   1  16   0.0011   0.0007   0.0023   0.0008   0.0012   0.0015  -0.01    4.4
2017/07/23 10:24:23.800   2773519.0992   1652606.2528   5482253.8423   1  16   0.0011   0.0007   0.0023   0.0008   0.0012   0.0015  -0.01    4.3
2017/07/23 10:24:24.000   2773519.0992   1652606.2528   5482253.8424   1  16   0.0011   0.0007   0.0023   0.0008   0.0012   0.0015  -0.01    4.3
2017/07/23 10:24:24.200   2773519.0992   1652606.2528   5482253.8424   1  16   0.0011   0.0007   0.0023   0.0008   0.0012   0.0015  -0.01    4.3
2017/07/23 10:24:24.400   2773519.0992   1652606.2528   5482253.8425   1  16   0.0011   0.0007   0.0023   0.0008   0.0012   0.0015  -0.01    4.3
2017/07/23 10:24:24.600   2773519.0992   1652606.2529   5482253.8425   1  16   0.0011   0.0007   0.0023   0.0008   0.0012   0.0015  -0.01    4.3
2017/07/23 10:24:24.800   2773519.0993   1652606.2529   5482253.8426   1  16   0.0011   0.0007   0.0023   0.0008   0.0012   0.0015  -0.01    4.3
2017/07/23 10:24:25.000   2773519.0993   1652606.2529   5482253.8426   1  16   0.0011   0.0007   0.0023   0.0008   0.0012   0.0015  -0.01    4.3
2017/07/23 10:24:25.200   2773519.0993   1652606.2529   5482253.8426   1  16   0.0011   0.0007   0.0023   0.0008   0.0012   0.0015  -0.01    4.3
2017/07/23 10:24:25.400   2773519.0993   1652606.2529   5482253.8427   1  16   0.0011   0.0007   0.0022   0.0008   0.0012   0.0015  -0.01    4.2
2017/07/23 10:24:25.600   2773519.0994   1652606.2529   5482253.8427   1  16   0.0011   0.0007   0.0022   0.0008   0.0012   0.0015  -0.01    4.2
2017/07/23 10:24:25.800   2773519.0994   1652606.2530   5482253.8428   1  16   0.0011   0.0007   0.0022   0.0008   0.0012   0.0015  -0.01    4.2
2017/07/23 10:24:26.000   2773519.0994   1652606.2530   5482253.8428   1  16   0.0011   0.0007   0.0022   0.0008   0.0012   0.0015  -0.01    4.2
2017/07/23 10:24:26.200   2773519.0994   1652606.2530   5482253.8429   1  16   0.0011   0.0007   0.0022   0.0008   0.0011   0.0015  -0.01    4.2
2017/07/23 10:24:26.400   2773519.0994   1652606.2530   5482253.8429   1  16   0.0011   0.0007   0.0022   0.0008   0.0011   0.0015  -0.01    4.2
2017/07/23 10:24:26.600   2773519.0995   1652606.2530   5482253.8430   1  16   0.0011   0.0007   0.0022   0.0008   0.0011   0.0015  -0.01    4.2
2017/07/23 10:24:26.800   2773519.0995   1652606.2530   5482253.8430   1  16   0.0011   0.0007   0.0022   0.0008   0.0011   0.0015  -0.01    4.2
2017/07/23 10:24:27.000   2773519.0995   1652606.2530   5482253.8431   1  16   0.0011   0.0007   0.0022   0.0008   0.0011   0.0015  -0.01    4.2
2017/07/23 10:24:27.200   2773519.0995   1652606.2530   5482253.8431   1  16   0.0011   0.0007   0.0022   0.0008   0.0011   0.0015  -0.01    4.2
