% program   : RTKLIB ver.2.4.3 Emlid
% inp file  : /home/artur/RTKLIB/test/test/static/5_new_bridge/rover.obs
% inp file  : /home/artur/RTKLIB/test/test/static/5_new_bridge/base.obs
% inp file  : /home/artur/RTKLIB/test/test/static/5_new_bridge/rover.nav
% obs start : 2017/07/23 11:50:45.6 GPST (week1959  42645.6s)
% obs end   : 2017/07/23 12:01:22.2 GPST (week1959  43282.2s)
% pos mode  : static
% freqs     : L1
% solution  : forward
% elev mask : 15.0 deg
% dynamics  : on
% tidecorr  : off
% ionos opt : broadcast
% tropo opt : est ztd
% ephemeris : broadcast
% navi sys  : gps glonass galileo qzss beidou sbas
% amb res   : continuous
% amb glo   : off
% val thres : 3.0
% antenna1  :                       ( 0.0000  0.0000  0.0000)
% antenna2  :                       ( 0.0000  0.0000  0.0000)
% ref pos   :  2773909.8712  1654076.4507  5481627.6877
%
% (x/y/z-ecef=WGS84,Q=1:fix,2:float,3:sbas,4:dgps,5:single,6:ppp,ns=# of satellites)
%  GPST                      x-ecef(m)      y-ecef(m)      z-ecef(m)   Q  ns   sdx(m)   sdy(m)   sdz(m)  sdxy(m)  sdyz(m)  sdzx(m) age(s)  ratio
2017/07/23 11:50:45.600   2773840.3297   1653188.4361   5481929.5339   2  15   2.3237   1.8671   3.4316   1.7382   1.7509   2.0241  -0.01    0.0
2017/07/23 11:50:45.800   2773840.3617   1653188.5005   5481929.5987   2  15   1.7503   1.3883   2.6535   1.2990   1.3290   1.5508  -0.01    0.0
2017/07/23 11:50:46.000   2773840.3672   1653188.5917   5481929.5955   2  15   1.4719   1.1578   2.2667   1.0891   1.1281   1.3265  -0.01    0.0
2017/07/23 11:50:46.200   2773840.4459   1653188.6791   5481929.5665   2  16   1.2676   0.9862   2.0241   0.9230   0.9941   1.1789  -0.01    0.0
2017/07/23 11:50:46.400   2773840.4500   1653188.6816   5481929.5141   2  16   1.1460   0.8851   1.8574   0.8311   0.9084   1.0845  -0.01    0.0
2017/07/23 11:50:46.600   2773840.0738   1653188.5769   5481929.2126   2  16   1.0378   0.8176   1.7251   0.7663   0.8443   0.9982  -0.01    0.0
2017/07/23 11:50:46.800   2773839.8615   1653188.5113   5481928.9735   2  16   0.9630   0.7647   1.6251   0.7177   0.7962   0.9387  -0.01    0.0
2017/07/23 11:50:47.000   2773839.7438   1653188.4832   5481928.7889   2  16   0.9051   0.7215   1.5458   0.6789   0.7581   0.8935  -0.01    0.0
2017/07/23 11:50:47.200   2773839.6854   1653188.4721   5481928.6572   2  16   0.8585   0.6856   1.4810   0.6470   0.7270   0.8577  -0.01    0.0
2017/07/23 11:50:47.400   2773839.6609   1653188.4748   5481928.5704   2  16   0.8201   0.6550   1.4267   0.6202   0.7010   0.8286  -0.01    0.0
2017/07/23 11:50:47.600   2773839.6361   1653188.4613   5481928.4705   2  17   0.7849   0.6255   1.3804   0.5938   0.6781   0.8036  -0.01    0.0
2017/07/23 11:50:47.800   2773839.6827   1653188.5058   5481928.4340   2  17   0.7552   0.6003   1.3403   0.5715   0.6585   0.7825  -0.01    0.0
2017/07/23 11:50:48.000   2773839.7039   1653188.5233   5481928.4161   2  16   0.7317   0.5805   1.3053   0.5548   0.6421   0.7650  -0.01    0.0
2017/07/23 11:50:48.200   2773839.7312   1653188.5325   5481928.4000   2  16   0.7109   0.5628   1.2743   0.5399   0.6275   0.7496  -0.01    0.0
2017/07/23 11:50:48.400   2773839.7907   1653188.5578   5481928.4121   2  16   0.6924   0.5468   1.2466   0.5265   0.6145   0.7359  -0.01    0.0
2017/07/23 11:50:48.600   2773839.8343   1653188.5686   5481928.4227   2  16   0.6758   0.5323   1.2216   0.5143   0.6027   0.7236  -0.01    0.0
2017/07/23 11:50:48.800   2773839.8489   1653188.5514   5481928.4394   2  17   0.6596   0.5177   1.1988   0.5018   0.5919   0.7124  -0.01    0.0
2017/07/23 11:50:49.000   2773839.8763   1653188.5571   5481928.4580   2  17   0.6451   0.5044   1.1780   0.4906   0.5821   0.7022  -0.01    0.0
2017/07/23 11:50:49.200   2773839.8886   1653188.5502   5481928.4437   2  17   0.6318   0.4923   1.1588   0.4803   0.5731   0.6929  -0.01    0.0
2017/07/23 11:50:49.400   2773839.9168   1653188.5567   5481928.4325   2  17   0.6197   0.4813   1.1411   0.4710   0.5648   0.6843  -0.01    0.0
2017/07/23 11:50:49.600   2773839.9362   1653188.5558   5481928.4282   2  17   0.6086   0.4710   1.1246   0.4624   0.5571   0.6764  -0.01    0.0
2017/07/23 11:50:49.800   2773839.9810   1653188.5779   5481928.4533   2  16   0.5989   0.4624   1.1092   0.4553   0.5499   0.6689  -0.01    0.0
2017/07/23 11:50:50.000   2773840.0289   1653188.6065   5481928.4797   2  16   0.5899   0.4543   1.0948   0.4486   0.5432   0.6619  -0.01    0.0
2017/07/23 11:50:50.200   2773840.0573   1653188.6163   5481928.5190   2  17   0.5808   0.4459   1.0811   0.4417   0.5369   0.6553  -0.01    0.0
2017/07/23 11:50:50.400   2773840.0703   1653188.6199   5481928.5646   2  17   0.5724   0.4381   1.0682   0.4351   0.5309   0.6491  -0.01    0.0
2017/07/23 11:50:50.600   2773840.0966   1653188.6322   5481928.5992   2  17   0.5644   0.4308   1.0560   0.4290   0.5252   0.6431  -0.01    0.0
2017/07/23 11:50:50.800   2773840.1091   1653188.6298   5481928.6286   2  17   0.5569   0.4239   1.0443   0.4232   0.5198   0.6374  -0.01    0.0
2017/07/23 11:50:51.000   2773840.1322   1653188.6406   5481928.6454   2  16   0.5502   0.4179   1.0333   0.4182   0.5146   0.6319  -0.01    0.0
2017/07/23 11:50:51.200   2773840.1507   1653188.6519   5481928.6410   2  16   0.5437   0.4122   1.0227   0.4134   0.5097   0.6266  -0.01    0.0
2017/07/23 11:50:51.400   2773840.1668   1653188.6557   5481928.6312   2  16   0.5375   0.4067   1.0125   0.4088   0.5049   0.6215  -0.01    0.0
2017/07/23 11:50:51.600   2773840.1590   1653188.6452   5481928.5964   2  17   0.5313   0.4010   1.0026   0.4040   0.5003   0.6165  -0.01    0.0
2017/07/23 11:50:51.800   2773840.1883   1653188.6680   5481928.5792   2  17   0.5254   0.3956   0.9931   0.3994   0.4959   0.6117  -0.01    0.0
2017/07/23 11:50:52.000   2773840.2152   1653188.6921   5481928.5604   2  17   0.5196   0.3905   0.9839   0.3950   0.4916   0.6070  -0.01    0.0
2017/07/23 11:50:52.200   2773840.2284   1653188.7069   5481928.5416   2  17   0.5141   0.3856   0.9750   0.3908   0.4874   0.6024  -0.01    0.0
2017/07/23 11:50:52.400   2773840.2468   1653188.7247   5481928.5283   2  17   0.5088   0.3808   0.9663   0.3867   0.4834   0.5979  -0.01    0.0
2017/07/23 11:50:52.600   2773840.2593   1653188.7352   5481928.5074   2  17   0.5037   0.3763   0.9579   0.3828   0.4795   0.5935  -0.01    0.0
2017/07/23 11:50:52.800   2773840.2814   1653188.7465   5481928.4935   2  17   0.4988   0.3719   0.9497   0.3790   0.4756   0.5892  -0.01    0.0
2017/07/23 11:50:53.000   2773840.3036   1653188.7592   5481928.4744   2  17   0.4940   0.3677   0.9417   0.3753   0.4719   0.5850  -0.01    0.0
2017/07/23 11:50:53.200   2773840.3146   1653188.7637   5481928.4607   2  17   0.4893   0.3637   0.9339   0.3718   0.4682   0.5808  -0.01    0.0
2017/07/23 11:50:53.400   2773840.3348   1653188.7724   5481928.4622   2  17   0.4848   0.3598   0.9263   0.3683   0.4647   0.5767  -0.01    0.0
2017/07/23 11:50:53.600   2773840.3525   1653188.7793   5481928.4726   2  17   0.4804   0.3560   0.9188   0.3649   0.4611   0.5727  -0.01    0.0
2017/07/23 11:50:53.800   2773840.3648   1653188.7791   5481928.4915   2  17   0.4761   0.3523   0.9115   0.3617   0.4577   0.5687  -0.01    0.0
2017/07/23 11:50:54.000   2773840.3789   1653188.7813   5481928.5130   2  16   0.4721   0.3490   0.9045   0.3587   0.4543   0.5648  -0.01    0.0
2017/07/23 11:50:54.200   2773840.3843   1653188.7807   5481928.5208   2  16   0.4682   0.3458   0.8977   0.3558   0.4509   0.5609  -0.01    0.0
2017/07/23 11:50:54.400   2773840.4105   1653188.7939   5481928.5570   2  17   0.4641   0.3424   0.8907   0.3527   0.4477   0.5571  -0.01    0.0
2017/07/23 11:50:54.600   2773840.4321   1653188.8035   5481928.5876   2  17   0.4602   0.3392   0.8840   0.3497   0.4444   0.5533  -0.01    0.0
2017/07/23 11:50:54.800   2773840.4652   1653188.8217   5481928.6314   2  17   0.4564   0.3360   0.8773   0.3468   0.4412   0.5495  -0.01    0.0
2017/07/23 11:50:55.000   2773840.4791   1653188.8298   5481928.6400   2  17   0.4526   0.3329   0.8707   0.3440   0.4381   0.5457  -0.01    0.0
2017/07/23 11:50:55.200   2773840.4951   1653188.8398   5481928.6494   2  17   0.4489   0.3299   0.8642   0.3412   0.4350   0.5421  -0.01    0.0
2017/07/23 11:50:55.400   2773840.5072   1653188.8472   5481928.6422   2  17   0.4453   0.3270   0.8579   0.3384   0.4320   0.5384  -0.01    2.4
2017/07/23 11:50:55.600   2773840.5074   1653188.8487   5481928.6189   2  17   0.4418   0.3241   0.8516   0.3357   0.4289   0.5348  -0.01    2.4
2017/07/23 11:50:55.800   2773840.4921   1653188.8448   5481928.5683   2  17   0.4383   0.3213   0.8454   0.3331   0.4260   0.5312  -0.01    2.4
2017/07/23 11:50:56.000   2773840.4826   1653188.8364   5481928.5637   2  16   0.4350   0.3187   0.8395   0.3307   0.4230   0.5277  -0.01    2.3
2017/07/23 11:50:56.200   2773840.4776   1653188.8313   5481928.5664   2  16   0.4318   0.3162   0.8337   0.3283   0.4202   0.5243  -0.01    2.3
2017/07/23 11:50:56.400   2773840.8720   1653189.0989   5481928.8819   1  17   0.0099   0.0057   0.0175   0.0074   0.0099   0.0131  -0.01    4.8
2017/07/23 11:50:56.600   2773840.8718   1653189.0988   5481928.8816   1  17   0.0098   0.0057   0.0175   0.0074   0.0098   0.0130  -0.01    4.8
2017/07/23 11:50:56.800   2773840.8716   1653189.0987   5481928.8812   1  17   0.0098   0.0057   0.0174   0.0074   0.0098   0.0130  -0.01    4.9
2017/07/23 11:50:57.000   2773840.8714   1653189.0986   5481928.8810   1  17   0.0098   0.0056   0.0174   0.0074   0.0098   0.0129  -0.01    4.8
2017/07/23 11:50:57.200   2773840.8713   1653189.0986   5481928.8808   1  17   0.0098   0.0056   0.0173   0.0073   0.0097   0.0129  -0.01    4.3
2017/07/23 11:50:57.400   2773840.8710   1653189.0984   5481928.8802   1  17   0.0097   0.0056   0.0173   0.0073   0.0097   0.0129  -0.01    3.8
2017/07/23 11:50:57.600   2773840.8709   1653189.0984   5481928.8801   1  17   0.0097   0.0056   0.0173   0.0073   0.0097   0.0128  -0.01    3.5
2017/07/23 11:50:57.800   2773840.8708   1653189.0984   5481928.8799   1  17   0.0097   0.0056   0.0172   0.0073   0.0097   0.0128  -0.01    3.2
2017/07/23 11:50:58.000   2773840.8706   1653189.0982   5481928.8796   1  17   0.0097   0.0056   0.0172   0.0073   0.0096   0.0128  -0.01    3.0
2017/07/23 11:50:58.200   2773840.2796   1653188.7493   5481927.9742   2  17   0.4009   0.2923   0.7779   0.3049   0.3930   0.4909  -0.01    2.9
2017/07/23 11:50:58.400   2773840.2809   1653188.7498   5481927.9835   2  17   0.3981   0.2902   0.7729   0.3028   0.3906   0.4878  -0.01    2.9
2017/07/23 11:50:58.600   2773840.2844   1653188.7538   5481927.9937   2  17   0.3954   0.2881   0.7680   0.3007   0.3881   0.4848  -0.01    2.9
2017/07/23 11:50:58.800   2773840.2834   1653188.7571   5481927.9861   2  17   0.3927   0.2861   0.7631   0.2987   0.3857   0.4818  -0.01    2.8
2017/07/23 11:50:59.000   2773840.2756   1653188.7548   5481927.9738   2  17   0.3901   0.2841   0.7583   0.2967   0.3834   0.4789  -0.01    2.8
2017/07/23 11:50:59.200   2773840.2625   1653188.7473   5481927.9563   2  17   0.3875   0.2821   0.7535   0.2947   0.3810   0.4759  -0.01    2.7
2017/07/23 11:50:59.400   2773840.2534   1653188.7427   5481927.9435   2  17   0.3849   0.2802   0.7488   0.2928   0.3787   0.4730  -0.01    2.7
2017/07/23 11:50:59.600   2773840.2460   1653188.7374   5481927.9249   2  17   0.3824   0.2783   0.7442   0.2909   0.3764   0.4702  -0.01    2.6
2017/07/23 11:50:59.800   2773840.2351   1653188.7292   5481927.9095   2  17   0.3799   0.2765   0.7396   0.2890   0.3741   0.4673  -0.01    2.6
2017/07/23 11:51:00.000   2773840.2231   1653188.7223   5481927.9039   2  17   0.3774   0.2746   0.7351   0.2872   0.3718   0.4645  -0.01    2.6
2017/07/23 11:51:00.200   2773840.2139   1653188.7182   5481927.8991   2  17   0.3750   0.2728   0.7306   0.2853   0.3697   0.4618  -0.01    2.6
2017/07/23 11:51:00.400   2773840.2066   1653188.7156   5481927.9003   2  17   0.3726   0.2710   0.7261   0.2835   0.3675   0.4590  -0.01    2.7
2017/07/23 11:51:00.600   2773840.2041   1653188.7154   5481927.9085   2  16   0.3702   0.2694   0.7218   0.2817   0.3652   0.4562  -0.01    2.7
2017/07/23 11:51:00.800   2773840.1895   1653188.7119   5481927.8822   2  16   0.3681   0.2678   0.7179   0.2802   0.3633   0.4539  -0.01    2.8
2017/07/23 11:51:01.000   2773840.1900   1653188.7169   5481927.8797   2  17   0.3658   0.2661   0.7136   0.2784   0.3612   0.4512  -0.01    2.8
2017/07/23 11:51:01.200   2773840.1928   1653188.7242   5481927.8766   2  17   0.3635   0.2644   0.7094   0.2767   0.3591   0.4485  -0.01    2.9
2017/07/23 11:51:01.400   2773840.1870   1653188.7263   5481927.8575   2  17   0.3613   0.2628   0.7052   0.2750   0.3570   0.4459  -0.01    2.9
2017/07/23 11:51:01.600   2773840.1868   1653188.7322   5481927.8503   2  17   0.3591   0.2612   0.7010   0.2733   0.3549   0.4433  -0.01    2.9
2017/07/23 11:51:01.800   2773840.1920   1653188.7423   5481927.8456   2  17   0.3569   0.2596   0.6970   0.2717   0.3529   0.4407  -0.01    2.9
2017/07/23 11:51:02.000   2773840.1916   1653188.7510   5481927.8276   2  17   0.3547   0.2580   0.6929   0.2700   0.3509   0.4382  -0.01    2.8
2017/07/23 11:51:02.200   2773840.1918   1653188.7569   5481927.8072   2  17   0.3526   0.2565   0.6889   0.2684   0.3489   0.4357  -0.01    2.8
2017/07/23 11:51:02.400   2773840.1976   1653188.7651   5481927.7995   2  17   0.3505   0.2549   0.6850   0.2668   0.3469   0.4332  -0.01    2.8
2017/07/23 11:51:02.600   2773840.2049   1653188.7740   5481927.7960   2  17   0.3484   0.2534   0.6811   0.2653   0.3449   0.4307  -0.01    2.8
2017/07/23 11:51:02.800   2773840.2009   1653188.7762   5481927.7737   2  16   0.3465   0.2521   0.6776   0.2639   0.3433   0.4286  -0.01    2.8
2017/07/23 11:51:03.000   2773840.2065   1653188.7835   5481927.7725   2  17   0.3445   0.2506   0.6738   0.2623   0.3413   0.4261  -0.01    2.8
2017/07/23 11:51:03.200   2773840.2042   1653188.7851   5481927.7593   2  17   0.3425   0.2492   0.6700   0.2608   0.3394   0.4237  -0.01    2.8
2017/07/23 11:51:03.400   2773840.2063   1653188.7903   5481927.7549   2  17   0.3405   0.2478   0.6663   0.2593   0.3376   0.4214  -0.01    2.8
2017/07/23 11:51:03.600   2773840.2043   1653188.7951   5481927.7437   2  17   0.3385   0.2464   0.6626   0.2579   0.3357   0.4190  -0.01    2.8
2017/07/23 11:51:03.800   2773840.2050   1653188.8016   5481927.7354   2  17   0.3366   0.2450   0.6590   0.2564   0.3339   0.4167  -0.01    2.8
2017/07/23 11:51:04.000   2773840.2012   1653188.8071   5481927.7159   2  17   0.3347   0.2436   0.6553   0.2550   0.3321   0.4144  -0.01    2.8
2017/07/23 11:51:04.200   2773840.2006   1653188.8145   5481927.7005   2  17   0.3328   0.2423   0.6518   0.2535   0.3303   0.4121  -0.01    2.7
2017/07/23 11:51:04.400   2773840.1959   1653188.8207   5481927.6728   2  17   0.3309   0.2410   0.6483   0.2521   0.3285   0.4098  -0.01    2.6
2017/07/23 11:51:04.600   2773840.2033   1653188.8322   5481927.6726   2  17   0.3291   0.2397   0.6448   0.2507   0.3267   0.4076  -0.01    2.6
2017/07/23 11:51:04.800   2773840.2006   1653188.8366   5481927.6575   2  17   0.3273   0.2384   0.6413   0.2494   0.3250   0.4054  -0.01    2.6
2017/07/23 11:51:05.000   2773840.2024   1653188.8429   5481927.6520   2  17   0.3255   0.2371   0.6379   0.2480   0.3233   0.4032  -0.01    2.7
2017/07/23 11:51:05.200   2773840.2233   1653188.8552   5481927.6691   2  16   0.3239   0.2359   0.6346   0.2467   0.3216   0.4012  -0.01    2.0
2017/07/23 11:51:05.400   2773840.2437   1653188.8671   5481927.6877   2  16   0.3224   0.2347   0.6314   0.2455   0.3200   0.3992  -0.01    2.1
2017/07/23 11:51:05.600   2773840.2438   1653188.8708   5481927.6846   2  17   0.3206   0.2335   0.6281   0.2442   0.3183   0.3971  -0.01    2.7
2017/07/23 11:51:05.800   2773840.8728   1653189.1001   5481928.8836   1  17   0.0090   0.0052   0.0160   0.0068   0.0090   0.0119  -0.01    3.1
2017/07/23 11:51:06.000   2773840.8737   1653189.1006   5481928.8849   1  17   0.0089   0.0051   0.0158   0.0067   0.0089   0.0118  -0.01    3.2
2017/07/23 11:51:06.200   2773840.8724   1653189.0999   5481928.8826   1  17   0.0088   0.0050   0.0156   0.0066   0.0087   0.0116  -0.01    3.1
2017/07/23 11:51:06.400   2773840.8724   1653189.1000   5481928.8827   1  17   0.0086   0.0050   0.0154   0.0065   0.0086   0.0114  -0.01    3.3
2017/07/23 11:51:06.600   2773840.2179   1653188.8467   5481927.6222   2  16   0.3013   0.2215   0.5809   0.2292   0.2968   0.3694  -0.01    2.2
2017/07/23 11:51:06.800   2773840.8682   1653189.0976   5481928.8758   1  17   0.0084   0.0049   0.0150   0.0063   0.0084   0.0111  -0.01    3.2
2017/07/23 11:51:07.000   2773840.8675   1653189.0972   5481928.8743   1  17   0.0083   0.0048   0.0148   0.0063   0.0083   0.0110  -0.01    3.1
2017/07/23 11:51:07.200   2773840.8674   1653189.0972   5481928.8736   1  17   0.0082   0.0047   0.0146   0.0062   0.0082   0.0109  -0.01    3.1
2017/07/23 11:51:07.400   2773840.0713   1653188.7533   5481927.4302   2  17   0.2886   0.2135   0.5512   0.2192   0.2830   0.3516  -0.01    2.9
2017/07/23 11:51:07.600   2773840.0388   1653188.7388   5481927.3967   2  16   0.2862   0.2119   0.5455   0.2173   0.2804   0.3483  -0.01    2.8
2017/07/23 11:51:07.800   2773840.0172   1653188.7246   5481927.3711   2  17   0.2834   0.2101   0.5391   0.2151   0.2773   0.3444  -0.01    2.9
2017/07/23 11:51:08.000   2773840.8721   1653189.1007   5481928.8811   1  17   0.0078   0.0045   0.0139   0.0059   0.0078   0.0104  -0.01    3.1
2017/07/23 11:51:08.200   2773840.8721   1653189.1009   5481928.8812   1  16   0.0077   0.0045   0.0138   0.0058   0.0077   0.0103  -0.01    3.3
2017/07/23 11:51:08.400   2773840.8718   1653189.1008   5481928.8808   1  16   0.0077   0.0044   0.0136   0.0058   0.0077   0.0101  -0.01    3.1
2017/07/23 11:51:08.600   2773839.9704   1653188.6869   5481927.3455   2  15   0.2733   0.2036   0.5159   0.2072   0.2662   0.3302  -0.01    1.9
2017/07/23 11:51:08.800   2773840.8719   1653189.1011   5481928.8808   1  17   0.0075   0.0043   0.0134   0.0056   0.0075   0.0099  -0.01    3.2
2017/07/23 11:51:09.000   2773840.8722   1653189.1013   5481928.8812   1  17   0.0074   0.0043   0.0132   0.0056   0.0074   0.0098  -0.01    3.3
2017/07/23 11:51:09.200   2773840.8721   1653189.1012   5481928.8810   1  17   0.0074   0.0042   0.0131   0.0055   0.0073   0.0097  -0.01    3.3
2017/07/23 11:51:09.400   2773840.8715   1653189.1009   5481928.8800   1  17   0.0073   0.0042   0.0130   0.0055   0.0073   0.0096  -0.01    3.3
2017/07/23 11:51:09.600   2773840.8717   1653189.1012   5481928.8806   1  17   0.0072   0.0042   0.0128   0.0054   0.0072   0.0095  -0.01    3.4
2017/07/23 11:51:09.800   2773840.8716   1653189.1012   5481928.8805   1  17   0.0071   0.0041   0.0127   0.0054   0.0071   0.0095  -0.01    3.4
2017/07/23 11:51:10.000   2773840.8705   1653189.1006   5481928.8784   1  16   0.0071   0.0041   0.0126   0.0053   0.0071   0.0094  -0.01    3.4
2017/07/23 11:51:10.200   2773840.8694   1653189.0999   5481928.8765   1  17   0.0070   0.0040   0.0125   0.0053   0.0070   0.0093  -0.01    3.3
2017/07/23 11:51:10.400   2773840.8693   1653189.1000   5481928.8765   1  17   0.0070   0.0040   0.0124   0.0052   0.0069   0.0092  -0.01    3.5
2017/07/23 11:51:10.600   2773840.8690   1653189.0998   5481928.8758   1  17   0.0069   0.0040   0.0123   0.0052   0.0069   0.0091  -0.01    3.7
2017/07/23 11:51:10.800   2773840.8685   1653189.0995   5481928.8750   1  17   0.0068   0.0039   0.0122   0.0051   0.0068   0.0090  -0.01    3.7
2017/07/23 11:51:11.000   2773840.8676   1653189.0989   5481928.8734   1  17   0.0068   0.0039   0.0121   0.0051   0.0068   0.0090  -0.01    3.8
2017/07/23 11:51:11.200   2773840.8667   1653189.0984   5481928.8720   1  17   0.0067   0.0039   0.0120   0.0051   0.0067   0.0089  -0.01    3.7
2017/07/23 11:51:11.400   2773840.8657   1653189.0978   5481928.8704   1  17   0.0067   0.0038   0.0119   0.0050   0.0067   0.0088  -0.01    3.6
2017/07/23 11:51:11.600   2773840.8651   1653189.0975   5481928.8694   1  17   0.0066   0.0038   0.0118   0.0050   0.0066   0.0088  -0.01    3.6
2017/07/23 11:51:11.800   2773840.8645   1653189.0972   5481928.8684   1  17   0.0066   0.0038   0.0117   0.0049   0.0066   0.0087  -0.01    3.6
2017/07/23 11:51:12.000   2773840.8641   1653189.0969   5481928.8677   1  17   0.0065   0.0038   0.0116   0.0049   0.0065   0.0086  -0.01    3.6
2017/07/23 11:51:12.200   2773840.8639   1653189.0969   5481928.8674   1  17   0.0065   0.0037   0.0115   0.0049   0.0065   0.0086  -0.01    3.5
2017/07/23 11:51:12.400   2773840.8633   1653189.0965   5481928.8666   1  17   0.0064   0.0037   0.0114   0.0048   0.0064   0.0085  -0.01    3.5
2017/07/23 11:51:12.600   2773840.1129   1653188.7592   5481927.8327   2  16   0.2353   0.1784   0.4334   0.1774   0.2259   0.2790  -0.01    1.9
2017/07/23 11:51:12.800   2773840.1113   1653188.7512   5481927.8354   2  15   0.2341   0.1775   0.4306   0.1764   0.2245   0.2774  -0.01    1.8
2017/07/23 11:51:13.000   2773840.1205   1653188.7495   5481927.8584   2  16   0.2327   0.1765   0.4274   0.1752   0.2229   0.2755  -0.01    1.8
2017/07/23 11:51:13.200   2773840.1296   1653188.7489   5481927.8675   2  16   0.2313   0.1755   0.4243   0.1741   0.2214   0.2736  -0.01    1.9
2017/07/23 11:51:13.400   2773840.1400   1653188.7490   5481927.8767   2  16   0.2299   0.1745   0.4213   0.1730   0.2199   0.2717  -0.01    2.0
2017/07/23 11:51:13.600   2773840.8615   1653189.0956   5481928.8634   1  17   0.0061   0.0035   0.0110   0.0046   0.0061   0.0081  -0.01    4.0
2017/07/23 11:51:13.800   2773840.8611   1653189.0953   5481928.8628   1  17   0.0061   0.0035   0.0109   0.0046   0.0061   0.0081  -0.01    4.0
2017/07/23 11:51:14.000   2773840.8607   1653189.0951   5481928.8623   1  17   0.0061   0.0035   0.0108   0.0046   0.0061   0.0080  -0.01    4.0
2017/07/23 11:51:14.200   2773840.8600   1653189.0946   5481928.8613   1  17   0.0060   0.0035   0.0107   0.0045   0.0060   0.0080  -0.01    4.0
2017/07/23 11:51:14.400   2773840.8593   1653189.0942   5481928.8604   1  17   0.0060   0.0034   0.0107   0.0045   0.0060   0.0079  -0.01    3.9
2017/07/23 11:51:14.600   2773840.8586   1653189.0937   5481928.8593   1  16   0.0059   0.0034   0.0106   0.0045   0.0059   0.0079  -0.01    3.8
2017/07/23 11:51:14.800   2773840.8580   1653189.0934   5481928.8586   1  16   0.0059   0.0034   0.0105   0.0044   0.0059   0.0078  -0.01    3.8
2017/07/23 11:51:15.000   2773840.8576   1653189.0931   5481928.8580   1  17   0.0059   0.0034   0.0105   0.0044   0.0059   0.0078  -0.01    3.8
2017/07/23 11:51:15.200   2773840.8575   1653189.0929   5481928.8579   1  17   0.0058   0.0034   0.0104   0.0044   0.0058   0.0077  -0.01    3.9
2017/07/23 11:51:15.400   2773840.8573   1653189.0928   5481928.8578   1  16   0.0058   0.0033   0.0103   0.0044   0.0058   0.0077  -0.01    4.1
2017/07/23 11:51:15.600   2773840.8569   1653189.0926   5481928.8572   1  16   0.0058   0.0033   0.0103   0.0043   0.0058   0.0076  -0.01    4.2
2017/07/23 11:51:15.800   2773840.8562   1653189.0922   5481928.8561   1  16   0.0057   0.0033   0.0102   0.0043   0.0057   0.0076  -0.01    4.5
2017/07/23 11:51:16.000   2773840.8558   1653189.0919   5481928.8554   1  16   0.0057   0.0033   0.0102   0.0043   0.0057   0.0075  -0.01    4.7
2017/07/23 11:51:16.200   2773840.8553   1653189.0916   5481928.8547   1  16   0.0057   0.0033   0.0101   0.0043   0.0057   0.0075  -0.01    5.0
2017/07/23 11:51:16.400   2773840.8549   1653189.0913   5481928.8540   1  16   0.0056   0.0032   0.0100   0.0042   0.0056   0.0074  -0.01    5.2
2017/07/23 11:51:16.600   2773840.8545   1653189.0911   5481928.8535   1  16   0.0056   0.0032   0.0100   0.0042   0.0056   0.0074  -0.01    5.3
2017/07/23 11:51:16.800   2773840.8538   1653189.0907   5481928.8524   1  16   0.0056   0.0032   0.0099   0.0042   0.0056   0.0074  -0.01    5.4
2017/07/23 11:51:17.000   2773840.8532   1653189.0903   5481928.8515   1  16   0.0055   0.0032   0.0099   0.0042   0.0055   0.0073  -0.01    5.4
2017/07/23 11:51:17.200   2773840.8527   1653189.0899   5481928.8507   1  16   0.0055   0.0032   0.0098   0.0041   0.0055   0.0073  -0.01    5.5
2017/07/23 11:51:17.400   2773840.8520   1653189.0894   5481928.8495   1  17   0.0055   0.0032   0.0098   0.0041   0.0055   0.0072  -0.01    5.5
2017/07/23 11:51:17.600   2773840.8513   1653189.0889   5481928.8483   1  17   0.0054   0.0031   0.0097   0.0041   0.0054   0.0072  -0.01    5.6
2017/07/23 11:51:17.800   2773840.8505   1653189.0885   5481928.8470   1  16   0.0054   0.0031   0.0097   0.0041   0.0054   0.0072  -0.01    5.6
2017/07/23 11:51:18.000   2773840.8500   1653189.0881   5481928.8462   1  17   0.0054   0.0031   0.0096   0.0040   0.0054   0.0071  -0.01    5.7
2017/07/23 11:51:18.200   2773840.8494   1653189.0877   5481928.8452   1  17   0.0053   0.0031   0.0096   0.0040   0.0054   0.0071  -0.01    5.8
2017/07/23 11:51:18.400   2773840.8486   1653189.0872   5481928.8439   1  16   0.0053   0.0031   0.0095   0.0040   0.0053   0.0071  -0.01    5.7
2017/07/23 11:51:18.600   2773840.8481   1653189.0869   5481928.8431   1  17   0.0053   0.0031   0.0095   0.0040   0.0053   0.0070  -0.01    5.7
2017/07/23 11:51:18.800   2773840.8478   1653189.0866   5481928.8426   1  17   0.0053   0.0030   0.0094   0.0040   0.0053   0.0070  -0.01    5.6
2017/07/23 11:51:19.000   2773840.8474   1653189.0864   5481928.8420   1  17   0.0052   0.0030   0.0094   0.0039   0.0052   0.0069  -0.01    5.5
2017/07/23 11:51:19.200   2773840.8470   1653189.0861   5481928.8415   1  17   0.0052   0.0030   0.0093   0.0039   0.0052   0.0069  -0.01    5.5
2017/07/23 11:51:19.400   2773840.8466   1653189.0859   5481928.8408   1  17   0.0052   0.0030   0.0093   0.0039   0.0052   0.0069  -0.01    5.6
2017/07/23 11:51:19.600   2773840.8464   1653189.0857   5481928.8404   1  17   0.0052   0.0030   0.0092   0.0039   0.0052   0.0068  -0.01    5.7
2017/07/23 11:51:19.800   2773840.8464   1653189.0857   5481928.8402   1  17   0.0051   0.0030   0.0092   0.0039   0.0051   0.0068  -0.01    5.8
2017/07/23 11:51:20.000   2773840.8464   1653189.0857   5481928.8403   1  17   0.0051   0.0030   0.0091   0.0038   0.0051   0.0068  -0.01    5.8
2017/07/23 11:51:20.200   2773840.8464   1653189.0858   5481928.8404   1  17   0.0051   0.0029   0.0091   0.0038   0.0051   0.0067  -0.01    6.0
2017/07/23 11:51:20.400   2773840.8463   1653189.0857   5481928.8401   1  17   0.0051   0.0029   0.0091   0.0038   0.0051   0.0067  -0.01    6.1
2017/07/23 11:51:20.600   2773840.8460   1653189.0855   5481928.8395   1  17   0.0050   0.0029   0.0090   0.0038   0.0051   0.0067  -0.01    6.2
2017/07/23 11:51:20.800   2773840.8459   1653189.0854   5481928.8393   1  17   0.0050   0.0029   0.0090   0.0038   0.0050   0.0067  -0.01    6.3
2017/07/23 11:51:21.000   2773840.8461   1653189.0855   5481928.8395   1  16   0.0050   0.0029   0.0089   0.0038   0.0050   0.0066  -0.01    6.5
2017/07/23 11:51:21.200   2773840.8460   1653189.0855   5481928.8394   1  16   0.0050   0.0029   0.0089   0.0037   0.0050   0.0066  -0.01    6.6
2017/07/23 11:51:21.400   2773840.8459   1653189.0854   5481928.8393   1  16   0.0049   0.0029   0.0088   0.0037   0.0050   0.0066  -0.01    6.8
2017/07/23 11:51:21.600   2773840.8461   1653189.0855   5481928.8395   1  16   0.0049   0.0028   0.0088   0.0037   0.0049   0.0065  -0.01    7.0
2017/07/23 11:51:21.800   2773840.8456   1653189.0852   5481928.8387   1  16   0.0049   0.0028   0.0088   0.0037   0.0049   0.0065  -0.01    7.1
2017/07/23 11:51:22.000   2773840.8452   1653189.0849   5481928.8380   1  16   0.0049   0.0028   0.0087   0.0037   0.0049   0.0065  -0.01    7.2
2017/07/23 11:51:22.200   2773840.8446   1653189.0845   5481928.8369   1  16   0.0049   0.0028   0.0087   0.0037   0.0049   0.0064  -0.01    7.1
2017/07/23 11:51:22.400   2773840.8439   1653189.0841   5481928.8357   1  16   0.0048   0.0028   0.0087   0.0036   0.0049   0.0064  -0.01    7.0
2017/07/23 11:51:22.600   2773840.8435   1653189.0838   5481928.8350   1  16   0.0048   0.0028   0.0086   0.0036   0.0048   0.0064  -0.01    6.8
2017/07/23 11:51:22.800   2773840.8430   1653189.0835   5481928.8342   1  16   0.0048   0.0028   0.0086   0.0036   0.0048   0.0064  -0.01    6.6
2017/07/23 11:51:23.000   2773840.8426   1653189.0832   5481928.8335   1  16   0.0048   0.0028   0.0086   0.0036   0.0048   0.0063  -0.01    6.4
2017/07/23 11:51:23.200   2773840.8424   1653189.0831   5481928.8330   1  16   0.0048   0.0028   0.0085   0.0036   0.0048   0.0063  -0.01    6.3
2017/07/23 11:51:23.400   2773840.8422   1653189.0830   5481928.8327   1  16   0.0047   0.0027   0.0085   0.0036   0.0048   0.0063  -0.01    6.2
2017/07/23 11:51:23.600   2773840.8420   1653189.0828   5481928.8322   1  17   0.0047   0.0027   0.0084   0.0036   0.0047   0.0063  -0.01    6.1
2017/07/23 11:51:23.800   2773840.8424   1653189.0830   5481928.8328   1  16   0.0047   0.0027   0.0084   0.0035   0.0047   0.0062  -0.01    6.1
2017/07/23 11:51:24.000   2773840.8427   1653189.0832   5481928.8332   1  17   0.0047   0.0027   0.0084   0.0035   0.0047   0.0062  -0.01    6.2
2017/07/23 11:51:24.200   2773840.8430   1653189.0834   5481928.8337   1  17   0.0047   0.0027   0.0083   0.0035   0.0047   0.0062  -0.01    6.1
2017/07/23 11:51:24.400   2773840.8432   1653189.0835   5481928.8338   1  16   0.0046   0.0027   0.0083   0.0035   0.0047   0.0062  -0.01    6.0
2017/07/23 11:51:24.600   2773840.8434   1653189.0836   5481928.8342   1  17   0.0046   0.0027   0.0083   0.0035   0.0046   0.0061  -0.01    5.9
2017/07/23 11:51:24.800   2773840.8433   1653189.0836   5481928.8341   1  17   0.0046   0.0027   0.0082   0.0035   0.0046   0.0061  -0.01    5.9
2017/07/23 11:51:25.000   2773840.8434   1653189.0836   5481928.8342   1  17   0.0046   0.0027   0.0082   0.0035   0.0046   0.0061  -0.01    5.9
2017/07/23 11:51:25.200   2773840.8434   1653189.0836   5481928.8343   1  17   0.0046   0.0026   0.0082   0.0034   0.0046   0.0061  -0.01    5.9
2017/07/23 11:51:25.400   2773840.8432   1653189.0834   5481928.8338   1  17   0.0046   0.0026   0.0082   0.0034   0.0046   0.0060  -0.01    6.0
2017/07/23 11:51:25.600   2773840.8428   1653189.0832   5481928.8332   1  17   0.0045   0.0026   0.0081   0.0034   0.0046   0.0060  -0.01    6.0
2017/07/23 11:51:25.800   2773840.8426   1653189.0831   5481928.8328   1  16   0.0045   0.0026   0.0081   0.0034   0.0045   0.0060  -0.01    6.0
2017/07/23 11:51:26.000   2773840.8424   1653189.0830   5481928.8325   1  17   0.0045   0.0026   0.0081   0.0034   0.0045   0.0060  -0.01    5.9
2017/07/23 11:51:26.200   2773840.8420   1653189.0827   5481928.8318   1  17   0.0045   0.0026   0.0080   0.0034   0.0045   0.0060  -0.01    6.0
2017/07/23 11:51:26.400   2773840.8415   1653189.0825   5481928.8310   1  17   0.0045   0.0026   0.0080   0.0034   0.0045   0.0059  -0.01    6.0
2017/07/23 11:51:26.600   2773840.8411   1653189.0822   5481928.8303   1  17   0.0045   0.0026   0.0080   0.0034   0.0045   0.0059  -0.01    6.1
2017/07/23 11:51:26.800   2773840.8408   1653189.0820   5481928.8297   1  17   0.0044   0.0026   0.0079   0.0033   0.0045   0.0059  -0.01    6.1
2017/07/23 11:51:27.000   2773840.8406   1653189.0819   5481928.8296   1  17   0.0044   0.0026   0.0079   0.0033   0.0044   0.0059  -0.01    6.2
2017/07/23 11:51:27.200   2773840.8405   1653189.0819   5481928.8295   1  17   0.0044   0.0025   0.0079   0.0033   0.0044   0.0059  -0.01    6.2
2017/07/23 11:51:27.400   2773840.8406   1653189.0819   5481928.8296   1  17   0.0044   0.0025   0.0079   0.0033   0.0044   0.0058  -0.01    6.3
2017/07/23 11:51:27.600   2773840.7548   1653189.0204   5481928.8089   2  16   0.1609   0.1264   0.2780   0.1184   0.1476   0.1819  -0.01    1.6
2017/07/23 11:51:27.800   2773840.7664   1653189.0254   5481928.8207   2  16   0.1603   0.1259   0.2766   0.1178   0.1469   0.1811  -0.01    1.6
2017/07/23 11:51:28.000   2773840.7688   1653189.0213   5481928.8216   2  15   0.1597   0.1255   0.2753   0.1173   0.1462   0.1803  -0.01    1.7
2017/07/23 11:51:28.200   2773840.7718   1653189.0191   5481928.8234   2  15   0.1590   0.1250   0.2739   0.1168   0.1455   0.1794  -0.01    1.8
2017/07/23 11:51:28.400   2773840.7750   1653189.0163   5481928.8219   2  15   0.1584   0.1245   0.2726   0.1163   0.1449   0.1786  -0.01    1.8
2017/07/23 11:51:28.600   2773840.7786   1653189.0144   5481928.8218   2  15   0.1578   0.1241   0.2712   0.1158   0.1442   0.1778  -0.01    1.9
2017/07/23 11:51:28.800   2773840.7805   1653189.0115   5481928.8234   2  15   0.1572   0.1236   0.2699   0.1153   0.1435   0.1770  -0.01    1.9
2017/07/23 11:51:29.000   2773840.7821   1653189.0077   5481928.8250   2  15   0.1566   0.1232   0.2686   0.1148   0.1428   0.1762  -0.01    2.0
2017/07/23 11:51:29.200   2773840.7856   1653189.0055   5481928.8253   2  15   0.1560   0.1227   0.2673   0.1143   0.1421   0.1754  -0.01    2.0
2017/07/23 11:51:29.400   2773840.7890   1653189.0018   5481928.8300   2  15   0.1554   0.1223   0.2660   0.1138   0.1415   0.1747  -0.01    2.1
2017/07/23 11:51:29.600   2773840.7916   1653188.9979   5481928.8305   2  15   0.1548   0.1218   0.2647   0.1133   0.1408   0.1739  -0.01    2.1
2017/07/23 11:51:29.800   2773840.7965   1653188.9954   5481928.8331   2  15   0.1543   0.1214   0.2634   0.1128   0.1402   0.1731  -0.01    2.2
2017/07/23 11:51:30.000   2773840.8415   1653189.0822   5481928.8311   1  17   0.0042   0.0024   0.0075   0.0032   0.0042   0.0056  -0.01    7.4
2017/07/23 11:51:30.200   2773840.8415   1653189.0821   5481928.8309   1  17   0.0042   0.0024   0.0075   0.0032   0.0042   0.0056  -0.01    7.4
2017/07/23 11:51:30.400   2773840.8415   1653189.0821   5481928.8310   1  16   0.0042   0.0024   0.0075   0.0031   0.0042   0.0055  -0.01    7.4
2017/07/23 11:51:30.600   2773840.8416   1653189.0822   5481928.8312   1  16   0.0042   0.0024   0.0075   0.0031   0.0042   0.0055  -0.01    7.5
2017/07/23 11:51:30.800   2773840.8416   1653189.0821   5481928.8312   1  16   0.0042   0.0024   0.0074   0.0031   0.0042   0.0055  -0.01    7.4
2017/07/23 11:51:31.000   2773840.8416   1653189.0821   5481928.8312   1  16   0.0041   0.0024   0.0074   0.0031   0.0042   0.0055  -0.01    7.4
2017/07/23 11:51:31.200   2773840.8104   1653188.9848   5481928.8621   2  15   0.1499   0.1182   0.2546   0.1093   0.1357   0.1677  -0.01    2.2
2017/07/23 11:51:31.400   2773840.8138   1653188.9817   5481928.8666   2  15   0.1494   0.1178   0.2534   0.1088   0.1351   0.1669  -0.01    2.2
2017/07/23 11:51:31.600   2773840.8201   1653188.9799   5481928.8742   2  15   0.1488   0.1174   0.2522   0.1083   0.1344   0.1662  -0.01    2.3
2017/07/23 11:51:31.800   2773840.8305   1653188.9807   5481928.8845   2  16   0.1483   0.1170   0.2510   0.1079   0.1338   0.1655  -0.01    2.3
2017/07/23 11:51:32.000   2773840.8387   1653188.9811   5481928.8920   2  16   0.1477   0.1165   0.2498   0.1074   0.1332   0.1648  -0.01    2.3
2017/07/23 11:51:32.200   2773840.8415   1653189.0819   5481928.8313   1  17   0.0041   0.0024   0.0073   0.0031   0.0041   0.0054  -0.01    6.9
2017/07/23 11:51:32.400   2773840.8415   1653189.0818   5481928.8312   1  17   0.0041   0.0023   0.0073   0.0031   0.0041   0.0054  -0.01    6.8
2017/07/23 11:51:32.600   2773840.8416   1653189.0819   5481928.8313   1  17   0.0040   0.0023   0.0072   0.0030   0.0041   0.0054  -0.01    6.7
2017/07/23 11:51:32.800   2773840.8414   1653189.0818   5481928.8311   1  17   0.0040   0.0023   0.0072   0.0030   0.0040   0.0053  -0.01    6.5
2017/07/23 11:51:33.000   2773840.8413   1653189.0817   5481928.8309   1  17   0.0040   0.0023   0.0072   0.0030   0.0040   0.0053  -0.01    6.3
2017/07/23 11:51:33.200   2773840.8413   1653189.0816   5481928.8309   1  17   0.0040   0.0023   0.0072   0.0030   0.0040   0.0053  -0.01    6.2
2017/07/23 11:51:33.400   2773840.8411   1653189.0815   5481928.8306   1  17   0.0040   0.0023   0.0072   0.0030   0.0040   0.0053  -0.01    6.0
2017/07/23 11:51:33.600   2773840.8408   1653189.0813   5481928.8301   1  17   0.0040   0.0023   0.0071   0.0030   0.0040   0.0053  -0.01    6.0
2017/07/23 11:51:33.800   2773840.8405   1653189.0811   5481928.8296   1  17   0.0040   0.0023   0.0071   0.0030   0.0040   0.0053  -0.01    6.0
2017/07/23 11:51:34.000   2773840.8402   1653189.0809   5481928.8292   1  17   0.0040   0.0023   0.0071   0.0030   0.0040   0.0053  -0.01    6.0
2017/07/23 11:51:34.200   2773840.8399   1653189.0807   5481928.8286   1  17   0.0039   0.0023   0.0071   0.0030   0.0040   0.0052  -0.01    5.9
2017/07/23 11:51:34.400   2773840.8395   1653189.0805   5481928.8281   1  17   0.0039   0.0023   0.0071   0.0030   0.0040   0.0052  -0.01    5.9
2017/07/23 11:51:34.600   2773840.8392   1653189.0803   5481928.8275   1  17   0.0039   0.0023   0.0070   0.0030   0.0039   0.0052  -0.01    6.0
2017/07/23 11:51:34.800   2773840.8388   1653189.0800   5481928.8269   1  17   0.0039   0.0023   0.0070   0.0029   0.0039   0.0052  -0.01    6.0
2017/07/23 11:51:35.000   2773840.8385   1653189.0798   5481928.8264   1  17   0.0039   0.0023   0.0070   0.0029   0.0039   0.0052  -0.01    6.0
2017/07/23 11:51:35.200   2773840.8382   1653189.0796   5481928.8258   1  17   0.0039   0.0023   0.0070   0.0029   0.0039   0.0052  -0.01    6.0
2017/07/23 11:51:35.400   2773840.8379   1653189.0794   5481928.8254   1  17   0.0039   0.0022   0.0070   0.0029   0.0039   0.0052  -0.01    6.0
2017/07/23 11:51:35.600   2773840.8377   1653189.0793   5481928.8251   1  17   0.0039   0.0022   0.0069   0.0029   0.0039   0.0051  -0.01    6.0
2017/07/23 11:51:35.800   2773840.8376   1653189.0792   5481928.8249   1  17   0.0039   0.0022   0.0069   0.0029   0.0039   0.0051  -0.01    6.0
2017/07/23 11:51:36.000   2773840.8376   1653189.0792   5481928.8250   1  17   0.0039   0.0022   0.0069   0.0029   0.0039   0.0051  -0.01    6.0
2017/07/23 11:51:36.200   2773840.8375   1653189.0791   5481928.8248   1  17   0.0038   0.0022   0.0069   0.0029   0.0039   0.0051  -0.01    6.0
2017/07/23 11:51:36.400   2773840.8374   1653189.0790   5481928.8247   1  17   0.0038   0.0022   0.0069   0.0029   0.0038   0.0051  -0.01    5.9
2017/07/23 11:51:36.600   2773840.8375   1653189.0790   5481928.8247   1  17   0.0038   0.0022   0.0068   0.0029   0.0038   0.0051  -0.01    5.9
2017/07/23 11:51:36.800   2773840.8374   1653189.0790   5481928.8247   1  17   0.0038   0.0022   0.0068   0.0029   0.0038   0.0051  -0.01    5.9
2017/07/23 11:51:37.000   2773840.8375   1653189.0790   5481928.8248   1  17   0.0038   0.0022   0.0068   0.0029   0.0038   0.0050  -0.01    5.8
2017/07/23 11:51:37.200   2773840.8375   1653189.0790   5481928.8248   1  17   0.0038   0.0022   0.0068   0.0029   0.0038   0.0050  -0.01    5.7
2017/07/23 11:51:37.400   2773840.8375   1653189.0789   5481928.8248   1  17   0.0038   0.0022   0.0068   0.0028   0.0038   0.0050  -0.01    5.6
2017/07/23 11:51:37.600   2773840.8375   1653189.0789   5481928.8248   1  17   0.0038   0.0022   0.0068   0.0028   0.0038   0.0050  -0.01    5.6
2017/07/23 11:51:37.800   2773840.8376   1653189.0790   5481928.8250   1  17   0.0038   0.0022   0.0067   0.0028   0.0038   0.0050  -0.01    5.5
2017/07/23 11:51:38.000   2773840.8375   1653189.0789   5481928.8248   1  17   0.0038   0.0022   0.0067   0.0028   0.0038   0.0050  -0.01    5.3
2017/07/23 11:51:38.200   2773840.8376   1653189.0789   5481928.8249   1  17   0.0037   0.0022   0.0067   0.0028   0.0038   0.0050  -0.01    5.2
2017/07/23 11:51:38.400   2773840.8374   1653189.0788   5481928.8247   1  17   0.0037   0.0022   0.0067   0.0028   0.0037   0.0050  -0.01    5.1
2017/07/23 11:51:38.600   2773840.8373   1653189.0788   5481928.8245   1  17   0.0037   0.0022   0.0067   0.0028   0.0037   0.0049  -0.01    4.9
2017/07/23 11:51:38.800   2773840.8373   1653189.0787   5481928.8244   1  16   0.0037   0.0022   0.0067   0.0028   0.0037   0.0049  -0.01    4.8
2017/07/23 11:51:39.000   2773840.8371   1653189.0786   5481928.8242   1  16   0.0037   0.0021   0.0066   0.0028   0.0037   0.0049  -0.01    4.6
2017/07/23 11:51:39.200   2773840.8371   1653189.0786   5481928.8242   1  16   0.0037   0.0021   0.0066   0.0028   0.0037   0.0049  -0.01    4.5
2017/07/23 11:51:39.400   2773840.8369   1653189.0785   5481928.8239   1  16   0.0037   0.0021   0.0066   0.0028   0.0037   0.0049  -0.01    4.4
2017/07/23 11:51:39.600   2773840.8367   1653189.0783   5481928.8236   1  16   0.0037   0.0021   0.0066   0.0028   0.0037   0.0049  -0.01    4.2
2017/07/23 11:51:39.800   2773840.8366   1653189.0782   5481928.8233   1  16   0.0037   0.0021   0.0066   0.0028   0.0037   0.0049  -0.01    4.2
2017/07/23 11:51:40.000   2773841.2115   1653189.1839   5481929.4754   2  15   0.1267   0.1011   0.2082   0.0902   0.1118   0.1389  -0.01    1.3
2017/07/23 11:51:40.200   2773840.8366   1653189.0782   5481928.8236   1  16   0.0037   0.0021   0.0065   0.0028   0.0037   0.0048  -0.01    4.1
2017/07/23 11:51:40.400   2773840.8365   1653189.0781   5481928.8234   1  16   0.0036   0.0021   0.0065   0.0027   0.0037   0.0048  -0.01    4.0
2017/07/23 11:51:40.600   2773841.2306   1653189.1897   5481929.4968   2  15   0.1254   0.1001   0.2055   0.0891   0.1104   0.1372  -0.01    1.2
2017/07/23 11:51:40.800   2773840.8362   1653189.0779   5481928.8231   1  17   0.0036   0.0021   0.0065   0.0027   0.0036   0.0048  -0.01    3.9
2017/07/23 11:51:41.000   2773840.8361   1653189.0778   5481928.8230   1  17   0.0036   0.0021   0.0065   0.0027   0.0036   0.0048  -0.01    3.8
2017/07/23 11:51:41.200   2773840.8361   1653189.0778   5481928.8230   1  17   0.0036   0.0021   0.0065   0.0027   0.0036   0.0048  -0.01    3.8
2017/07/23 11:51:41.400   2773840.8361   1653189.0778   5481928.8231   1  17   0.0036   0.0021   0.0065   0.0027   0.0036   0.0048  -0.01    3.8
2017/07/23 11:51:41.600   2773840.8363   1653189.0779   5481928.8234   1  17   0.0036   0.0021   0.0064   0.0027   0.0036   0.0048  -0.01    3.8
2017/07/23 11:51:41.800   2773840.8366   1653189.0781   5481928.8238   1  17   0.0036   0.0021   0.0064   0.0027   0.0036   0.0048  -0.01    3.9
2017/07/23 11:51:42.000   2773840.8367   1653189.0782   5481928.8240   1  16   0.0036   0.0021   0.0064   0.0027   0.0036   0.0047  -0.01    3.9
2017/07/23 11:51:42.200   2773840.8368   1653189.0782   5481928.8242   1  16   0.0036   0.0021   0.0064   0.0027   0.0036   0.0047  -0.01    3.9
2017/07/23 11:51:42.400   2773840.8368   1653189.0782   5481928.8243   1  17   0.0036   0.0021   0.0064   0.0027   0.0036   0.0047  -0.01    3.9
2017/07/23 11:51:42.600   2773840.8368   1653189.0782   5481928.8243   1  17   0.0036   0.0021   0.0064   0.0027   0.0036   0.0047  -0.01    3.9
2017/07/23 11:51:42.800   2773840.8367   1653189.0782   5481928.8242   1  17   0.0035   0.0021   0.0063   0.0027   0.0036   0.0047  -0.01    3.9
2017/07/23 11:51:43.000   2773841.2347   1653189.1679   5481929.5370   2  16   0.1201   0.0962   0.1952   0.0847   0.1050   0.1308  -0.01    1.1
2017/07/23 11:51:43.200   2773840.8365   1653189.0781   5481928.8241   1  17   0.0035   0.0020   0.0063   0.0027   0.0035   0.0047  -0.01    3.7
2017/07/23 11:51:43.400   2773840.8365   1653189.0781   5481928.8242   1  17   0.0035   0.0020   0.0063   0.0027   0.0035   0.0047  -0.01    3.6
2017/07/23 11:51:43.600   2773840.8364   1653189.0780   5481928.8241   1  16   0.0035   0.0020   0.0063   0.0026   0.0035   0.0047  -0.01    3.5
2017/07/23 11:51:43.800   2773840.8363   1653189.0779   5481928.8240   1  16   0.0035   0.0020   0.0063   0.0026   0.0035   0.0047  -0.01    3.5
2017/07/23 11:51:44.000   2773840.8361   1653189.0778   5481928.8238   1  15   0.0035   0.0020   0.0063   0.0026   0.0035   0.0046  -0.01    3.4
2017/07/23 11:51:44.200   2773840.8362   1653189.0778   5481928.8239   1  17   0.0035   0.0020   0.0063   0.0026   0.0035   0.0046  -0.01    3.3
2017/07/23 11:51:44.400   2773840.8361   1653189.0778   5481928.8238   1  17   0.0035   0.0020   0.0062   0.0026   0.0035   0.0046  -0.01    3.3
2017/07/23 11:51:44.600   2773840.8360   1653189.0777   5481928.8236   1  15   0.0035   0.0020   0.0062   0.0026   0.0035   0.0046  -0.01    3.2
2017/07/23 11:51:44.800   2773840.8360   1653189.0778   5481928.8237   1  15   0.0035   0.0020   0.0062   0.0026   0.0035   0.0046  -0.01    3.2
2017/07/23 11:51:45.000   2773840.8360   1653189.0777   5481928.8236   1  15   0.0035   0.0020   0.0062   0.0026   0.0035   0.0046  -0.01    3.2
2017/07/23 11:51:45.200   2773840.8359   1653189.0777   5481928.8235   1  16   0.0035   0.0020   0.0062   0.0026   0.0035   0.0046  -0.01    3.2
2017/07/23 11:51:45.400   2773840.8357   1653189.0776   5481928.8233   1  17   0.0034   0.0020   0.0062   0.0026   0.0035   0.0046  -0.01    3.1
2017/07/23 11:51:45.600   2773840.8357   1653189.0776   5481928.8233   1  16   0.0034   0.0020   0.0062   0.0026   0.0035   0.0046  -0.01    3.2
2017/07/23 11:51:45.800   2773840.8356   1653189.0775   5481928.8232   1  17   0.0034   0.0020   0.0061   0.0026   0.0034   0.0046  -0.01    3.1
2017/07/23 11:51:46.000   2773840.8355   1653189.0774   5481928.8230   1  17   0.0034   0.0020   0.0061   0.0026   0.0034   0.0045  -0.01    3.1
2017/07/23 11:51:46.200   2773840.8356   1653189.0775   5481928.8231   1  17   0.0034   0.0020   0.0061   0.0026   0.0034   0.0045  -0.01    3.1
2017/07/23 11:51:46.400   2773840.8357   1653189.0775   5481928.8233   1  16   0.0034   0.0020   0.0061   0.0026   0.0034   0.0045  -0.01    3.1
2017/07/23 11:51:46.600   2773840.8357   1653189.0775   5481928.8234   1  17   0.0034   0.0020   0.0061   0.0026   0.0034   0.0045  -0.01    3.1
2017/07/23 11:51:46.800   2773840.8356   1653189.0775   5481928.8233   1  17   0.0034   0.0020   0.0061   0.0026   0.0034   0.0045  -0.01    3.1
2017/07/23 11:51:47.000   2773840.8356   1653189.0774   5481928.8232   1  16   0.0034   0.0020   0.0061   0.0026   0.0034   0.0045  -0.01    3.0
2017/07/23 11:51:47.200   2773841.3069   1653189.1989   5481929.7628   2  17   0.1121   0.0902   0.1799   0.0782   0.0971   0.1214  -0.01    3.0
2017/07/23 11:51:47.400   2773841.3088   1653189.1998   5481929.7707   2  16   0.1118   0.0900   0.1792   0.0780   0.0968   0.1210  -0.01    3.0
2017/07/23 11:51:47.600   2773841.3060   1653189.1967   5481929.7774   2  16   0.1114   0.0897   0.1786   0.0777   0.0964   0.1206  -0.01    2.9
2017/07/23 11:51:47.800   2773841.3058   1653189.1959   5481929.7848   2  16   0.1111   0.0894   0.1779   0.0774   0.0961   0.1202  -0.01    2.9
2017/07/23 11:51:48.000   2773841.3017   1653189.1928   5481929.7899   2  15   0.1107   0.0892   0.1772   0.0771   0.0957   0.1198  -0.01    2.9
2017/07/23 11:51:48.200   2773841.3004   1653189.1926   5481929.7998   2  16   0.1104   0.0889   0.1766   0.0768   0.0954   0.1193  -0.01    2.8
2017/07/23 11:51:48.400   2773841.2963   1653189.1898   5481929.8079   2  16   0.1100   0.0886   0.1759   0.0765   0.0951   0.1189  -0.01    2.7
2017/07/23 11:51:48.600   2773841.2910   1653189.1856   5481929.8138   2  16   0.1097   0.0884   0.1752   0.0762   0.0947   0.1185  -0.01    2.6
2017/07/23 11:51:48.800   2773841.2882   1653189.1837   5481929.8128   2  17   0.1093   0.0881   0.1746   0.0760   0.0944   0.1181  -0.01    2.6
2017/07/23 11:51:49.000   2773841.2863   1653189.1824   5481929.8181   2  17   0.1090   0.0879   0.1739   0.0757   0.0940   0.1177  -0.01    2.6
2017/07/23 11:51:49.200   2773841.2829   1653189.1794   5481929.8185   2  17   0.1086   0.0876   0.1733   0.0754   0.0937   0.1173  -0.01    2.5
2017/07/23 11:51:49.400   2773841.2773   1653189.1750   5481929.8234   2  17   0.1083   0.0873   0.1726   0.0751   0.0934   0.1169  -0.01    2.5
2017/07/23 11:51:49.600   2773841.2718   1653189.1702   5481929.8268   2  17   0.1079   0.0871   0.1720   0.0748   0.0930   0.1165  -0.01    2.4
2017/07/23 11:51:49.800   2773841.2686   1653189.1682   5481929.8280   2  16   0.1076   0.0868   0.1713   0.0746   0.0927   0.1161  -0.01    2.4
2017/07/23 11:51:50.000   2773841.2730   1653189.1710   5481929.8377   2  16   0.1073   0.0866   0.1707   0.0743   0.0924   0.1157  -0.01    2.4
2017/07/23 11:51:50.200   2773841.2730   1653189.1709   5481929.8407   2  16   0.1069   0.0863   0.1701   0.0740   0.0921   0.1153  -0.01    2.3
2017/07/23 11:51:50.400   2773841.2737   1653189.1710   5481929.8440   2  17   0.1066   0.0861   0.1694   0.0737   0.0917   0.1149  -0.01    2.3
2017/07/23 11:51:50.600   2773841.2777   1653189.1731   5481929.8556   2  17   0.1062   0.0858   0.1688   0.0735   0.0914   0.1146  -0.01    2.2
2017/07/23 11:51:50.800   2773841.2786   1653189.1748   5481929.8659   2  17   0.1059   0.0856   0.1682   0.0732   0.0911   0.1142  -0.01    2.2
2017/07/23 11:51:51.000   2773841.2757   1653189.1747   5481929.8694   2  16   0.1056   0.0853   0.1676   0.0729   0.0908   0.1138  -0.01    2.2
2017/07/23 11:51:51.200   2773841.2759   1653189.1751   5481929.8731   2  17   0.1053   0.0851   0.1670   0.0727   0.0904   0.1134  -0.01    2.1
2017/07/23 11:51:51.400   2773841.2686   1653189.1713   5481929.8737   2  17   0.1049   0.0848   0.1663   0.0724   0.0901   0.1130  -0.01    2.1
2017/07/23 11:51:51.600   2773841.2679   1653189.1730   5481929.8777   2  17   0.1046   0.0846   0.1657   0.0721   0.0898   0.1126  -0.01    2.1
2017/07/23 11:51:51.800   2773841.2640   1653189.1714   5481929.8820   2  17   0.1043   0.0844   0.1651   0.0718   0.0895   0.1123  -0.01    2.0
2017/07/23 11:51:52.000   2773841.2656   1653189.1750   5481929.8925   2  17   0.1039   0.0841   0.1645   0.0716   0.0892   0.1119  -0.01    2.0
2017/07/23 11:51:52.200   2773841.2697   1653189.1778   5481929.9087   2  17   0.1036   0.0839   0.1639   0.0713   0.0889   0.1115  -0.01    1.9
2017/07/23 11:51:52.400   2773841.2711   1653189.1789   5481929.9198   2  17   0.1033   0.0836   0.1633   0.0711   0.0885   0.1111  -0.01    1.9
2017/07/23 11:51:52.600   2773841.2685   1653189.1768   5481929.9247   2  17   0.1030   0.0834   0.1627   0.0708   0.0882   0.1108  -0.01    1.9
2017/07/23 11:51:52.800   2773841.2704   1653189.1775   5481929.9340   2  17   0.1027   0.0832   0.1621   0.0705   0.0879   0.1104  -0.01    1.8
2017/07/23 11:51:53.000   2773841.2730   1653189.1791   5481929.9433   2  17   0.1023   0.0829   0.1615   0.0703   0.0876   0.1100  -0.01    1.8
2017/07/23 11:51:53.200   2773841.2775   1653189.1832   5481929.9564   2  17   0.1020   0.0827   0.1610   0.0700   0.0873   0.1096  -0.01    1.8
2017/07/23 11:51:53.400   2773841.2792   1653189.1844   5481929.9678   2  17   0.1017   0.0824   0.1604   0.0698   0.0870   0.1093  -0.01    1.8
2017/07/23 11:51:53.600   2773841.2824   1653189.1865   5481929.9814   2  16   0.1014   0.0822   0.1598   0.0695   0.0867   0.1089  -0.01    1.7
2017/07/23 11:51:53.800   2773841.2870   1653189.1896   5481929.9956   2  16   0.1011   0.0820   0.1592   0.0693   0.0864   0.1086  -0.01    1.7
2017/07/23 11:51:54.000   2773841.2918   1653189.1911   5481930.0046   2  17   0.1008   0.0818   0.1586   0.0690   0.0861   0.1082  -0.01    1.7
2017/07/23 11:51:54.200   2773841.2964   1653189.1933   5481930.0138   2  17   0.1005   0.0815   0.1581   0.0688   0.0858   0.1078  -0.01    1.7
2017/07/23 11:51:54.400   2773841.3004   1653189.1956   5481930.0231   2  17   0.1002   0.0813   0.1575   0.0685   0.0855   0.1075  -0.01    1.6
2017/07/23 11:51:54.600   2773841.3023   1653189.1965   5481930.0322   2  16   0.0999   0.0811   0.1569   0.0683   0.0852   0.1071  -0.01    1.6
2017/07/23 11:51:54.800   2773841.3039   1653189.1967   5481930.0374   2  16   0.0996   0.0808   0.1564   0.0680   0.0849   0.1068  -0.01    1.6
2017/07/23 11:51:55.000   2773841.3079   1653189.1990   5481930.0460   2  16   0.0993   0.0806   0.1558   0.0678   0.0846   0.1064  -0.01    1.6
2017/07/23 11:51:55.200   2773841.3146   1653189.2041   5481930.0557   2  16   0.0990   0.0804   0.1553   0.0675   0.0843   0.1061  -0.01    1.6
2017/07/23 11:51:55.400   2773841.3236   1653189.2107   5481930.0691   2  16   0.0987   0.0802   0.1547   0.0673   0.0841   0.1057  -0.01    1.6
2017/07/23 11:51:55.600   2773841.3297   1653189.2154   5481930.0757   2  16   0.0984   0.0800   0.1542   0.0670   0.0838   0.1054  -0.01    1.6
2017/07/23 11:51:55.800   2773841.3341   1653189.2196   5481930.0850   2  16   0.0981   0.0797   0.1536   0.0668   0.0835   0.1050  -0.01    1.5
2017/07/23 11:51:56.000   2773841.3363   1653189.2217   5481930.0910   2  17   0.0978   0.0795   0.1531   0.0666   0.0832   0.1047  -0.01    1.5
2017/07/23 11:51:56.200   2773841.3380   1653189.2235   5481930.0954   2  16   0.0975   0.0793   0.1525   0.0663   0.0829   0.1044  -0.01    1.5
2017/07/23 11:51:56.400   2773841.3421   1653189.2260   5481930.1058   2  16   0.0972   0.0791   0.1520   0.0661   0.0826   0.1040  -0.01    1.5
2017/07/23 11:51:56.600   2773841.3464   1653189.2280   5481930.1161   2  16   0.0969   0.0789   0.1514   0.0658   0.0823   0.1037  -0.01    1.5
2017/07/23 11:51:56.800   2773841.3516   1653189.2316   5481930.1295   2  17   0.0966   0.0787   0.1509   0.0656   0.0821   0.1033  -0.01    1.4
2017/07/23 11:51:57.000   2773841.3565   1653189.2338   5481930.1381   2  16   0.0963   0.0784   0.1504   0.0654   0.0818   0.1030  -0.01    1.4
2017/07/23 11:51:57.200   2773841.3633   1653189.2380   5481930.1519   2  17   0.0960   0.0782   0.1498   0.0651   0.0815   0.1027  -0.01    1.4
2017/07/23 11:51:57.400   2773841.3704   1653189.2434   5481930.1606   2  17   0.0957   0.0780   0.1493   0.0649   0.0812   0.1023  -0.01    1.4
2017/07/23 11:51:57.600   2773841.3769   1653189.2474   5481930.1687   2  17   0.0954   0.0778   0.1488   0.0647   0.0809   0.1020  -0.01    1.4
2017/07/23 11:51:57.800   2773841.3807   1653189.2502   5481930.1782   2  17   0.0952   0.0776   0.1483   0.0644   0.0807   0.1017  -0.01    1.4
2017/07/23 11:51:58.000   2773841.3805   1653189.2504   5481930.1816   2  17   0.0949   0.0774   0.1477   0.0642   0.0804   0.1013  -0.01    1.4
2017/07/23 11:51:58.200   2773841.3784   1653189.2498   5481930.1819   2  16   0.0946   0.0772   0.1472   0.0640   0.0801   0.1010  -0.01    1.3
2017/07/23 11:51:58.400   2773841.3828   1653189.2538   5481930.1851   2  16   0.0943   0.0770   0.1467   0.0637   0.0799   0.1007  -0.01    1.3
2017/07/23 11:51:58.600   2773841.3746   1653189.2491   5481930.1764   2  17   0.0940   0.0767   0.1462   0.0635   0.0796   0.1004  -0.01    1.3
2017/07/23 11:51:58.800   2773841.3745   1653189.2502   5481930.1730   2  17   0.0938   0.0765   0.1457   0.0633   0.0793   0.1000  -0.01    1.3
2017/07/23 11:51:59.000   2773841.3795   1653189.2553   5481930.1787   2  17   0.0935   0.0763   0.1452   0.0631   0.0790   0.0997  -0.01    1.3
2017/07/23 11:51:59.200   2773841.3833   1653189.2595   5481930.1900   2  17   0.0932   0.0761   0.1447   0.0628   0.0788   0.0994  -0.01    1.3
2017/07/23 11:51:59.400   2773841.3920   1653189.2685   5481930.1993   2  16   0.0929   0.0759   0.1442   0.0626   0.0785   0.0991  -0.01    1.3
2017/07/23 11:51:59.600   2773841.3953   1653189.2733   5481930.2054   2  16   0.0926   0.0757   0.1437   0.0624   0.0783   0.0988  -0.01    1.3
2017/07/23 11:51:59.800   2773841.3999   1653189.2772   5481930.2146   2  17   0.0924   0.0755   0.1432   0.0622   0.0780   0.0984  -0.01    1.3
2017/07/23 11:52:00.000   2773841.3994   1653189.2787   5481930.2150   2  16   0.0921   0.0753   0.1427   0.0619   0.0777   0.0981  -0.01    1.3
2017/07/23 11:52:00.200   2773841.4004   1653189.2814   5481930.2206   2  16   0.0918   0.0751   0.1422   0.0617   0.0775   0.0978  -0.01    1.3
2017/07/23 11:52:00.400   2773841.4024   1653189.2848   5481930.2286   2  17   0.0916   0.0749   0.1417   0.0615   0.0772   0.0975  -0.01    1.3
2017/07/23 11:52:00.600   2773841.4060   1653189.2914   5481930.2359   2  17   0.0913   0.0747   0.1412   0.0613   0.0769   0.0972  -0.01    1.3
2017/07/23 11:52:00.800   2773841.4085   1653189.2963   5481930.2446   2  16   0.0910   0.0745   0.1407   0.0610   0.0767   0.0969  -0.01    1.3
2017/07/23 11:52:01.000   2773841.4089   1653189.2999   5481930.2511   2  16   0.0908   0.0743   0.1403   0.0608   0.0764   0.0966  -0.01    1.3
2017/07/23 11:52:01.200   2773841.4067   1653189.3013   5481930.2526   2  16   0.0905   0.0741   0.1398   0.0606   0.0762   0.0963  -0.01    1.3
2017/07/23 11:52:01.400   2773841.4059   1653189.3038   5481930.2541   2  16   0.0902   0.0739   0.1393   0.0604   0.0759   0.0960  -0.01    1.3
2017/07/23 11:52:01.600   2773841.4100   1653189.3070   5481930.2612   2  16   0.0900   0.0737   0.1388   0.0602   0.0757   0.0957  -0.01    1.3
2017/07/23 11:52:01.800   2773841.4110   1653189.3083   5481930.2686   2  16   0.0897   0.0735   0.1384   0.0600   0.0754   0.0954  -0.01    1.3
2017/07/23 11:52:02.000   2773841.4124   1653189.3102   5481930.2777   2  16   0.0894   0.0733   0.1379   0.0597   0.0752   0.0951  -0.01    1.2
2017/07/23 11:52:02.200   2773841.4123   1653189.3104   5481930.2837   2  16   0.0892   0.0731   0.1374   0.0595   0.0749   0.0948  -0.01    1.2
2017/07/23 11:52:02.400   2773841.4141   1653189.3117   5481930.2857   2  15   0.0889   0.0730   0.1370   0.0593   0.0747   0.0945  -0.01    1.2
2017/07/23 11:52:02.600   2773841.4177   1653189.3147   5481930.2896   2  16   0.0887   0.0728   0.1365   0.0591   0.0744   0.0942  -0.01    1.2
2017/07/23 11:52:02.800   2773841.4155   1653189.3148   5481930.2793   2  16   0.0884   0.0726   0.1360   0.0589   0.0742   0.0939  -0.01    1.2
2017/07/23 11:52:03.000   2773841.4156   1653189.3164   5481930.2775   2  15   0.0882   0.0724   0.1356   0.0587   0.0739   0.0936  -0.01    1.2
2017/07/23 11:52:03.200   2773841.4167   1653189.3170   5481930.2792   2  17   0.0879   0.0722   0.1351   0.0585   0.0737   0.0933  -0.01    1.2
2017/07/23 11:52:03.400   2773841.4156   1653189.3165   5481930.2758   2  17   0.0877   0.0720   0.1347   0.0583   0.0735   0.0930  -0.01    1.2
2017/07/23 11:52:03.600   2773841.4169   1653189.3179   5481930.2745   2  17   0.0874   0.0718   0.1342   0.0581   0.0732   0.0927  -0.01    1.2
2017/07/23 11:52:03.800   2773841.4133   1653189.3168   5481930.2678   2  17   0.0871   0.0716   0.1338   0.0579   0.0730   0.0924  -0.01    1.3
2017/07/23 11:52:04.000   2773841.4028   1653189.3113   5481930.2556   2  17   0.0869   0.0714   0.1333   0.0577   0.0727   0.0922  -0.01    1.2
2017/07/23 11:52:04.200   2773841.3968   1653189.3105   5481930.2578   2  17   0.0867   0.0713   0.1329   0.0575   0.0725   0.0919  -0.01    1.2
2017/07/23 11:52:04.400   2773841.3956   1653189.3126   5481930.2611   2  17   0.0864   0.0711   0.1324   0.0573   0.0723   0.0916  -0.01    1.2
2017/07/23 11:52:04.600   2773841.3927   1653189.3124   5481930.2616   2  17   0.0862   0.0709   0.1320   0.0571   0.0720   0.0913  -0.01    1.2
2017/07/23 11:52:04.800   2773841.3920   1653189.3131   5481930.2623   2  17   0.0859   0.0707   0.1316   0.0569   0.0718   0.0910  -0.01    1.2
2017/07/23 11:52:05.000   2773841.3889   1653189.3117   5481930.2575   2  16   0.0857   0.0705   0.1311   0.0567   0.0716   0.0907  -0.01    1.2
2017/07/23 11:52:05.200   2773841.3818   1653189.3082   5481930.2543   2  16   0.0854   0.0703   0.1307   0.0565   0.0713   0.0905  -0.01    1.2
2017/07/23 11:52:05.400   2773841.3759   1653189.3051   5481930.2477   2  16   0.0852   0.0702   0.1302   0.0563   0.0711   0.0902  -0.01    1.2
2017/07/23 11:52:05.600   2773841.3744   1653189.3037   5481930.2470   2  15   0.0850   0.0700   0.1299   0.0561   0.0709   0.0900  -0.01    1.2
2017/07/23 11:52:05.800   2773841.3690   1653189.3000   5481930.2453   2  16   0.0848   0.0698   0.1295   0.0559   0.0707   0.0897  -0.01    1.2
2017/07/23 11:52:06.000   2773841.3690   1653189.3010   5481930.2484   2  16   0.0846   0.0697   0.1292   0.0558   0.0706   0.0895  -0.01    1.2
2017/07/23 11:52:06.200   2773841.3684   1653189.3012   5481930.2541   2  16   0.0844   0.0695   0.1289   0.0556   0.0704   0.0894  -0.01    1.2
2017/07/23 11:52:06.400   2773841.3703   1653189.3039   5481930.2574   2  17   0.0841   0.0693   0.1285   0.0554   0.0702   0.0891  -0.01    1.2
2017/07/23 11:52:06.600   2773841.3738   1653189.3080   5481930.2591   2  17   0.0839   0.0692   0.1280   0.0552   0.0699   0.0888  -0.01    1.2
