% program   : RTKLIB ver.2.4.3 Emlid
% inp file  : /home/artur/RTKLIB/test/test/static/0_21_obnajeniye/rover.obs
% inp file  : /home/artur/RTKLIB/test/test/static/0_21_obnajeniye/base.obs
% inp file  : /home/artur/RTKLIB/test/test/static/0_21_obnajeniye/rover.nav
% obs start : 2017/07/23 11:24:05.8 GPST (week1959  41045.8s)
% obs end   : 2017/07/23 11:36:12.6 GPST (week1959  41772.6s)
% pos mode  : static
% freqs     : L1
% solution  : forward
% elev mask : 15.0 deg
% dynamics  : on
% tidecorr  : off
% ionos opt : broadcast
% tropo opt : est ztd
% ephemeris : broadcast
% navi sys  : gps glonass galileo qzss beidou sbas
% amb res   : continuous
% amb glo   : off
% val thres : 3.0
% antenna1  :                       ( 0.0000  0.0000  0.0000)
% antenna2  :                       ( 0.0000  0.0000  0.0000)
% ref pos   :  2773909.8712  1654076.4507  5481627.6877
%
% (x/y/z-ecef=WGS84,Q=1:fix,2:float,3:sbas,4:dgps,5:single,6:ppp,ns=# of satellites)
%  GPST                      x-ecef(m)      y-ecef(m)      z-ecef(m)   Q  ns   sdx(m)   sdy(m)   sdz(m)  sdxy(m)  sdyz(m)  sdzx(m) age(s)  ratio
2017/07/23 11:24:05.800   2773890.8234   1652732.4400   5482038.3557   2  16   1.9321   1.6731   3.7380   1.4554   1.7223   1.9113  -0.01    0.0
2017/07/23 11:24:06.000   2773890.7950   1652732.4213   5482038.5136   2  16   1.4771   1.2556   2.8340   1.1068   1.3161   1.4708  -0.01    0.0
2017/07/23 11:24:06.200   2773890.8322   1652732.4626   5482038.6874   2  16   1.2547   1.0524   2.3949   0.9380   1.1200   1.2622  -0.01    0.0
2017/07/23 11:24:06.400   2773890.8281   1652732.4527   5482038.7650   2  16   1.1179   0.9270   2.1252   0.8347   1.0002   1.1366  -0.01    0.0
2017/07/23 11:24:06.599   2773890.8235   1652732.4478   5482038.7396   2  16   1.0237   0.8401   1.9392   0.7636   0.9181   1.0514  -0.01    0.0
2017/07/23 11:24:06.799   2773890.8248   1652732.4614   5482038.7194   2  16   0.9540   0.7754   1.8015   0.7111   0.8576   0.9891  -0.01    0.0
2017/07/23 11:24:07.000   2773890.8250   1652732.4798   5482038.7612   2  15   0.9001   0.7279   1.7016   0.6712   0.8170   0.9427  -0.01    0.0
2017/07/23 11:24:07.200   2773890.8267   1652732.4956   5482038.7702   2  15   0.8568   0.6891   1.6202   0.6390   0.7835   0.9055  -0.01    0.0
2017/07/23 11:24:07.400   2773890.7918   1652732.4803   5482038.6626   2  16   0.8211   0.6546   1.5472   0.6120   0.7510   0.8741  -0.01    0.0
2017/07/23 11:24:07.600   2773890.7739   1652732.4852   5482038.6152   2  15   0.7912   0.6273   1.4902   0.5897   0.7274   0.8486  -0.01    0.0
2017/07/23 11:24:07.800   2773890.7414   1652732.4891   5482038.5794   2  15   0.7656   0.6036   1.4410   0.5706   0.7070   0.8269  -0.01    0.0
2017/07/23 11:24:08.000   2773890.6990   1652732.4793   5482038.5258   2  16   0.7435   0.5815   1.3948   0.5538   0.6863   0.8077  -0.01    0.0
2017/07/23 11:24:08.200   2773890.6489   1652732.4678   5482038.4863   2  16   0.7240   0.5622   1.3544   0.5391   0.6684   0.7910  -0.01    0.0
2017/07/23 11:24:08.400   2773890.5900   1652732.4587   5482038.4467   2  16   0.7069   0.5451   1.3188   0.5260   0.6526   0.7763  -0.01    0.0
2017/07/23 11:24:08.600   2773890.5305   1652732.4480   5482038.4180   2  16   0.6916   0.5297   1.2871   0.5144   0.6387   0.7632  -0.01    0.0
2017/07/23 11:24:08.800   2773890.4530   1652732.4318   5482038.3945   2  16   0.6778   0.5160   1.2586   0.5040   0.6262   0.7516  -0.01    0.0
2017/07/23 11:24:09.000   2773890.3795   1652732.4112   5482038.3473   2  16   0.6653   0.5035   1.2329   0.4946   0.6150   0.7411  -0.01    0.0
2017/07/23 11:24:09.200   2773890.3124   1652732.4007   5482038.3029   2  16   0.6540   0.4921   1.2096   0.4861   0.6048   0.7315  -0.01    0.0
2017/07/23 11:24:09.400   2773890.2408   1652732.3890   5482038.2293   2  16   0.6436   0.4817   1.1882   0.4782   0.5956   0.7228  -0.01    0.0
2017/07/23 11:24:09.600   2773890.1683   1652732.3771   5482038.1509   2  16   0.6341   0.4721   1.1686   0.4711   0.5871   0.7148  -0.01    0.0
2017/07/23 11:24:09.800   2773890.1044   1652732.3684   5482038.0880   2  16   0.6253   0.4632   1.1506   0.4644   0.5793   0.7075  -0.01    0.0
2017/07/23 11:24:10.000   2773890.0524   1652732.3660   5482038.0273   2  16   0.6171   0.4550   1.1338   0.4583   0.5722   0.7007  -0.01    0.0
2017/07/23 11:24:10.200   2773890.0008   1652732.3619   5482037.9783   2  16   0.6095   0.4473   1.1183   0.4526   0.5655   0.6943  -0.01    0.0
2017/07/23 11:24:10.400   2773889.9561   1652732.3630   5482037.9567   2  16   0.6025   0.4402   1.1038   0.4472   0.5593   0.6884  -0.01    0.0
2017/07/23 11:24:10.600   2773889.9088   1652732.3596   5482037.9102   2  16   0.5958   0.4335   1.0903   0.4422   0.5535   0.6829  -0.01    0.0
2017/07/23 11:24:10.800   2773889.8729   1652732.3602   5482037.8608   2  16   0.5896   0.4272   1.0776   0.4376   0.5480   0.6777  -0.01    0.0
2017/07/23 11:24:11.000   2773889.8477   1652732.3674   5482037.8192   2  16   0.5837   0.4213   1.0656   0.4331   0.5429   0.6728  -0.01    0.0
2017/07/23 11:24:11.200   2773889.8200   1652732.3676   5482037.7838   2  16   0.5781   0.4157   1.0544   0.4290   0.5381   0.6681  -0.01    0.0
2017/07/23 11:24:11.400   2773889.7897   1652732.3685   5482037.7508   2  16   0.5729   0.4104   1.0437   0.4250   0.5336   0.6637  -0.01    0.0
2017/07/23 11:24:11.600   2773889.7652   1652732.3684   5482037.7163   2  16   0.5679   0.4054   1.0337   0.4213   0.5293   0.6596  -0.01    0.0
2017/07/23 11:24:11.800   2773889.7264   1652732.3604   5482037.6767   2  16   0.5631   0.4007   1.0241   0.4177   0.5252   0.6556  -0.01    0.0
2017/07/23 11:24:12.000   2773889.6949   1652732.3538   5482037.6438   2  16   0.5586   0.3962   1.0150   0.4143   0.5213   0.6518  -0.01    0.0
2017/07/23 11:24:12.200   2773889.6624   1652732.3447   5482037.6349   2  16   0.5542   0.3919   1.0064   0.4111   0.5176   0.6481  -0.01    0.0
2017/07/23 11:24:12.400   2773889.6402   1652732.3422   5482037.6287   2  16   0.5501   0.3877   0.9981   0.4080   0.5140   0.6446  -0.01    0.0
2017/07/23 11:24:12.600   2773889.6164   1652732.3386   5482037.6258   2  16   0.5461   0.3838   0.9902   0.4050   0.5106   0.6413  -0.01    0.0
2017/07/23 11:24:12.800   2773889.5955   1652732.3394   5482037.6195   2  16   0.5423   0.3801   0.9827   0.4022   0.5074   0.6380  -0.01    0.0
2017/07/23 11:24:13.000   2773889.5782   1652732.3413   5482037.6194   2  16   0.5386   0.3765   0.9754   0.3995   0.5042   0.6349  -0.01    0.0
2017/07/23 11:24:13.200   2773889.5629   1652732.3419   5482037.6211   2  16   0.5351   0.3730   0.9684   0.3968   0.5012   0.6319  -0.01    0.0
2017/07/23 11:24:13.400   2773889.5436   1652732.3406   5482037.6052   2  16   0.5317   0.3697   0.9617   0.3943   0.4983   0.6289  -0.01    0.0
2017/07/23 11:24:13.600   2773889.5180   1652732.3378   5482037.5964   2  16   0.5284   0.3665   0.9553   0.3918   0.4956   0.6261  -0.01    0.0
2017/07/23 11:24:13.800   2773889.5042   1652732.3462   5482037.6171   2  15   0.5252   0.3636   0.9493   0.3895   0.4931   0.6234  -0.01    0.0
2017/07/23 11:24:14.000   2773889.4855   1652732.3451   5482037.6223   2  16   0.5221   0.3606   0.9433   0.3872   0.4905   0.6207  -0.01    0.0
2017/07/23 11:24:14.200   2773889.4663   1652732.3419   5482037.6240   2  16   0.5191   0.3577   0.9375   0.3850   0.4879   0.6181  -0.01    0.0
2017/07/23 11:24:14.400   2773889.4434   1652732.3365   5482037.6256   2  16   0.5162   0.3549   0.9319   0.3828   0.4855   0.6155  -0.01    0.0
2017/07/23 11:24:14.600   2773889.4245   1652732.3316   5482037.6324   2  16   0.5134   0.3522   0.9264   0.3807   0.4831   0.6131  -0.01    0.0
2017/07/23 11:24:14.800   2773889.3978   1652732.3210   5482037.6203   2  16   0.5106   0.3496   0.9211   0.3787   0.4807   0.6106  -0.01    0.0
2017/07/23 11:24:15.000   2773889.3850   1652732.3220   5482037.6148   2  16   0.5079   0.3471   0.9160   0.3767   0.4785   0.6083  -0.01    0.0
2017/07/23 11:24:15.200   2773889.3723   1652732.3227   5482037.6104   2  16   0.5053   0.3447   0.9110   0.3748   0.4763   0.6059  -0.01    0.0
2017/07/23 11:24:15.400   2773889.3503   1652732.3216   5482037.6056   2  16   0.5028   0.3423   0.9061   0.3729   0.4741   0.6036  -0.01    0.0
2017/07/23 11:24:15.600   2773889.3351   1652732.3200   5482037.6087   2  16   0.5003   0.3400   0.9014   0.3711   0.4720   0.6014  -0.01    1.3
2017/07/23 11:24:15.800   2773889.3189   1652732.3186   5482037.6119   2  16   0.4978   0.3377   0.8968   0.3693   0.4699   0.5992  -0.01    1.3
2017/07/23 11:24:16.000   2773889.3077   1652732.3179   5482037.6231   2  16   0.4955   0.3356   0.8923   0.3675   0.4679   0.5970  -0.01    1.4
2017/07/23 11:24:16.200   2773889.2978   1652732.3161   5482037.6345   2  16   0.4931   0.3334   0.8879   0.3658   0.4660   0.5949  -0.01    1.4
2017/07/23 11:24:16.400   2773889.2912   1652732.3144   5482037.6516   2  16   0.4908   0.3314   0.8836   0.3641   0.4640   0.5928  -0.01    1.4
2017/07/23 11:24:16.600   2773889.2804   1652732.3094   5482037.6711   2  16   0.4886   0.3294   0.8795   0.3625   0.4621   0.5907  -0.01    1.5
2017/07/23 11:24:16.800   2773889.2705   1652732.3047   5482037.6794   2  16   0.4864   0.3274   0.8754   0.3608   0.4603   0.5887  -0.01    1.5
2017/07/23 11:24:17.000   2773889.2710   1652732.3069   5482037.6994   2  16   0.4843   0.3255   0.8714   0.3593   0.4585   0.5867  -0.01    1.5
2017/07/23 11:24:17.200   2773889.2724   1652732.3094   5482037.7239   2  16   0.4821   0.3236   0.8674   0.3577   0.4567   0.5847  -0.01    1.5
2017/07/23 11:24:17.400   2773889.2733   1652732.3122   5482037.7451   2  16   0.4801   0.3218   0.8636   0.3562   0.4549   0.5828  -0.01    1.6
2017/07/23 11:24:17.600   2773889.2803   1652732.3150   5482037.7674   2  16   0.4780   0.3200   0.8598   0.3547   0.4532   0.5808  -0.01    1.6
2017/07/23 11:24:17.800   2773889.2820   1652732.3161   5482037.7853   2  16   0.4760   0.3182   0.8561   0.3532   0.4515   0.5789  -0.01    1.6
2017/07/23 11:24:18.000   2773889.2878   1652732.3178   5482037.8051   2  16   0.4740   0.3165   0.8525   0.3517   0.4498   0.5770  -0.01    1.6
2017/07/23 11:24:18.200   2773889.2910   1652732.3162   5482037.8191   2  16   0.4721   0.3148   0.8489   0.3503   0.4482   0.5752  -0.01    1.6
2017/07/23 11:24:18.400   2773889.2912   1652732.3138   5482037.8251   2  16   0.4701   0.3132   0.8454   0.3489   0.4465   0.5733  -0.01    1.6
2017/07/23 11:24:18.600   2773889.3027   1652732.3133   5482037.8438   2  16   0.4682   0.3115   0.8419   0.3475   0.4449   0.5715  -0.01    1.6
2017/07/23 11:24:18.800   2773889.3076   1652732.3084   5482037.8577   2  16   0.4664   0.3100   0.8385   0.3462   0.4434   0.5697  -0.01    1.6
2017/07/23 11:24:19.000   2773889.3144   1652732.3039   5482037.8688   2  16   0.4645   0.3084   0.8352   0.3448   0.4418   0.5679  -0.01    1.6
2017/07/23 11:24:19.200   2773889.3160   1652732.2961   5482037.8765   2  16   0.4627   0.3069   0.8319   0.3435   0.4402   0.5661  -0.01    1.7
2017/07/23 11:24:19.400   2773889.3177   1652732.2879   5482037.8839   2  16   0.4609   0.3054   0.8287   0.3422   0.4387   0.5644  -0.01    1.7
2017/07/23 11:24:19.600   2773889.3233   1652732.2829   5482037.8951   2  16   0.4592   0.3039   0.8255   0.3409   0.4372   0.5626  -0.01    1.7
2017/07/23 11:24:19.800   2773889.3377   1652732.2832   5482037.9177   2  16   0.4574   0.3025   0.8223   0.3396   0.4357   0.5609  -0.01    1.7
2017/07/23 11:24:20.000   2773889.3462   1652732.2823   5482037.9329   2  16   0.4557   0.3011   0.8192   0.3383   0.4343   0.5592  -0.01    1.7
2017/07/23 11:24:20.200   2773889.3448   1652732.2783   5482037.9403   2  16   0.4540   0.2997   0.8162   0.3371   0.4328   0.5575  -0.01    1.7
2017/07/23 11:24:20.400   2773889.3499   1652732.2785   5482037.9529   2  16   0.4523   0.2983   0.8131   0.3359   0.4314   0.5558  -0.01    1.7
2017/07/23 11:24:20.600   2773889.3608   1652732.2832   5482037.9743   2  16   0.4506   0.2969   0.8102   0.3347   0.4300   0.5541  -0.01    1.7
2017/07/23 11:24:20.800   2773889.3716   1652732.2873   5482037.9961   2  16   0.4490   0.2956   0.8072   0.3335   0.4286   0.5525  -0.01    1.8
2017/07/23 11:24:21.000   2773889.3844   1652732.2930   5482038.0219   2  16   0.4474   0.2943   0.8043   0.3323   0.4272   0.5508  -0.01    1.8
2017/07/23 11:24:21.200   2773889.3954   1652732.2994   5482038.0456   2  16   0.4458   0.2930   0.8014   0.3311   0.4258   0.5492  -0.01    1.8
2017/07/23 11:24:21.400   2773889.4044   1652732.3033   5482038.0598   2  16   0.4442   0.2917   0.7986   0.3299   0.4244   0.5475  -0.01    1.8
2017/07/23 11:24:21.600   2773889.4113   1652732.3049   5482038.0740   2  16   0.4426   0.2905   0.7958   0.3288   0.4231   0.5459  -0.01    1.8
2017/07/23 11:24:21.800   2773889.4215   1652732.3077   5482038.0884   2  16   0.4410   0.2893   0.7930   0.3276   0.4217   0.5443  -0.01    1.8
2017/07/23 11:24:22.000   2773889.4328   1652732.3122   5482038.1069   2  16   0.4395   0.2880   0.7903   0.3265   0.4204   0.5427  -0.01    1.8
2017/07/23 11:24:22.200   2773889.4419   1652732.3150   5482038.1182   2  16   0.4380   0.2868   0.7876   0.3254   0.4191   0.5412  -0.01    1.8
2017/07/23 11:24:22.400   2773889.4471   1652732.3155   5482038.1225   2  16   0.4365   0.2857   0.7849   0.3243   0.4178   0.5396  -0.01    1.8
2017/07/23 11:24:22.600   2773889.4502   1652732.3136   5482038.1199   2  16   0.4350   0.2845   0.7822   0.3232   0.4165   0.5380  -0.01    1.8
2017/07/23 11:24:22.800   2773889.4513   1652732.3095   5482038.1140   2  16   0.4335   0.2833   0.7796   0.3221   0.4152   0.5365  -0.01    1.8
2017/07/23 11:24:23.000   2773889.4533   1652732.3068   5482038.1085   2  16   0.4320   0.2822   0.7770   0.3211   0.4139   0.5349  -0.01    1.7
2017/07/23 11:24:23.200   2773889.4545   1652732.3047   5482038.1007   2  16   0.4305   0.2811   0.7745   0.3200   0.4127   0.5334  -0.01    1.7
2017/07/23 11:24:23.400   2773889.4542   1652732.3028   5482038.0983   2  16   0.4291   0.2800   0.7719   0.3189   0.4114   0.5319  -0.01    1.7
2017/07/23 11:24:23.600   2773889.4571   1652732.3040   5482038.0949   2  16   0.4277   0.2789   0.7694   0.3179   0.4102   0.5304  -0.01    1.7
2017/07/23 11:24:23.800   2773889.4626   1652732.3072   5482038.0943   2  16   0.4263   0.2778   0.7669   0.3169   0.4090   0.5289  -0.01    1.7
2017/07/23 11:24:24.000   2773889.4666   1652732.3095   5482038.0949   2  16   0.4249   0.2768   0.7644   0.3158   0.4078   0.5274  -0.01    1.7
2017/07/23 11:24:24.200   2773889.4748   1652732.3154   5482038.0976   2  16   0.4235   0.2757   0.7620   0.3148   0.4065   0.5259  -0.01    1.7
2017/07/23 11:24:24.400   2773889.4833   1652732.3241   5482038.1079   2  16   0.4221   0.2747   0.7595   0.3138   0.4053   0.5244  -0.01    1.7
2017/07/23 11:24:24.600   2773889.4858   1652732.3316   5482038.1079   2  16   0.4207   0.2736   0.7571   0.3128   0.4041   0.5229  -0.01    1.7
2017/07/23 11:24:24.800   2773889.4875   1652732.3387   5482038.1053   2  16   0.4194   0.2726   0.7548   0.3118   0.4030   0.5215  -0.01    1.7
2017/07/23 11:24:25.000   2773889.4884   1652732.3455   5482038.0983   2  16   0.4180   0.2716   0.7524   0.3109   0.4018   0.5200  -0.01    1.7
2017/07/23 11:24:25.200   2773889.4906   1652732.3520   5482038.0951   2  16   0.4167   0.2706   0.7501   0.3099   0.4006   0.5186  -0.01    1.7
2017/07/23 11:24:25.400   2773889.4927   1652732.3583   5482038.0946   2  16   0.4153   0.2696   0.7477   0.3089   0.3995   0.5172  -0.01    1.7
2017/07/23 11:24:25.600   2773889.4974   1652732.3662   5482038.1008   2  16   0.4140   0.2687   0.7454   0.3080   0.3983   0.5157  -0.01    1.7
2017/07/23 11:24:25.800   2773889.5018   1652732.3737   5482038.1073   2  16   0.4127   0.2677   0.7431   0.3070   0.3972   0.5143  -0.01    1.7
2017/07/23 11:24:26.000   2773889.4974   1652732.3743   5482038.0752   2  16   0.4077   0.2649   0.7332   0.3032   0.3922   0.5078  -0.01    1.7
2017/07/23 11:24:26.200   2773889.4792   1652732.3657   5482038.0415   2  16   0.4029   0.2621   0.7238   0.2997   0.3876   0.5017  -0.01    1.8
2017/07/23 11:24:26.400   2773889.4305   1652732.3462   5482037.9462   2  16   0.3984   0.2596   0.7150   0.2963   0.3831   0.4959  -0.01    1.8
2017/07/23 11:24:26.600   2773889.4160   1652732.3427   5482037.8986   2  16   0.3941   0.2571   0.7067   0.2931   0.3790   0.4904  -0.01    1.7
2017/07/23 11:24:26.800   2773889.3987   1652732.3341   5482037.8448   2  16   0.3900   0.2548   0.6988   0.2901   0.3750   0.4852  -0.01    1.8
2017/07/23 11:24:27.000   2773889.4022   1652732.3353   5482037.8524   2  16   0.3860   0.2525   0.6912   0.2872   0.3712   0.4802  -0.01    1.8
2017/07/23 11:24:27.200   2773889.4126   1652732.3421   5482037.8546   2  16   0.3823   0.2504   0.6841   0.2844   0.3676   0.4754  -0.01    1.8
2017/07/23 11:24:27.400   2773889.4162   1652732.3480   5482037.8571   2  16   0.3787   0.2483   0.6772   0.2818   0.3641   0.4709  -0.01    1.8
2017/07/23 11:24:27.600   2773889.4115   1652732.3503   5482037.8590   2  16   0.3753   0.2463   0.6707   0.2792   0.3608   0.4665  -0.01    1.8
2017/07/23 11:24:27.800   2773889.4072   1652732.3522   5482037.8662   2  16   0.3719   0.2444   0.6644   0.2767   0.3576   0.4622  -0.01    1.8
2017/07/23 11:24:28.000   2773889.3976   1652732.3515   5482037.8842   2  16   0.3687   0.2425   0.6583   0.2743   0.3545   0.4582  -0.01    1.9
2017/07/23 11:24:28.200   2773889.3689   1652732.3393   5482037.8502   2  16   0.3656   0.2407   0.6525   0.2721   0.3515   0.4542  -0.01    1.9
2017/07/23 11:24:28.400   2773889.3523   1652732.3354   5482037.8343   2  16   0.3626   0.2389   0.6468   0.2698   0.3487   0.4504  -0.01    1.9
2017/07/23 11:24:28.600   2773889.3380   1652732.3308   5482037.8122   2  16   0.3597   0.2372   0.6414   0.2677   0.3459   0.4468  -0.01    1.8
2017/07/23 11:24:28.800   2773889.3344   1652732.3327   5482037.7955   2  16   0.3569   0.2356   0.6361   0.2656   0.3432   0.4432  -0.01    1.8
2017/07/23 11:24:29.000   2773889.3309   1652732.3354   5482037.7958   2  16   0.3542   0.2340   0.6310   0.2636   0.3406   0.4397  -0.01    1.8
2017/07/23 11:24:29.200   2773889.3375   1652732.3446   5482037.8094   2  16   0.3515   0.2324   0.6260   0.2616   0.3380   0.4364  -0.01    1.8
2017/07/23 11:24:29.400   2773889.3352   1652732.3476   5482037.8103   2  16   0.3489   0.2309   0.6212   0.2597   0.3356   0.4331  -0.01    1.8
2017/07/23 11:24:29.600   2773889.3386   1652732.3540   5482037.8150   2  16   0.3464   0.2294   0.6165   0.2578   0.3331   0.4299  -0.01    1.9
2017/07/23 11:24:29.800   2773889.3502   1652732.3662   5482037.8338   2  16   0.3439   0.2279   0.6119   0.2560   0.3308   0.4268  -0.01    1.9
2017/07/23 11:24:30.000   2773889.3495   1652732.3695   5482037.8254   2  16   0.3415   0.2265   0.6074   0.2542   0.3285   0.4238  -0.01    1.9
2017/07/23 11:24:30.200   2773889.3542   1652732.3736   5482037.8266   2  16   0.3392   0.2251   0.6031   0.2524   0.3263   0.4208  -0.01    1.8
2017/07/23 11:24:30.400   2773889.3661   1652732.3823   5482037.8422   2  16   0.3369   0.2237   0.5988   0.2507   0.3241   0.4179  -0.01    1.8
2017/07/23 11:24:30.600   2773889.3734   1652732.3856   5482037.8486   2  16   0.3346   0.2224   0.5946   0.2491   0.3219   0.4150  -0.01    1.8
2017/07/23 11:24:30.800   2773889.3764   1652732.3860   5482037.8452   2  16   0.3324   0.2210   0.5906   0.2474   0.3198   0.4123  -0.01    1.8
2017/07/23 11:24:31.000   2773889.3888   1652732.3916   5482037.8621   2  16   0.3303   0.2197   0.5866   0.2458   0.3178   0.4095  -0.01    1.8
2017/07/23 11:24:31.200   2773889.3894   1652732.3934   5482037.8576   2  16   0.3281   0.2185   0.5827   0.2443   0.3157   0.4069  -0.01    1.8
2017/07/23 11:24:31.400   2773889.4005   1652732.3982   5482037.8775   2  16   0.3261   0.2172   0.5788   0.2427   0.3138   0.4042  -0.01    1.8
2017/07/23 11:24:31.600   2773889.4135   1652732.4040   5482037.8993   2  16   0.3240   0.2160   0.5751   0.2412   0.3118   0.4017  -0.01    1.8
2017/07/23 11:24:31.800   2773889.4219   1652732.4087   5482037.9112   2  16   0.3220   0.2148   0.5714   0.2397   0.3099   0.3991  -0.01    1.8
2017/07/23 11:24:32.000   2773889.4184   1652732.4086   5482037.9152   2  16   0.3201   0.2136   0.5677   0.2383   0.3080   0.3966  -0.01    1.8
2017/07/23 11:24:32.200   2773889.4142   1652732.4064   5482037.9235   2  16   0.3181   0.2124   0.5642   0.2368   0.3062   0.3942  -0.01    1.8
2017/07/23 11:24:32.400   2773889.4057   1652732.4016   5482037.9180   2  16   0.3162   0.2113   0.5607   0.2354   0.3044   0.3918  -0.01    1.8
2017/07/23 11:24:32.600   2773889.3968   1652732.3960   5482037.9082   2  16   0.3143   0.2102   0.5572   0.2340   0.3026   0.3894  -0.01    1.7
2017/07/23 11:24:32.800   2773889.4064   1652732.3986   5482037.9254   2  16   0.3125   0.2091   0.5538   0.2327   0.3008   0.3871  -0.01    1.7
2017/07/23 11:24:33.000   2773889.4132   1652732.4006   5482037.9442   2  16   0.3107   0.2080   0.5505   0.2313   0.2991   0.3848  -0.01    1.7
2017/07/23 11:24:33.200   2773889.4135   1652732.3987   5482037.9552   2  16   0.3089   0.2069   0.5472   0.2300   0.2974   0.3825  -0.01    1.7
2017/07/23 11:24:33.400   2773889.4039   1652732.3907   5482037.9446   2  16   0.3071   0.2058   0.5439   0.2287   0.2957   0.3803  -0.01    1.7
2017/07/23 11:24:33.600   2773889.4063   1652732.3894   5482037.9593   2  16   0.3053   0.2047   0.5407   0.2274   0.2940   0.3781  -0.01    1.7
2017/07/23 11:24:33.800   2773889.4106   1652732.3924   5482037.9852   2  16   0.3036   0.2037   0.5376   0.2261   0.2924   0.3759  -0.01    1.7
2017/07/23 11:24:34.000   2773889.4217   1652732.3956   5482038.0133   2  16   0.3019   0.2027   0.5345   0.2248   0.2907   0.3738  -0.01    1.7
2017/07/23 11:24:34.200   2773889.4332   1652732.3994   5482038.0519   2  16   0.3003   0.2017   0.5314   0.2236   0.2891   0.3717  -0.01    1.8
2017/07/23 11:24:34.400   2773889.4334   1652732.3968   5482038.0637   2  16   0.2986   0.2007   0.5283   0.2224   0.2876   0.3696  -0.01    1.8
2017/07/23 11:24:34.600   2773889.4257   1652732.3898   5482038.0564   2  16   0.2970   0.1997   0.5253   0.2212   0.2860   0.3675  -0.01    1.8
2017/07/23 11:24:34.800   2773889.4359   1652732.3919   5482038.0786   2  15   0.2955   0.1988   0.5226   0.2201   0.2846   0.3656  -0.01    1.8
2017/07/23 11:24:35.000   2773889.4283   1652732.3834   5482038.0707   2  15   0.2941   0.1978   0.5198   0.2190   0.2832   0.3638  -0.01    1.8
2017/07/23 11:24:35.200   2773889.4249   1652732.3789   5482038.0618   2  15   0.2926   0.1970   0.5171   0.2179   0.2818   0.3619  -0.01    1.8
2017/07/23 11:24:35.400   2773889.4263   1652732.3742   5482038.0591   2  16   0.2910   0.1960   0.5142   0.2167   0.2803   0.3599  -0.01    1.8
2017/07/23 11:24:35.600   2773889.4278   1652732.3714   5482038.0558   2  16   0.2895   0.1951   0.5113   0.2156   0.2788   0.3580  -0.01    1.8
2017/07/23 11:24:35.800   2773889.4166   1652732.3584   5482038.0133   2  16   0.2879   0.1941   0.5085   0.2144   0.2773   0.3560  -0.01    1.7
2017/07/23 11:24:36.000   2773889.4046   1652732.3470   5482037.9759   2  16   0.2864   0.1932   0.5057   0.2133   0.2759   0.3541  -0.01    1.7
2017/07/23 11:24:36.200   2773889.4100   1652732.3422   5482037.9595   2  16   0.2849   0.1923   0.5030   0.2122   0.2744   0.3522  -0.01    1.6
2017/07/23 11:24:36.400   2773889.4091   1652732.3370   5482037.9405   2  16   0.2834   0.1914   0.5002   0.2111   0.2730   0.3503  -0.01    1.6
2017/07/23 11:24:36.600   2773889.4055   1652732.3302   5482037.9158   2  15   0.2821   0.1906   0.4977   0.2101   0.2717   0.3486  -0.01    1.6
2017/07/23 11:24:36.800   2773889.4178   1652732.3320   5482037.9213   2  15   0.2808   0.1897   0.4952   0.2091   0.2704   0.3469  -0.01    1.6
2017/07/23 11:24:37.000   2773889.4214   1652732.3282   5482037.9091   2  15   0.2794   0.1889   0.4927   0.2081   0.2691   0.3452  -0.01    1.6
2017/07/23 11:24:37.200   2773889.4308   1652732.3270   5482037.9018   2  15   0.2781   0.1881   0.4903   0.2071   0.2679   0.3436  -0.01    1.6
2017/07/23 11:24:37.400   2773889.4384   1652732.3265   5482037.8999   2  16   0.2767   0.1872   0.4876   0.2060   0.2665   0.3417  -0.01    1.6
2017/07/23 11:24:37.600   2773889.4463   1652732.3254   5482037.8885   2  16   0.2753   0.1864   0.4850   0.2050   0.2651   0.3399  -0.01    1.6
2017/07/23 11:24:37.800   2773889.4584   1652732.3272   5482037.8861   2  16   0.2739   0.1855   0.4825   0.2039   0.2638   0.3381  -0.01    1.6
2017/07/23 11:24:38.000   2773889.4683   1652732.3261   5482037.8874   2  16   0.2725   0.1847   0.4799   0.2029   0.2625   0.3364  -0.01    1.7
2017/07/23 11:24:38.200   2773889.4719   1652732.3213   5482037.8811   2  16   0.2711   0.1838   0.4774   0.2019   0.2611   0.3346  -0.01    1.6
2017/07/23 11:24:38.400   2773889.4916   1652732.3269   5482037.9033   2  16   0.2697   0.1830   0.4749   0.2009   0.2598   0.3329  -0.01    1.7
2017/07/23 11:24:38.600   2773889.5158   1652732.3351   5482037.9305   2  16   0.2684   0.1822   0.4724   0.1998   0.2585   0.3311  -0.01    1.7
2017/07/23 11:24:38.800   2773889.5360   1652732.3405   5482037.9554   2  16   0.2670   0.1814   0.4699   0.1988   0.2572   0.3294  -0.01    1.7
2017/07/23 11:24:39.000   2773889.5495   1652732.3431   5482037.9805   2  16   0.2657   0.1806   0.4675   0.1979   0.2560   0.3277  -0.01    1.8
2017/07/23 11:24:39.200   2773889.5575   1652732.3420   5482037.9953   2  16   0.2644   0.1798   0.4651   0.1969   0.2547   0.3261  -0.01    1.8
2017/07/23 11:24:39.400   2773889.5682   1652732.3436   5482038.0125   2  16   0.2630   0.1790   0.4627   0.1959   0.2534   0.3244  -0.01    1.8
2017/07/23 11:24:39.600   2773889.5740   1652732.3433   5482038.0162   2  16   0.2617   0.1782   0.4603   0.1949   0.2522   0.3227  -0.01    1.8
2017/07/23 11:24:39.800   2773889.5928   1652732.3497   5482038.0426   2  16   0.2605   0.1774   0.4580   0.1940   0.2510   0.3211  -0.01    1.8
2017/07/23 11:24:40.000   2773889.5924   1652732.3464   5482038.0486   2  16   0.2592   0.1766   0.4556   0.1930   0.2497   0.3195  -0.01    1.8
2017/07/23 11:24:40.200   2773889.6055   1652732.3499   5482038.0691   2  16   0.2579   0.1759   0.4533   0.1921   0.2485   0.3179  -0.01    1.8
2017/07/23 11:24:40.400   2773889.6099   1652732.3485   5482038.0835   2  16   0.2567   0.1751   0.4510   0.1912   0.2473   0.3163  -0.01    1.8
2017/07/23 11:24:40.600   2773889.6239   1652732.3529   5482038.1108   2  16   0.2554   0.1744   0.4487   0.1902   0.2461   0.3147  -0.01    1.8
2017/07/23 11:24:40.800   2773889.6275   1652732.3501   5482038.1126   2  16   0.2542   0.1736   0.4465   0.1893   0.2449   0.3131  -0.01    1.8
2017/07/23 11:24:41.000   2773889.6299   1652732.3478   5482038.1189   2  16   0.2530   0.1729   0.4442   0.1884   0.2437   0.3116  -0.01    1.8
2017/07/23 11:24:41.200   2773889.6328   1652732.3462   5482038.1192   2  16   0.2518   0.1721   0.4420   0.1875   0.2426   0.3100  -0.01    1.8
2017/07/23 11:24:41.400   2773889.6360   1652732.3472   5482038.1238   2  16   0.2506   0.1714   0.4398   0.1866   0.2414   0.3085  -0.01    1.8
2017/07/23 11:24:41.600   2773889.6406   1652732.3482   5482038.1312   2  16   0.2494   0.1707   0.4376   0.1857   0.2403   0.3070  -0.01    1.7
2017/07/23 11:24:41.800   2773889.6330   1652732.3430   5482038.1153   2  16   0.2482   0.1700   0.4354   0.1848   0.2391   0.3055  -0.01    1.7
2017/07/23 11:24:42.000   2773889.6258   1652732.3365   5482038.1002   2  16   0.2470   0.1693   0.4332   0.1840   0.2380   0.3040  -0.01    1.7
2017/07/23 11:24:42.200   2773889.6252   1652732.3332   5482038.0927   2  16   0.2458   0.1685   0.4311   0.1831   0.2369   0.3025  -0.01    1.6
2017/07/23 11:24:42.400   2773889.6165   1652732.3255   5482038.0722   2  16   0.2447   0.1678   0.4289   0.1822   0.2357   0.3010  -0.01    1.6
2017/07/23 11:24:42.600   2773889.6030   1652732.3160   5482038.0398   2  16   0.2435   0.1671   0.4268   0.1814   0.2346   0.2995  -0.01    1.6
2017/07/23 11:24:42.800   2773889.5882   1652732.3058   5482038.0036   2  16   0.2424   0.1664   0.4247   0.1805   0.2335   0.2981  -0.01    1.5
2017/07/23 11:24:43.000   2773889.5810   1652732.2976   5482037.9816   2  16   0.2413   0.1658   0.4226   0.1797   0.2324   0.2966  -0.01    1.5
2017/07/23 11:24:43.200   2773889.5755   1652732.2943   5482037.9662   2  16   0.2401   0.1651   0.4206   0.1788   0.2313   0.2952  -0.01    1.5
2017/07/23 11:24:43.400   2773889.5762   1652732.2946   5482037.9610   2  16   0.2390   0.1644   0.4185   0.1780   0.2303   0.2938  -0.01    1.5
2017/07/23 11:24:43.600   2773889.5842   1652732.3001   5482037.9719   2  16   0.2379   0.1637   0.4165   0.1772   0.2292   0.2923  -0.01    1.5
2017/07/23 11:24:43.800   2773889.5791   1652732.2974   5482037.9574   2  16   0.2368   0.1631   0.4144   0.1764   0.2281   0.2909  -0.01    1.5
2017/07/23 11:24:44.000   2773889.5824   1652732.2988   5482037.9476   2  16   0.2357   0.1624   0.4124   0.1755   0.2271   0.2895  -0.01    1.4
2017/07/23 11:24:44.200   2773889.5920   1652732.3025   5482037.9510   2  16   0.2347   0.1617   0.4104   0.1747   0.2260   0.2882  -0.01    1.5
2017/07/23 11:24:44.400   2773889.5902   1652732.3003   5482037.9399   2  16   0.2336   0.1611   0.4084   0.1739   0.2250   0.2868  -0.01    1.5
2017/07/23 11:24:44.600   2773889.5789   1652732.2946   5482037.9184   2  15   0.2326   0.1605   0.4066   0.1732   0.2240   0.2855  -0.01    1.4
2017/07/23 11:24:44.800   2773889.5722   1652732.2911   5482037.8938   2  15   0.2316   0.1599   0.4047   0.1725   0.2231   0.2843  -0.01    1.4
2017/07/23 11:24:45.000   2773889.5603   1652732.2859   5482037.8744   2  15   0.2307   0.1593   0.4029   0.1717   0.2221   0.2830  -0.01    1.4
2017/07/23 11:24:45.200   2773889.5570   1652732.2849   5482037.8679   2  15   0.2297   0.1587   0.4010   0.1710   0.2212   0.2818  -0.01    1.3
2017/07/23 11:24:45.400   2773889.5485   1652732.2815   5482037.8542   2  15   0.2288   0.1581   0.3992   0.1703   0.2202   0.2806  -0.01    1.3
2017/07/23 11:24:45.600   2773889.5508   1652732.2825   5482037.8649   2  15   0.2278   0.1575   0.3974   0.1696   0.2193   0.2793  -0.01    1.3
2017/07/23 11:24:45.800   2773889.5532   1652732.2843   5482037.8665   2  15   0.2269   0.1569   0.3956   0.1689   0.2184   0.2781  -0.01    1.3
2017/07/23 11:24:46.000   2773889.5459   1652732.2799   5482037.8515   2  15   0.2259   0.1563   0.3938   0.1681   0.2175   0.2769  -0.01    1.3
2017/07/23 11:24:46.200   2773889.5434   1652732.2779   5482037.8506   2  16   0.2249   0.1557   0.3919   0.1674   0.2165   0.2756  -0.01    1.3
2017/07/23 11:24:46.400   2773889.5438   1652732.2754   5482037.8472   2  16   0.2239   0.1551   0.3900   0.1666   0.2155   0.2743  -0.01    1.3
2017/07/23 11:24:46.600   2773889.5430   1652732.2727   5482037.8482   2  16   0.2229   0.1545   0.3882   0.1658   0.2145   0.2730  -0.01    1.3
2017/07/23 11:24:46.800   2773889.5430   1652732.2715   5482037.8448   2  16   0.2219   0.1538   0.3863   0.1651   0.2135   0.2717  -0.01    1.3
2017/07/23 11:24:47.000   2773889.5523   1652732.2750   5482037.8515   2  16   0.2209   0.1532   0.3845   0.1643   0.2125   0.2704  -0.01    1.3
2017/07/23 11:24:47.200   2773889.5603   1652732.2788   5482037.8591   2  16   0.2199   0.1526   0.3826   0.1636   0.2116   0.2691  -0.01    1.2
2017/07/23 11:24:47.400   2773889.5650   1652732.2810   5482037.8653   2  16   0.2189   0.1520   0.3808   0.1629   0.2106   0.2678  -0.01    1.2
2017/07/23 11:24:47.600   2773889.5692   1652732.2831   5482037.8699   2  16   0.2179   0.1514   0.3790   0.1621   0.2096   0.2666  -0.01    1.2
2017/07/23 11:24:47.800   2773889.5742   1652732.2858   5482037.8868   2  16   0.2169   0.1509   0.3772   0.1614   0.2087   0.2653  -0.01    1.2
2017/07/23 11:24:48.000   2773889.5762   1652732.2849   5482037.8895   2  16   0.2159   0.1503   0.3754   0.1607   0.2078   0.2641  -0.01    1.2
2017/07/23 11:24:48.200   2773889.5763   1652732.2833   5482037.8920   2  16   0.2150   0.1497   0.3736   0.1599   0.2068   0.2628  -0.01    1.2
2017/07/23 11:24:48.400   2773889.5739   1652732.2806   5482037.8943   2  16   0.2140   0.1491   0.3718   0.1592   0.2059   0.2616  -0.01    1.2
2017/07/23 11:24:48.600   2773889.5777   1652732.2818   5482037.9070   2  16   0.2131   0.1485   0.3701   0.1585   0.2050   0.2604  -0.01    1.3
2017/07/23 11:24:48.800   2773889.5801   1652732.2822   5482037.9178   2  16   0.2121   0.1480   0.3683   0.1578   0.2041   0.2592  -0.01    1.3
2017/07/23 11:24:49.000   2773889.5817   1652732.2810   5482037.9207   2  16   0.2112   0.1474   0.3666   0.1571   0.2031   0.2580  -0.01    1.3
2017/07/23 11:24:49.200   2773889.5872   1652732.2820   5482037.9311   2  16   0.2103   0.1468   0.3649   0.1564   0.2022   0.2568  -0.01    1.3
2017/07/23 11:24:49.400   2773889.5968   1652732.2843   5482037.9526   2  16   0.2093   0.1463   0.3632   0.1557   0.2013   0.2556  -0.01    1.3
2017/07/23 11:24:49.600   2773889.6122   1652732.2911   5482037.9850   2  16   0.2084   0.1457   0.3615   0.1550   0.2005   0.2544  -0.01    1.3
2017/07/23 11:24:49.800   2773889.6195   1652732.2935   5482038.0030   2  16   0.2075   0.1452   0.3598   0.1543   0.1996   0.2532  -0.01    1.3
2017/07/23 11:24:50.000   2773889.6238   1652732.2948   5482038.0196   2  16   0.2066   0.1446   0.3581   0.1537   0.1987   0.2521  -0.01    1.3
2017/07/23 11:24:50.200   2773889.6354   1652732.2994   5482038.0412   2  16   0.2057   0.1441   0.3565   0.1530   0.1978   0.2509  -0.01    1.3
2017/07/23 11:24:50.400   2773889.6313   1652732.2967   5482038.0399   2  16   0.2048   0.1435   0.3548   0.1523   0.1969   0.2498  -0.01    1.3
2017/07/23 11:24:50.600   2773889.6329   1652732.2965   5482038.0475   2  16   0.2039   0.1430   0.3532   0.1517   0.1961   0.2486  -0.01    1.3
2017/07/23 11:24:50.800   2773889.6330   1652732.2964   5482038.0490   2  16   0.2030   0.1425   0.3515   0.1510   0.1952   0.2475  -0.01    1.3
2017/07/23 11:24:51.000   2773889.6348   1652732.2961   5482038.0541   2  16   0.2022   0.1419   0.3499   0.1503   0.1944   0.2464  -0.01    1.3
2017/07/23 11:24:51.200   2773889.6394   1652732.2983   5482038.0614   2  16   0.2013   0.1414   0.3483   0.1497   0.1935   0.2453  -0.01    1.3
2017/07/23 11:24:51.400   2773889.6364   1652732.2952   5482038.0593   2  16   0.2004   0.1409   0.3467   0.1490   0.1927   0.2441  -0.01    1.3
2017/07/23 11:24:51.600   2773889.6437   1652732.3003   5482038.0727   2  16   0.1996   0.1403   0.3451   0.1484   0.1918   0.2430  -0.01    1.3
2017/07/23 11:24:51.800   2773889.6441   1652732.3007   5482038.0763   2  16   0.1987   0.1398   0.3435   0.1477   0.1910   0.2419  -0.01    1.2
2017/07/23 11:24:52.000   2773889.6488   1652732.3016   5482038.0844   2  16   0.1979   0.1393   0.3419   0.1471   0.1902   0.2408  -0.01    1.2
2017/07/23 11:24:52.200   2773889.6507   1652732.3016   5482038.0888   2  16   0.1970   0.1388   0.3404   0.1465   0.1894   0.2398  -0.01    1.2
2017/07/23 11:24:52.400   2773889.6513   1652732.3008   5482038.0919   2  16   0.1962   0.1383   0.3388   0.1458   0.1885   0.2387  -0.01    1.2
2017/07/23 11:24:52.600   2773889.6574   1652732.3035   5482038.1035   2  16   0.1954   0.1378   0.3373   0.1452   0.1877   0.2376  -0.01    1.2
2017/07/23 11:24:52.800   2773889.6625   1652732.3062   5482038.1149   2  16   0.1945   0.1373   0.3357   0.1446   0.1869   0.2366  -0.01    1.3
2017/07/23 11:24:53.000   2773889.6707   1652732.3111   5482038.1288   2  16   0.1937   0.1368   0.3342   0.1440   0.1861   0.2355  -0.01    1.3
2017/07/23 11:24:53.200   2773889.6712   1652732.3108   5482038.1295   2  16   0.1929   0.1363   0.3327   0.1434   0.1853   0.2344  -0.01    1.2
2017/07/23 11:24:53.400   2773889.6711   1652732.3098   5482038.1284   2  16   0.1921   0.1358   0.3312   0.1427   0.1845   0.2334  -0.01    1.2
2017/07/23 11:24:53.600   2773889.6665   1652732.3040   5482038.1217   2  16   0.1913   0.1353   0.3297   0.1421   0.1837   0.2324  -0.01    1.2
2017/07/23 11:24:53.800   2773889.6694   1652732.3017   5482038.1266   2  16   0.1905   0.1348   0.3282   0.1415   0.1830   0.2313  -0.01    1.2
2017/07/23 11:24:54.000   2773889.6787   1652732.3038   5482038.1399   2  16   0.1897   0.1343   0.3267   0.1409   0.1822   0.2303  -0.01    1.2
2017/07/23 11:24:54.200   2773889.6795   1652732.3011   5482038.1391   2  16   0.1889   0.1338   0.3252   0.1403   0.1814   0.2293  -0.01    1.2
2017/07/23 11:24:54.400   2773889.6831   1652732.2998   5482038.1444   2  16   0.1881   0.1334   0.3238   0.1397   0.1806   0.2283  -0.01    1.2
2017/07/23 11:24:54.600   2773889.6941   1652732.3044   5482038.1619   2  16   0.1873   0.1329   0.3223   0.1392   0.1799   0.2273  -0.01    1.2
2017/07/23 11:24:54.800   2773889.7001   1652732.3061   5482038.1687   2  16   0.1865   0.1324   0.3209   0.1386   0.1791   0.2263  -0.01    1.3
2017/07/23 11:24:55.000   2773889.7074   1652732.3084   5482038.1758   2  16   0.1858   0.1319   0.3194   0.1380   0.1784   0.2253  -0.01    1.2
2017/07/23 11:24:55.200   2773889.7177   1652732.3127   5482038.1887   2  16   0.1850   0.1315   0.3180   0.1374   0.1776   0.2243  -0.01    1.2
2017/07/23 11:24:55.400   2773889.7296   1652732.3171   5482038.1995   2  16   0.1842   0.1310   0.3166   0.1368   0.1769   0.2233  -0.01    1.2
2017/07/23 11:24:55.600   2773889.7351   1652732.3182   5482038.1980   2  16   0.1835   0.1305   0.3152   0.1363   0.1761   0.2223  -0.01    1.2
2017/07/23 11:24:55.800   2773889.7372   1652732.3182   5482038.1951   2  16   0.1827   0.1301   0.3138   0.1357   0.1754   0.2214  -0.01    1.2
2017/07/23 11:24:56.000   2773889.7418   1652732.3186   5482038.1887   2  16   0.1820   0.1296   0.3124   0.1351   0.1747   0.2204  -0.01    1.2
2017/07/23 11:24:56.200   2773889.7454   1652732.3188   5482038.1831   2  16   0.1812   0.1292   0.3110   0.1346   0.1739   0.2194  -0.01    1.2
2017/07/23 11:24:56.400   2773889.7470   1652732.3158   5482038.1739   2  16   0.1805   0.1287   0.3096   0.1340   0.1732   0.2185  -0.01    1.2
2017/07/23 11:24:56.600   2773889.7503   1652732.3145   5482038.1743   2  16   0.1798   0.1283   0.3083   0.1334   0.1725   0.2175  -0.01    1.2
2017/07/23 11:24:56.800   2773889.7517   1652732.3126   5482038.1739   2  16   0.1790   0.1278   0.3069   0.1329   0.1718   0.2166  -0.01    1.2
2017/07/23 11:24:57.000   2773889.7520   1652732.3107   5482038.1711   2  16   0.1783   0.1274   0.3056   0.1323   0.1711   0.2157  -0.01    1.2
2017/07/23 11:24:57.200   2773889.7529   1652732.3103   5482038.1689   2  16   0.1776   0.1269   0.3042   0.1318   0.1704   0.2147  -0.01    1.2
2017/07/23 11:24:57.400   2773889.7558   1652732.3110   5482038.1770   2  16   0.1769   0.1265   0.3029   0.1313   0.1697   0.2138  -0.01    1.2
2017/07/23 11:24:57.600   2773889.7521   1652732.3083   5482038.1742   2  16   0.1761   0.1261   0.3015   0.1307   0.1690   0.2129  -0.01    1.2
2017/07/23 11:24:57.800   2773889.7539   1652732.3088   5482038.1833   2  16   0.1754   0.1256   0.3002   0.1302   0.1683   0.2120  -0.01    1.2
2017/07/23 11:24:58.000   2773889.7532   1652732.3075   5482038.1807   2  16   0.1747   0.1252   0.2989   0.1296   0.1676   0.2111  -0.01    1.2
2017/07/23 11:24:58.200   2773889.7472   1652732.3026   5482038.1714   2  16   0.1740   0.1248   0.2976   0.1291   0.1669   0.2102  -0.01    1.2
2017/07/23 11:24:58.400   2773889.7418   1652732.2974   5482038.1654   2  16   0.1733   0.1243   0.2963   0.1286   0.1662   0.2093  -0.01    1.2
2017/07/23 11:24:58.600   2773889.7366   1652732.2915   5482038.1534   2  16   0.1726   0.1239   0.2950   0.1281   0.1655   0.2084  -0.01    1.2
2017/07/23 11:24:58.800   2773889.7391   1652732.2933   5482038.1593   2  15   0.1720   0.1235   0.2938   0.1276   0.1649   0.2076  -0.01    1.2
2017/07/23 11:24:59.000   2773889.7457   1652732.2975   5482038.1725   2  15   0.1714   0.1231   0.2926   0.1271   0.1643   0.2067  -0.01    1.2
2017/07/23 11:24:59.200   2773889.7481   1652732.2985   5482038.1783   2  15   0.1707   0.1227   0.2914   0.1266   0.1637   0.2059  -0.01    1.2
2017/07/23 11:24:59.400   2773889.7557   1652732.3034   5482038.1947   2  15   0.1701   0.1223   0.2902   0.1261   0.1630   0.2051  -0.01    1.2
2017/07/23 11:24:59.600   2773889.7655   1652732.3082   5482038.2152   2  15   0.1695   0.1219   0.2890   0.1256   0.1624   0.2043  -0.01    1.2
2017/07/23 11:24:59.800   2773889.7732   1652732.3134   5482038.2289   2  15   0.1688   0.1215   0.2878   0.1252   0.1618   0.2035  -0.01    1.2
2017/07/23 11:25:00.000   2773889.7799   1652732.3174   5482038.2396   2  15   0.1682   0.1211   0.2866   0.1247   0.1612   0.2027  -0.01    1.2
2017/07/23 11:25:00.200   2773889.7855   1652732.3217   5482038.2536   2  15   0.1676   0.1208   0.2855   0.1242   0.1606   0.2019  -0.01    1.2
2017/07/23 11:25:00.400   2773889.7937   1652732.3258   5482038.2684   2  16   0.1669   0.1204   0.2842   0.1237   0.1599   0.2010  -0.01    1.2
2017/07/23 11:25:00.600   2773889.8036   1652732.3318   5482038.2887   2  16   0.1663   0.1200   0.2830   0.1232   0.1593   0.2002  -0.01    1.2
2017/07/23 11:25:00.800   2773889.8046   1652732.3320   5482038.2894   2  16   0.1656   0.1195   0.2818   0.1227   0.1586   0.1993  -0.01    1.2
2017/07/23 11:25:01.000   2773889.8096   1652732.3344   5482038.2972   2  16   0.1649   0.1191   0.2806   0.1222   0.1580   0.1985  -0.01    1.2
2017/07/23 11:25:01.200   2773889.8154   1652732.3383   5482038.3072   2  16   0.1643   0.1188   0.2794   0.1217   0.1574   0.1976  -0.01    1.2
2017/07/23 11:25:01.400   2773889.8167   1652732.3398   5482038.3086   2  16   0.1636   0.1184   0.2782   0.1212   0.1567   0.1968  -0.01    1.2
2017/07/23 11:25:01.600   2773889.8188   1652732.3407   5482038.3086   2  16   0.1630   0.1180   0.2770   0.1207   0.1561   0.1960  -0.01    1.2
2017/07/23 11:25:01.800   2773889.8208   1652732.3408   5482038.3089   2  16   0.1624   0.1176   0.2758   0.1202   0.1555   0.1952  -0.01    1.2
2017/07/23 11:25:02.000   2773889.8229   1652732.3411   5482038.3135   2  16   0.1617   0.1172   0.2746   0.1198   0.1549   0.1944  -0.01    1.2
2017/07/23 11:25:02.200   2773889.8327   1652732.3453   5482038.3283   2  16   0.1611   0.1168   0.2735   0.1193   0.1542   0.1935  -0.01    1.2
2017/07/23 11:25:02.400   2773889.8428   1652732.3487   5482038.3428   2  16   0.1605   0.1164   0.2723   0.1188   0.1536   0.1927  -0.01    1.2
2017/07/23 11:25:02.600   2773889.8518   1652732.3516   5482038.3551   2  16   0.1598   0.1160   0.2712   0.1183   0.1530   0.1919  -0.01    1.2
2017/07/23 11:25:02.800   2773889.8619   1652732.3553   5482038.3646   2  16   0.1592   0.1157   0.2700   0.1179   0.1524   0.1911  -0.01    1.2
2017/07/23 11:25:03.000   2773889.8730   1652732.3595   5482038.3796   2  16   0.1586   0.1153   0.2689   0.1174   0.1518   0.1904  -0.01    1.2
2017/07/23 11:25:03.200   2773889.8820   1652732.3630   5482038.3872   2  16   0.1580   0.1149   0.2678   0.1169   0.1512   0.1896  -0.01    1.2
2017/07/23 11:25:03.400   2773889.8908   1652732.3669   5482038.4004   2  16   0.1574   0.1145   0.2666   0.1165   0.1506   0.1888  -0.01    1.2
2017/07/23 11:25:03.600   2773889.8962   1652732.3683   5482038.4085   2  16   0.1568   0.1142   0.2655   0.1160   0.1500   0.1880  -0.01    1.2
2017/07/23 11:25:03.800   2773889.9025   1652732.3703   5482038.4142   2  16   0.1562   0.1138   0.2644   0.1156   0.1495   0.1872  -0.01    1.2
2017/07/23 11:25:04.000   2773889.9098   1652732.3734   5482038.4228   2  16   0.1556   0.1134   0.2633   0.1151   0.1489   0.1865  -0.01    1.2
2017/07/23 11:25:04.200   2773889.9162   1652732.3753   5482038.4323   2  16   0.1550   0.1131   0.2622   0.1146   0.1483   0.1857  -0.01    1.2
2017/07/23 11:25:04.400   2773889.9245   1652732.3780   5482038.4453   2  16   0.1544   0.1127   0.2611   0.1142   0.1477   0.1850  -0.01    1.2
2017/07/23 11:25:04.600   2773889.9362   1652732.3839   5482038.4632   2  16   0.1538   0.1123   0.2600   0.1138   0.1472   0.1842  -0.01    1.2
2017/07/23 11:25:04.800   2773889.9404   1652732.3849   5482038.4701   2  16   0.1532   0.1120   0.2590   0.1133   0.1466   0.1834  -0.01    1.2
2017/07/23 11:25:05.000   2773889.9480   1652732.3882   5482038.4795   2  16   0.1526   0.1116   0.2579   0.1129   0.1460   0.1827  -0.01    1.2
2017/07/23 11:25:05.200   2773889.9553   1652732.3918   5482038.4894   2  16   0.1520   0.1113   0.2568   0.1124   0.1455   0.1820  -0.01    1.2
2017/07/23 11:25:05.400   2773889.9642   1652732.3958   5482038.5012   2  16   0.1514   0.1109   0.2558   0.1120   0.1449   0.1812  -0.01    1.2
2017/07/23 11:25:05.600   2773889.9707   1652732.3993   5482038.5085   2  16   0.1509   0.1106   0.2547   0.1116   0.1443   0.1805  -0.01    1.2
2017/07/23 11:25:05.800   2773889.9726   1652732.3990   5482038.5053   2  16   0.1503   0.1102   0.2537   0.1111   0.1438   0.1798  -0.01    1.2
2017/07/23 11:25:06.000   2773889.9795   1652732.4019   5482038.5114   2  16   0.1497   0.1099   0.2526   0.1107   0.1432   0.1790  -0.01    1.2
2017/07/23 11:25:06.200   2773889.9867   1652732.4045   5482038.5138   2  16   0.1492   0.1095   0.2516   0.1103   0.1427   0.1783  -0.01    1.2
2017/07/23 11:25:06.400   2773889.9919   1652732.4054   5482038.5175   2  16   0.1486   0.1092   0.2506   0.1098   0.1422   0.1776  -0.01    1.2
2017/07/23 11:25:06.600   2773889.9952   1652732.4058   5482038.5153   2  16   0.1480   0.1088   0.2495   0.1094   0.1416   0.1769  -0.01    1.2
2017/07/23 11:25:06.800   2773890.0002   1652732.4070   5482038.5181   2  16   0.1475   0.1085   0.2485   0.1090   0.1411   0.1762  -0.01    1.2
2017/07/23 11:25:07.000   2773890.0044   1652732.4087   5482038.5220   2  16   0.1469   0.1082   0.2475   0.1086   0.1405   0.1755  -0.01    1.2
2017/07/23 11:25:07.200   2773890.0063   1652732.4085   5482038.5179   2  16   0.1464   0.1078   0.2465   0.1082   0.1400   0.1748  -0.01    1.1
2017/07/23 11:25:07.400   2773890.0086   1652732.4093   5482038.5173   2  16   0.1458   0.1075   0.2455   0.1078   0.1395   0.1741  -0.01    1.1
2017/07/23 11:25:07.600   2773890.0063   1652732.4071   5482038.5093   2  16   0.1453   0.1072   0.2445   0.1073   0.1390   0.1734  -0.01    1.1
2017/07/23 11:25:07.800   2773890.0079   1652732.4075   5482038.5062   2  16   0.1448   0.1068   0.2435   0.1069   0.1384   0.1727  -0.01    1.1
2017/07/23 11:25:08.000   2773890.0096   1652732.4073   5482038.5053   2  16   0.1442   0.1065   0.2426   0.1065   0.1379   0.1720  -0.01    1.1
2017/07/23 11:25:08.200   2773890.0078   1652732.4047   5482038.5002   2  16   0.1437   0.1062   0.2416   0.1061   0.1374   0.1714  -0.01    1.1
2017/07/23 11:25:08.400   2773890.0090   1652732.4036   5482038.5005   2  16   0.1432   0.1058   0.2406   0.1057   0.1369   0.1707  -0.01    1.1
2017/07/23 11:25:08.600   2773890.0144   1652732.4049   5482038.5053   2  16   0.1426   0.1055   0.2396   0.1053   0.1364   0.1700  -0.01    1.1
2017/07/23 11:25:08.800   2773890.0177   1652732.4060   5482038.5062   2  16   0.1421   0.1052   0.2387   0.1049   0.1359   0.1694  -0.01    1.1
2017/07/23 11:25:09.000   2773890.0176   1652732.4048   5482038.5019   2  16   0.1416   0.1049   0.2377   0.1045   0.1354   0.1687  -0.01    1.1
2017/07/23 11:25:09.200   2773890.0180   1652732.4027   5482038.4983   2  16   0.1411   0.1046   0.2368   0.1041   0.1349   0.1680  -0.01    1.1
2017/07/23 11:25:09.400   2773890.0202   1652732.4030   5482038.4960   2  16   0.1406   0.1042   0.2358   0.1037   0.1344   0.1674  -0.01    1.0
2017/07/23 11:25:09.600   2773890.0178   1652732.4009   5482038.4890   2  16   0.1400   0.1039   0.2349   0.1034   0.1339   0.1667  -0.01    1.0
2017/07/23 11:25:09.800   2773890.0206   1652732.4002   5482038.4878   2  16   0.1395   0.1036   0.2340   0.1030   0.1334   0.1661  -0.01    1.0
2017/07/23 11:25:10.000   2773890.0224   1652732.4001   5482038.4905   2  16   0.1390   0.1033   0.2331   0.1026   0.1329   0.1654  -0.01    1.0
2017/07/23 11:25:10.200   2773890.0237   1652732.3986   5482038.4912   2  16   0.1385   0.1030   0.2321   0.1022   0.1324   0.1648  -0.01    1.0
2017/07/23 11:25:10.400   2773890.0302   1652732.4015   5482038.4992   2  16   0.1380   0.1027   0.2312   0.1018   0.1319   0.1642  -0.01    1.0
2017/07/23 11:25:10.600   2773890.0276   1652732.3981   5482038.4915   2  16   0.1375   0.1024   0.2303   0.1014   0.1314   0.1635  -0.01    1.0
2017/07/23 11:25:10.800   2773890.0291   1652732.3973   5482038.4923   2  16   0.1370   0.1021   0.2294   0.1011   0.1310   0.1629  -0.01    1.0
2017/07/23 11:25:11.000   2773890.0325   1652732.3983   5482038.4937   2  16   0.1365   0.1018   0.2285   0.1007   0.1305   0.1623  -0.01    1.0
2017/07/23 11:25:11.200   2773890.0380   1652732.4000   5482038.4990   2  16   0.1360   0.1015   0.2276   0.1003   0.1300   0.1617  -0.01    1.0
2017/07/23 11:25:11.400   2773890.0440   1652732.4024   5482038.5071   2  16   0.1355   0.1012   0.2267   0.0999   0.1296   0.1610  -0.01    1.0
2017/07/23 11:25:11.600   2773890.0455   1652732.4017   5482038.5051   2  16   0.1351   0.1009   0.2258   0.0996   0.1291   0.1604  -0.01    1.0
2017/07/23 11:25:11.800   2773890.0482   1652732.4018   5482038.5071   2  16   0.1346   0.1006   0.2250   0.0992   0.1286   0.1598  -0.01    1.0
2017/07/23 11:25:12.000   2773890.0482   1652732.3997   5482038.5061   2  16   0.1341   0.1003   0.2241   0.0988   0.1282   0.1592  -0.01    1.0
2017/07/23 11:25:12.200   2773890.0512   1652732.3992   5482038.5066   2  16   0.1336   0.1000   0.2232   0.0985   0.1277   0.1586  -0.01    1.0
2017/07/23 11:25:12.400   2773890.0539   1652732.3987   5482038.5085   2  16   0.1331   0.0997   0.2224   0.0981   0.1272   0.1580  -0.01    1.0
2017/07/23 11:25:12.600   2773890.0594   1652732.3997   5482038.5179   2  16   0.1327   0.0994   0.2215   0.0978   0.1268   0.1574  -0.01    1.0
2017/07/23 11:25:12.800   2773890.0619   1652732.3989   5482038.5175   2  16   0.1322   0.0991   0.2207   0.0974   0.1263   0.1568  -0.01    1.0
2017/07/23 11:25:13.000   2773890.0663   1652732.3996   5482038.5216   2  16   0.1317   0.0988   0.2198   0.0970   0.1259   0.1562  -0.01    1.0
2017/07/23 11:25:13.200   2773890.0721   1652732.4009   5482038.5331   2  16   0.1313   0.0985   0.2190   0.0967   0.1254   0.1556  -0.01    1.0
2017/07/23 11:25:13.400   2773890.0777   1652732.4021   5482038.5395   2  16   0.1308   0.0982   0.2181   0.0963   0.1250   0.1550  -0.01    1.1
2017/07/23 11:25:13.600   2773890.0868   1652732.4062   5482038.5535   2  16   0.1303   0.0980   0.2173   0.0960   0.1245   0.1545  -0.01    1.1
2017/07/23 11:25:13.800   2773890.0921   1652732.4077   5482038.5612   2  16   0.1299   0.0977   0.2165   0.0956   0.1241   0.1539  -0.01    1.1
2017/07/23 11:25:14.000   2773890.0984   1652732.4091   5482038.5683   2  16   0.1294   0.0974   0.2156   0.0953   0.1237   0.1533  -0.01    1.1
2017/07/23 11:25:14.200   2773890.1043   1652732.4104   5482038.5762   2  16   0.1290   0.0971   0.2148   0.0950   0.1232   0.1527  -0.01    1.1
2017/07/23 11:25:14.400   2773890.1074   1652732.4106   5482038.5772   2  16   0.1285   0.0968   0.2140   0.0946   0.1228   0.1522  -0.01    1.1
2017/07/23 11:25:14.600   2773890.1104   1652732.4110   5482038.5804   2  16   0.1281   0.0966   0.2132   0.0943   0.1224   0.1516  -0.01    1.1
2017/07/23 11:25:14.800   2773890.1122   1652732.4103   5482038.5776   2  16   0.1276   0.0963   0.2124   0.0939   0.1219   0.1510  -0.01    1.1
2017/07/23 11:25:15.000   2773890.1174   1652732.4122   5482038.5792   2  16   0.1272   0.0960   0.2116   0.0936   0.1215   0.1505  -0.01    1.1
2017/07/23 11:25:15.200   2773890.1287   1652732.4174   5482038.5920   2  16   0.1267   0.0957   0.2108   0.0933   0.1211   0.1499  -0.01    1.1
2017/07/23 11:25:15.400   2773890.1332   1652732.4173   5482038.5983   2  16   0.1263   0.0955   0.2100   0.0929   0.1207   0.1494  -0.01    1.1
2017/07/23 11:25:15.600   2773890.1350   1652732.4162   5482038.6014   2  16   0.1259   0.0952   0.2092   0.0926   0.1203   0.1488  -0.01    1.1
2017/07/23 11:25:15.800   2773890.1360   1652732.4157   5482038.6008   2  16   0.1254   0.0949   0.2084   0.0923   0.1198   0.1483  -0.01    1.1
2017/07/23 11:25:16.000   2773890.1361   1652732.4138   5482038.5969   2  16   0.1250   0.0947   0.2076   0.0919   0.1194   0.1477  -0.01    1.1
2017/07/23 11:25:16.200   2773890.1342   1652732.4097   5482038.5921   2  16   0.1246   0.0944   0.2069   0.0916   0.1190   0.1472  -0.01    1.1
2017/07/23 11:25:16.400   2773890.1391   1652732.4111   5482038.5985   2  16   0.1241   0.0941   0.2061   0.0913   0.1186   0.1466  -0.01    1.1
2017/07/23 11:25:16.600   2773890.1425   1652732.4109   5482038.6001   2  16   0.1237   0.0939   0.2053   0.0910   0.1182   0.1461  -0.01    1.1
2017/07/23 11:25:16.800   2773890.1465   1652732.4123   5482038.6063   2  16   0.1233   0.0936   0.2046   0.0906   0.1178   0.1456  -0.01    1.1
2017/07/23 11:25:17.000   2773890.1488   1652732.4112   5482038.6097   2  16   0.1229   0.0933   0.2038   0.0903   0.1174   0.1450  -0.01    1.1
2017/07/23 11:25:17.200   2773890.1523   1652732.4109   5482038.6116   2  16   0.1225   0.0931   0.2031   0.0900   0.1170   0.1445  -0.01    1.1
2017/07/23 11:25:17.400   2773890.1578   1652732.4118   5482038.6217   2  16   0.1220   0.0928   0.2023   0.0897   0.1166   0.1440  -0.01    1.1
2017/07/23 11:25:17.600   2773890.1608   1652732.4125   5482038.6245   2  16   0.1216   0.0926   0.2016   0.0894   0.1162   0.1435  -0.01    1.1
2017/07/23 11:25:17.800   2773890.1669   1652732.4145   5482038.6302   2  16   0.1212   0.0923   0.2008   0.0891   0.1158   0.1430  -0.01    1.1
2017/07/23 11:25:18.000   2773890.1754   1652732.4169   5482038.6419   2  16   0.1208   0.0921   0.2001   0.0887   0.1154   0.1424  -0.01    1.1
2017/07/23 11:25:18.200   2773890.1818   1652732.4195   5482038.6531   2  15   0.1204   0.0918   0.1994   0.0884   0.1150   0.1420  -0.01    1.1
2017/07/23 11:25:18.400   2773890.1867   1652732.4212   5482038.6601   2  15   0.1200   0.0916   0.1987   0.0882   0.1147   0.1415  -0.01    1.1
2017/07/23 11:25:18.600   2773890.1905   1652732.4203   5482038.6613   2  16   0.1196   0.0913   0.1980   0.0878   0.1143   0.1410  -0.01    1.1
2017/07/23 11:25:18.800   2773890.1928   1652732.4190   5482038.6568   2  15   0.1192   0.0911   0.1973   0.0876   0.1139   0.1405  -0.01    1.1
2017/07/23 11:25:19.000   2773890.1949   1652732.4176   5482038.6562   2  15   0.1189   0.0908   0.1966   0.0873   0.1135   0.1400  -0.01    1.1
2017/07/23 11:25:19.200   2773890.1974   1652732.4172   5482038.6547   2  15   0.1185   0.0906   0.1959   0.0870   0.1132   0.1395  -0.01    1.1
2017/07/23 11:25:19.400   2773890.1924   1652732.4106   5482038.6420   2  16   0.1181   0.0903   0.1952   0.0867   0.1128   0.1390  -0.01    1.1
2017/07/23 11:25:19.600   2773890.1889   1652732.4041   5482038.6282   2  16   0.1177   0.0901   0.1945   0.0864   0.1124   0.1385  -0.01    1.1
2017/07/23 11:25:19.800   2773890.1886   1652732.4010   5482038.6246   2  16   0.1173   0.0899   0.1938   0.0861   0.1120   0.1380  -0.01    1.1
2017/07/23 11:25:20.000   2773890.1918   1652732.4012   5482038.6262   2  15   0.1169   0.0896   0.1931   0.0858   0.1117   0.1376  -0.01    1.1
2017/07/23 11:25:20.200   2773890.1965   1652732.4022   5482038.6306   2  15   0.1166   0.0894   0.1924   0.0855   0.1113   0.1371  -0.01    1.1
2017/07/23 11:25:20.400   2773890.2008   1652732.4030   5482038.6336   2  15   0.1162   0.0892   0.1918   0.0852   0.1110   0.1367  -0.01    1.1
2017/07/23 11:25:20.600   2773890.2055   1652732.4041   5482038.6380   2  15   0.1158   0.0889   0.1911   0.0849   0.1106   0.1362  -0.01    1.1
2017/07/23 11:25:20.800   2773890.1991   1652732.3980   5482038.6247   2  16   0.1154   0.0887   0.1904   0.0846   0.1103   0.1357  -0.01    1.1
2017/07/23 11:25:21.000   2773890.1987   1652732.3949   5482038.6161   2  16   0.1151   0.0884   0.1897   0.0843   0.1099   0.1352  -0.01    1.1
2017/07/23 11:25:21.200   2773890.2005   1652732.3935   5482038.6146   2  16   0.1147   0.0882   0.1890   0.0841   0.1095   0.1348  -0.01    1.1
2017/07/23 11:25:21.400   2773890.1991   1652732.3906   5482038.6081   2  16   0.1143   0.0880   0.1884   0.0838   0.1092   0.1343  -0.01    1.1
2017/07/23 11:25:21.600   2773890.1961   1652732.3871   5482038.5994   2  16   0.1139   0.0877   0.1877   0.0835   0.1088   0.1338  -0.01    1.1
2017/07/23 11:25:21.800   2773890.1982   1652732.3866   5482038.6016   2  16   0.1135   0.0875   0.1870   0.0832   0.1085   0.1333  -0.01    1.1
2017/07/23 11:25:22.000   2773890.1965   1652732.3835   5482038.5986   2  16   0.1132   0.0873   0.1864   0.0829   0.1081   0.1329  -0.01    1.1
2017/07/23 11:25:22.200   2773890.1972   1652732.3819   5482038.6002   2  16   0.1128   0.0870   0.1857   0.0826   0.1077   0.1324  -0.01    1.1
2017/07/23 11:25:22.400   2773890.1959   1652732.3784   5482038.5979   2  16   0.1124   0.0868   0.1850   0.0823   0.1074   0.1320  -0.01    1.1
2017/07/23 11:25:22.600   2773890.1960   1652732.3750   5482038.5981   2  16   0.1121   0.0866   0.1844   0.0821   0.1070   0.1315  -0.01    1.0
2017/07/23 11:25:22.800   2773890.1983   1652732.3741   5482038.6039   2  16   0.1117   0.0864   0.1837   0.0818   0.1067   0.1310  -0.01    1.1
2017/07/23 11:25:23.000   2773890.1984   1652732.3730   5482038.6063   2  16   0.1113   0.0861   0.1831   0.0815   0.1064   0.1306  -0.01    1.0
2017/07/23 11:25:23.200   2773890.1964   1652732.3700   5482038.6038   2  16   0.1110   0.0859   0.1825   0.0812   0.1060   0.1301  -0.01    1.0
2017/07/23 11:25:23.400   2773890.1914   1652732.3652   5482038.5975   2  16   0.1106   0.0857   0.1818   0.0810   0.1057   0.1297  -0.01    1.0
2017/07/23 11:25:23.600   2773890.1905   1652732.3618   5482038.5958   2  16   0.1102   0.0855   0.1812   0.0807   0.1053   0.1292  -0.01    1.0
2017/07/23 11:25:23.800   2773890.1903   1652732.3600   5482038.5988   2  16   0.1099   0.0852   0.1805   0.0804   0.1050   0.1288  -0.01    1.0
2017/07/23 11:25:24.000   2773890.1882   1652732.3575   5482038.5955   2  16   0.1095   0.0850   0.1799   0.0802   0.1046   0.1283  -0.01    1.0
2017/07/23 11:25:24.200   2773890.1859   1652732.3542   5482038.5947   2  16   0.1092   0.0848   0.1793   0.0799   0.1043   0.1279  -0.01    1.0
2017/07/23 11:25:24.400   2773890.1877   1652732.3534   5482038.5998   2  16   0.1088   0.0846   0.1787   0.0796   0.1040   0.1275  -0.01    1.0
2017/07/23 11:25:24.600   2773890.1879   1652732.3522   5482038.6037   2  16   0.1085   0.0844   0.1780   0.0794   0.1037   0.1270  -0.01    1.0
2017/07/23 11:25:24.800   2773890.1878   1652732.3510   5482038.6076   2  16   0.1081   0.0841   0.1774   0.0791   0.1033   0.1266  -0.01    1.0
2017/07/23 11:25:25.000   2773890.1907   1652732.3520   5482038.6139   2  16   0.1078   0.0839   0.1768   0.0788   0.1030   0.1262  -0.01    1.0
2017/07/23 11:25:25.200   2773890.1910   1652732.3516   5482038.6149   2  16   0.1074   0.0837   0.1762   0.0786   0.1027   0.1257  -0.01    1.0
2017/07/23 11:25:25.400   2773890.1933   1652732.3525   5482038.6208   2  16   0.1071   0.0835   0.1756   0.0783   0.1023   0.1253  -0.01    1.0
2017/07/23 11:25:25.600   2773890.1903   1652732.3491   5482038.6138   2  16   0.1067   0.0833   0.1750   0.0780   0.1020   0.1249  -0.01    1.0
2017/07/23 11:25:25.800   2773890.1894   1652732.3476   5482038.6112   2  16   0.1064   0.0831   0.1744   0.0778   0.1017   0.1245  -0.01    1.0
2017/07/23 11:25:26.000   2773890.1870   1652732.3454   5482038.6073   2  16   0.1061   0.0829   0.1738   0.0775   0.1014   0.1240  -0.01    1.0
2017/07/23 11:25:26.200   2773890.1865   1652732.3443   5482038.6091   2  16   0.1057   0.0826   0.1732   0.0773   0.1011   0.1236  -0.01    1.0
2017/07/23 11:25:26.400   2773890.1874   1652732.3443   5482038.6127   2  16   0.1054   0.0824   0.1726   0.0770   0.1007   0.1232  -0.01    1.0
2017/07/23 11:25:26.600   2773890.1838   1652732.3418   5482038.6082   2  16   0.1051   0.0822   0.1720   0.0768   0.1004   0.1228  -0.01    1.0
2017/07/23 11:25:26.800   2773890.1854   1652732.3429   5482038.6123   2  16   0.1047   0.0820   0.1715   0.0765   0.1001   0.1224  -0.01    1.0
