% program   : RTKLIB ver.2.4.3 Emlid
% inp file  : /home/artur/RTKLIB/test/test/static/4_bolshoy_ruchey/rover.obs
% inp file  : /home/artur/RTKLIB/test/test/static/4_bolshoy_ruchey/base.obs
% inp file  : /home/artur/RTKLIB/test/test/static/4_bolshoy_ruchey/rover.nav
% obs start : 2017/07/23 10:58:43.8 GPST (week1959  39523.8s)
% obs end   : 2017/07/23 11:08:52.6 GPST (week1959  40132.6s)
% pos mode  : static
% freqs     : L1
% solution  : combined
% elev mask : 15.0 deg
% dynamics  : on
% tidecorr  : off
% ionos opt : broadcast
% tropo opt : est ztd
% ephemeris : broadcast
% navi sys  : gps glonass galileo qzss beidou sbas
% amb res   : continuous
% amb glo   : off
% val thres : 3.0
% antenna1  :                       ( 0.0000  0.0000  0.0000)
% antenna2  :                       ( 0.0000  0.0000  0.0000)
% ref pos   :  2773909.8712  1654076.4507  5481627.6877
%
% (x/y/z-ecef=WGS84,Q=1:fix,2:float,3:sbas,4:dgps,5:single,6:ppp,ns=# of satellites)
%  GPST                      x-ecef(m)      y-ecef(m)      z-ecef(m)   Q  ns   sdx(m)   sdy(m)   sdz(m)  sdxy(m)  sdyz(m)  sdzx(m) age(s)  ratio
2017/07/23 10:58:43.800   2773745.6030   1652345.4861   5482224.8053   1  19   0.0007   0.0005   0.0012   0.0005   0.0007   0.0009   0.01    5.6
2017/07/23 10:58:44.000   2773745.6031   1652345.4861   5482224.8053   1  19   0.0007   0.0005   0.0012   0.0005   0.0007   0.0009   0.01    5.6
2017/07/23 10:58:44.200   2773745.6031   1652345.4861   5482224.8053   1  19   0.0007   0.0005   0.0012   0.0005   0.0007   0.0009   0.01    5.6
2017/07/23 10:58:44.400   2773745.6031   1652345.4861   5482224.8054   1  19   0.0007   0.0005   0.0012   0.0005   0.0007   0.0009   0.01    5.6
2017/07/23 10:58:44.600   2773745.6031   1652345.4861   5482224.8054   1  19   0.0007   0.0005   0.0012   0.0005   0.0007   0.0009   0.01    5.6
2017/07/23 10:58:44.800   2773745.6031   1652345.4861   5482224.8054   1  19   0.0007   0.0005   0.0012   0.0005   0.0007   0.0009   0.01    5.6
2017/07/23 10:58:45.000   2773745.6031   1652345.4861   5482224.8055   1  19   0.0007   0.0005   0.0012   0.0005   0.0007   0.0009   0.01    5.6
2017/07/23 10:58:45.200   2773745.6031   1652345.4861   5482224.8055   1  19   0.0007   0.0005   0.0012   0.0005   0.0007   0.0009   0.01    5.6
2017/07/23 10:58:45.400   2773745.6032   1652345.4862   5482224.8055   1  19   0.0007   0.0005   0.0012   0.0005   0.0007   0.0009   0.01    5.6
2017/07/23 10:58:45.600   2773745.6032   1652345.4862   5482224.8056   1  19   0.0007   0.0005   0.0012   0.0005   0.0007   0.0009   0.01    5.6
2017/07/23 10:58:45.800   2773745.6032   1652345.4862   5482224.8056   1  19   0.0007   0.0005   0.0012   0.0005   0.0007   0.0009   0.01    5.6
2017/07/23 10:58:46.000   2773745.6032   1652345.4862   5482224.8056   1  19   0.0007   0.0005   0.0012   0.0005   0.0007   0.0009   0.01    5.5
2017/07/23 10:58:46.200   2773745.6032   1652345.4862   5482224.8056   1  19   0.0007   0.0005   0.0012   0.0005   0.0007   0.0009   0.01    5.5
2017/07/23 10:58:46.400   2773745.6032   1652345.4862   5482224.8057   1  19   0.0007   0.0005   0.0012   0.0005   0.0007   0.0009   0.01    5.5
2017/07/23 10:58:46.600   2773745.6032   1652345.4862   5482224.8057   1  19   0.0007   0.0005   0.0012   0.0005   0.0007   0.0009   0.01    5.5
2017/07/23 10:58:46.800   2773745.6033   1652345.4862   5482224.8057   1  19   0.0007   0.0005   0.0012   0.0005   0.0007   0.0009   0.01    5.5
2017/07/23 10:58:47.000   2773745.6033   1652345.4862   5482224.8058   1  19   0.0007   0.0005   0.0012   0.0005   0.0007   0.0009   0.01    5.5
2017/07/23 10:58:47.200   2773745.6033   1652345.4862   5482224.8058   1  19   0.0007   0.0005   0.0012   0.0005   0.0007   0.0009   0.01    5.5
2017/07/23 10:58:47.400   2773745.6033   1652345.4862   5482224.8058   1  19   0.0007   0.0005   0.0012   0.0005   0.0007   0.0009   0.01    5.5
2017/07/23 10:58:47.600   2773745.6033   1652345.4863   5482224.8058   1  19   0.0007   0.0005   0.0012   0.0005   0.0007   0.0009   0.01    5.5
2017/07/23 10:58:47.800   2773745.6033   1652345.4863   5482224.8058   1  19   0.0007   0.0005   0.0012   0.0005   0.0007   0.0009   0.01    5.5
2017/07/23 10:58:48.000   2773745.6033   1652345.4863   5482224.8058   1  19   0.0007   0.0005   0.0012   0.0005   0.0007   0.0009   0.01    5.5
2017/07/23 10:58:48.200   2773745.6033   1652345.4863   5482224.8059   1  19   0.0007   0.0005   0.0012   0.0005   0.0007   0.0009   0.01    5.5
2017/07/23 10:58:48.400   2773745.6033   1652345.4863   5482224.8059   1  19   0.0007   0.0005   0.0012   0.0005   0.0007   0.0009   0.01    5.5
2017/07/23 10:58:48.600   2773745.6033   1652345.4863   5482224.8059   1  19   0.0007   0.0005   0.0012   0.0005   0.0007   0.0009   0.01    5.4
2017/07/23 10:58:48.800   2773745.6033   1652345.4863   5482224.8059   1  19   0.0007   0.0005   0.0012   0.0005   0.0007   0.0009   0.01    5.4
2017/07/23 10:58:49.000   2773745.6034   1652345.4863   5482224.8059   1  19   0.0007   0.0005   0.0012   0.0005   0.0007   0.0009   0.01    5.4
2017/07/23 10:58:49.200   2773745.6034   1652345.4863   5482224.8059   1  19   0.0006   0.0005   0.0012   0.0005   0.0007   0.0009   0.01    5.4
2017/07/23 10:58:49.400   2773745.6034   1652345.4863   5482224.8059   1  19   0.0006   0.0005   0.0012   0.0005   0.0007   0.0009   0.01    5.4
2017/07/23 10:58:49.600   2773745.6034   1652345.4863   5482224.8059   1  19   0.0006   0.0005   0.0012   0.0005   0.0007   0.0009   0.01    5.4
2017/07/23 10:58:49.800   2773745.6034   1652345.4863   5482224.8060   1  19   0.0006   0.0005   0.0012   0.0005   0.0007   0.0009   0.01    5.4
2017/07/23 10:58:50.000   2773745.6034   1652345.4864   5482224.8060   1  19   0.0006   0.0005   0.0012   0.0005   0.0007   0.0009   0.01    5.4
2017/07/23 10:58:50.200   2773745.6034   1652345.4864   5482224.8060   1  19   0.0006   0.0005   0.0012   0.0005   0.0007   0.0009   0.01    5.4
2017/07/23 10:58:50.400   2773745.6034   1652345.4864   5482224.8060   1  19   0.0006   0.0005   0.0012   0.0005   0.0007   0.0009   0.01    5.4
2017/07/23 10:58:50.600   2773745.6034   1652345.4864   5482224.8060   1  19   0.0006   0.0005   0.0012   0.0005   0.0007   0.0009   0.01    5.4
2017/07/23 10:58:50.800   2773745.6034   1652345.4864   5482224.8060   1  19   0.0006   0.0005   0.0012   0.0005   0.0007   0.0009   0.01    5.4
2017/07/23 10:58:51.000   2773745.6034   1652345.4864   5482224.8061   1  19   0.0006   0.0005   0.0012   0.0005   0.0007   0.0009   0.01    5.4
2017/07/23 10:58:51.200   2773745.6035   1652345.4864   5482224.8061   1  19   0.0006   0.0005   0.0012   0.0005   0.0007   0.0009   0.01    5.4
2017/07/23 10:58:51.400   2773745.6035   1652345.4864   5482224.8061   1  19   0.0006   0.0005   0.0012   0.0005   0.0007   0.0009   0.01    5.4
2017/07/23 10:58:51.600   2773745.6035   1652345.4864   5482224.8061   1  19   0.0006   0.0005   0.0012   0.0005   0.0007   0.0009   0.01    5.4
2017/07/23 10:58:51.800   2773745.6035   1652345.4864   5482224.8061   1  19   0.0006   0.0005   0.0012   0.0005   0.0007   0.0009   0.01    5.4
2017/07/23 10:58:52.000   2773745.6035   1652345.4864   5482224.8061   1  19   0.0006   0.0005   0.0012   0.0005   0.0007   0.0009   0.01    5.3
2017/07/23 10:58:52.200   2773745.6035   1652345.4865   5482224.8061   1  19   0.0006   0.0005   0.0012   0.0005   0.0007   0.0009   0.01    5.3
2017/07/23 10:58:52.400   2773745.6035   1652345.4865   5482224.8062   1  19   0.0006   0.0005   0.0012   0.0005   0.0007   0.0009   0.01    5.3
2017/07/23 10:58:52.600   2773745.6035   1652345.4865   5482224.8062   1  19   0.0006   0.0005   0.0012   0.0005   0.0007   0.0009   0.01    5.3
2017/07/23 10:58:52.800   2773745.6035   1652345.4865   5482224.8062   1  19   0.0006   0.0005   0.0012   0.0005   0.0007   0.0009   0.01    5.3
2017/07/23 10:58:53.000   2773745.6035   1652345.4865   5482224.8062   1  19   0.0006   0.0005   0.0012   0.0005   0.0007   0.0009   0.01    5.3
2017/07/23 10:58:53.200   2773745.6036   1652345.4865   5482224.8062   1  19   0.0006   0.0005   0.0012   0.0005   0.0007   0.0009   0.01    5.3
2017/07/23 10:58:53.400   2773745.6036   1652345.4865   5482224.8062   1  19   0.0006   0.0005   0.0012   0.0005   0.0007   0.0009   0.01    5.3
2017/07/23 10:58:53.600   2773745.6036   1652345.4865   5482224.8062   1  19   0.0006   0.0005   0.0012   0.0005   0.0007   0.0009   0.01    5.3
2017/07/23 10:58:53.800   2773745.6036   1652345.4865   5482224.8063   1  19   0.0006   0.0005   0.0012   0.0005   0.0007   0.0009   0.01    5.3
2017/07/23 10:58:54.000   2773745.6036   1652345.4865   5482224.8063   1  19   0.0006   0.0005   0.0012   0.0005   0.0007   0.0009   0.01    5.3
2017/07/23 10:58:54.200   2773745.6036   1652345.4866   5482224.8063   1  19   0.0006   0.0005   0.0012   0.0005   0.0007   0.0009   0.01    5.3
2017/07/23 10:58:54.400   2773745.6036   1652345.4866   5482224.8063   1  19   0.0006   0.0005   0.0012   0.0005   0.0007   0.0009   0.01    5.3
2017/07/23 10:58:54.600   2773745.6036   1652345.4866   5482224.8063   1  19   0.0006   0.0005   0.0012   0.0005   0.0007   0.0009   0.01    5.3
2017/07/23 10:58:54.800   2773745.6036   1652345.4866   5482224.8063   1  19   0.0006   0.0005   0.0012   0.0005   0.0007   0.0009   0.01    5.3
2017/07/23 10:58:55.000   2773745.6036   1652345.4866   5482224.8063   1  19   0.0006   0.0005   0.0012   0.0005   0.0007   0.0009   0.01    5.3
2017/07/23 10:58:55.200   2773745.6037   1652345.4866   5482224.8064   1  19   0.0006   0.0005   0.0012   0.0005   0.0007   0.0009   0.01    5.3
2017/07/23 10:58:55.400   2773745.6037   1652345.4866   5482224.8064   1  19   0.0006   0.0005   0.0012   0.0005   0.0007   0.0009   0.01    5.3
2017/07/23 10:58:55.600   2773745.6037   1652345.4866   5482224.8064   1  19   0.0006   0.0005   0.0012   0.0005   0.0007   0.0009   0.01    5.3
2017/07/23 10:58:55.800   2773745.6037   1652345.4866   5482224.8064   1  19   0.0006   0.0005   0.0012   0.0005   0.0007   0.0009   0.01    5.3
2017/07/23 10:58:56.000   2773745.6037   1652345.4866   5482224.8064   1  19   0.0006   0.0005   0.0012   0.0005   0.0007   0.0009   0.01    5.3
2017/07/23 10:58:56.200   2773745.6037   1652345.4867   5482224.8064   1  19   0.0006   0.0005   0.0012   0.0005   0.0007   0.0008   0.01    5.3
2017/07/23 10:58:56.400   2773745.6037   1652345.4867   5482224.8064   1  19   0.0006   0.0005   0.0012   0.0005   0.0007   0.0008   0.01    5.2
2017/07/23 10:58:56.600   2773745.6037   1652345.4867   5482224.8064   1  19   0.0006   0.0005   0.0012   0.0005   0.0007   0.0008   0.01    5.2
2017/07/23 10:58:56.800   2773745.6037   1652345.4867   5482224.8065   1  19   0.0006   0.0005   0.0012   0.0005   0.0007   0.0008   0.01    5.2
2017/07/23 10:58:57.000   2773745.6037   1652345.4867   5482224.8065   1  19   0.0006   0.0005   0.0012   0.0005   0.0007   0.0008   0.01    5.2
2017/07/23 10:58:57.200   2773745.6038   1652345.4867   5482224.8065   1  19   0.0006   0.0005   0.0012   0.0005   0.0007   0.0008   0.01    5.2
2017/07/23 10:58:57.400   2773745.6038   1652345.4867   5482224.8065   1  19   0.0006   0.0005   0.0012   0.0005   0.0007   0.0008   0.01    5.2
2017/07/23 10:58:57.600   2773745.6038   1652345.4867   5482224.8065   1  19   0.0006   0.0005   0.0012   0.0005   0.0007   0.0008   0.01    5.2
2017/07/23 10:58:57.800   2773745.6038   1652345.4867   5482224.8065   1  19   0.0006   0.0005   0.0012   0.0005   0.0007   0.0008   0.01    5.2
2017/07/23 10:58:58.000   2773745.6038   1652345.4867   5482224.8065   1  19   0.0006   0.0005   0.0012   0.0005   0.0007   0.0008   0.01    5.2
2017/07/23 10:58:58.200   2773745.6038   1652345.4868   5482224.8066   1  19   0.0006   0.0005   0.0012   0.0005   0.0007   0.0008   0.01    5.2
2017/07/23 10:58:58.400   2773745.6038   1652345.4868   5482224.8066   1  19   0.0006   0.0005   0.0012   0.0005   0.0007   0.0008   0.01    5.2
2017/07/23 10:58:58.600   2773745.6038   1652345.4868   5482224.8066   1  19   0.0006   0.0005   0.0012   0.0005   0.0007   0.0008   0.01    5.2
2017/07/23 10:58:58.800   2773745.6038   1652345.4868   5482224.8066   1  19   0.0006   0.0005   0.0012   0.0005   0.0007   0.0008   0.01    5.2
2017/07/23 10:58:59.000   2773745.6038   1652345.4868   5482224.8066   1  19   0.0006   0.0005   0.0012   0.0005   0.0007   0.0008   0.01    5.2
2017/07/23 10:58:59.200   2773745.6039   1652345.4868   5482224.8066   1  19   0.0006   0.0005   0.0012   0.0005   0.0007   0.0008   0.01    5.2
2017/07/23 10:58:59.400   2773745.6039   1652345.4868   5482224.8066   1  19   0.0006   0.0005   0.0012   0.0005   0.0007   0.0008   0.01    5.2
2017/07/23 10:58:59.600   2773745.6039   1652345.4868   5482224.8066   1  19   0.0006   0.0005   0.0012   0.0005   0.0007   0.0008   0.01    5.2
2017/07/23 10:58:59.800   2773745.6039   1652345.4868   5482224.8067   1  19   0.0006   0.0005   0.0012   0.0005   0.0007   0.0008   0.01    5.2
2017/07/23 10:59:00.000   2773745.6039   1652345.4869   5482224.8067   1  19   0.0006   0.0005   0.0012   0.0005   0.0007   0.0008   0.01    5.2
2017/07/23 10:59:00.200   2773745.6039   1652345.4869   5482224.8067   1  19   0.0006   0.0005   0.0012   0.0005   0.0007   0.0008   0.01    5.2
2017/07/23 10:59:00.400   2773745.6039   1652345.4869   5482224.8067   1  19   0.0006   0.0005   0.0012   0.0005   0.0007   0.0008   0.01    5.2
2017/07/23 10:59:00.600   2773745.6039   1652345.4869   5482224.8067   1  19   0.0006   0.0005   0.0012   0.0005   0.0007   0.0008   0.01    5.2
2017/07/23 10:59:00.800   2773745.6039   1652345.4869   5482224.8067   1  19   0.0006   0.0005   0.0012   0.0005   0.0007   0.0008   0.01    5.2
2017/07/23 10:59:01.000   2773745.6039   1652345.4869   5482224.8067   1  19   0.0006   0.0005   0.0012   0.0005   0.0007   0.0008   0.01    5.2
2017/07/23 10:59:01.200   2773745.6040   1652345.4869   5482224.8068   1  19   0.0006   0.0005   0.0012   0.0005   0.0007   0.0008   0.01    5.2
2017/07/23 10:59:01.400   2773745.6040   1652345.4869   5482224.8068   1  19   0.0006   0.0005   0.0012   0.0005   0.0007   0.0008   0.01    5.2
2017/07/23 10:59:01.600   2773745.6040   1652345.4869   5482224.8068   1  19   0.0006   0.0005   0.0012   0.0005   0.0006   0.0008   0.01    5.2
2017/07/23 10:59:01.800   2773745.6040   1652345.4870   5482224.8068   1  19   0.0006   0.0005   0.0012   0.0005   0.0006   0.0008   0.01    5.2
2017/07/23 10:59:02.000   2773745.6040   1652345.4870   5482224.8068   1  19   0.0006   0.0005   0.0012   0.0005   0.0006   0.0008   0.01    5.2
2017/07/23 10:59:02.200   2773745.6040   1652345.4870   5482224.8068   1  19   0.0006   0.0005   0.0012   0.0005   0.0006   0.0008   0.01    5.2
2017/07/23 10:59:02.400   2773745.6040   1652345.4870   5482224.8068   1  19   0.0006   0.0005   0.0012   0.0005   0.0006   0.0008   0.01    5.2
2017/07/23 10:59:02.600   2773745.6040   1652345.4870   5482224.8069   1  19   0.0006   0.0005   0.0012   0.0005   0.0006   0.0008   0.01    5.2
2017/07/23 10:59:02.800   2773745.6040   1652345.4870   5482224.8069   1  19   0.0006   0.0005   0.0012   0.0005   0.0006   0.0008   0.01    5.2
2017/07/23 10:59:03.000   2773745.6041   1652345.4870   5482224.8069   1  19   0.0006   0.0005   0.0012   0.0005   0.0006   0.0008   0.01    5.1
2017/07/23 10:59:03.200   2773745.6041   1652345.4870   5482224.8069   1  19   0.0006   0.0005   0.0012   0.0005   0.0006   0.0008   0.01    5.1
2017/07/23 10:59:03.400   2773745.6041   1652345.4870   5482224.8069   1  19   0.0006   0.0005   0.0012   0.0005   0.0006   0.0008   0.01    5.1
2017/07/23 10:59:03.600   2773745.6041   1652345.4871   5482224.8069   1  19   0.0006   0.0005   0.0012   0.0005   0.0006   0.0008   0.01    5.1
2017/07/23 10:59:03.800   2773745.6041   1652345.4871   5482224.8070   1  19   0.0006   0.0005   0.0012   0.0005   0.0006   0.0008   0.01    5.1
2017/07/23 10:59:04.000   2773745.6041   1652345.4871   5482224.8070   1  19   0.0006   0.0005   0.0012   0.0005   0.0006   0.0008   0.01    5.1
2017/07/23 10:59:04.200   2773745.6041   1652345.4871   5482224.8070   1  19   0.0006   0.0005   0.0012   0.0005   0.0006   0.0008   0.01    5.1
2017/07/23 10:59:04.400   2773745.6041   1652345.4871   5482224.8070   1  19   0.0006   0.0005   0.0012   0.0005   0.0006   0.0008   0.01    5.1
2017/07/23 10:59:04.600   2773745.6041   1652345.4871   5482224.8070   1  19   0.0006   0.0005   0.0012   0.0005   0.0006   0.0008   0.01    5.1
2017/07/23 10:59:04.800   2773745.6042   1652345.4871   5482224.8071   1  19   0.0006   0.0005   0.0012   0.0005   0.0006   0.0008   0.01    5.1
2017/07/23 10:59:05.000   2773745.6042   1652345.4871   5482224.8071   1  19   0.0006   0.0005   0.0012   0.0005   0.0006   0.0008   0.01    5.1
2017/07/23 10:59:05.200   2773745.6042   1652345.4871   5482224.8071   1  19   0.0006   0.0005   0.0012   0.0005   0.0006   0.0008   0.01    5.1
2017/07/23 10:59:05.400   2773745.6042   1652345.4871   5482224.8071   1  19   0.0006   0.0005   0.0012   0.0005   0.0006   0.0008   0.01    5.1
2017/07/23 10:59:05.600   2773745.6042   1652345.4871   5482224.8071   1  19   0.0006   0.0005   0.0012   0.0005   0.0006   0.0008   0.01    5.1
2017/07/23 10:59:05.800   2773745.6042   1652345.4871   5482224.8071   1  19   0.0006   0.0005   0.0012   0.0005   0.0006   0.0008   0.01    5.1
2017/07/23 10:59:06.000   2773745.6042   1652345.4871   5482224.8071   1  19   0.0006   0.0005   0.0012   0.0005   0.0006   0.0008   0.01    5.1
2017/07/23 10:59:06.200   2773745.6042   1652345.4871   5482224.8071   1  19   0.0006   0.0005   0.0012   0.0005   0.0006   0.0008   0.01    5.0
2017/07/23 10:59:06.400   2773745.6042   1652345.4871   5482224.8071   1  19   0.0006   0.0005   0.0012   0.0005   0.0006   0.0008   0.01    5.0
2017/07/23 10:59:06.600   2773745.6042   1652345.4871   5482224.8072   1  19   0.0006   0.0005   0.0012   0.0005   0.0006   0.0008   0.01    5.0
2017/07/23 10:59:06.800   2773745.6042   1652345.4871   5482224.8072   1  19   0.0006   0.0005   0.0012   0.0005   0.0006   0.0008   0.01    5.0
2017/07/23 10:59:07.000   2773745.6042   1652345.4871   5482224.8072   1  19   0.0006   0.0005   0.0012   0.0005   0.0006   0.0008   0.01    5.0
2017/07/23 10:59:07.200   2773745.6042   1652345.4872   5482224.8072   1  19   0.0006   0.0005   0.0012   0.0005   0.0006   0.0008   0.01    5.0
2017/07/23 10:59:07.400   2773745.6042   1652345.4872   5482224.8072   1  19   0.0006   0.0005   0.0012   0.0005   0.0006   0.0008   0.01    5.0
2017/07/23 10:59:07.600   2773745.6042   1652345.4872   5482224.8072   1  19   0.0006   0.0005   0.0012   0.0005   0.0006   0.0008   0.01    5.0
2017/07/23 10:59:07.800   2773745.6043   1652345.4872   5482224.8072   1  19   0.0006   0.0005   0.0012   0.0005   0.0006   0.0008   0.01    5.0
2017/07/23 10:59:08.000   2773745.6043   1652345.4872   5482224.8072   1  19   0.0006   0.0005   0.0012   0.0005   0.0006   0.0008   0.01    5.0
2017/07/23 10:59:08.200   2773745.6043   1652345.4872   5482224.8073   1  19   0.0006   0.0005   0.0012   0.0005   0.0006   0.0008   0.01    5.0
2017/07/23 10:59:08.400   2773745.6043   1652345.4872   5482224.8073   1  19   0.0006   0.0005   0.0012   0.0005   0.0006   0.0008   0.01    5.0
2017/07/23 10:59:08.600   2773745.6043   1652345.4872   5482224.8073   1  19   0.0006   0.0005   0.0012   0.0005   0.0006   0.0008   0.01    5.0
2017/07/23 10:59:08.800   2773745.6043   1652345.4872   5482224.8073   1  19   0.0006   0.0005   0.0012   0.0005   0.0006   0.0008   0.01    4.9
2017/07/23 10:59:09.000   2773745.6043   1652345.4872   5482224.8073   1  19   0.0006   0.0005   0.0012   0.0005   0.0006   0.0008   0.01    4.9
2017/07/23 10:59:09.200   2773745.6043   1652345.4872   5482224.8073   1  19   0.0006   0.0005   0.0012   0.0005   0.0006   0.0008   0.01    4.9
2017/07/23 10:59:09.400   2773745.6043   1652345.4872   5482224.8073   1  19   0.0006   0.0005   0.0012   0.0005   0.0006   0.0008   0.01    4.9
2017/07/23 10:59:09.600   2773745.6043   1652345.4872   5482224.8073   1  19   0.0006   0.0005   0.0012   0.0005   0.0006   0.0008   0.01    4.9
2017/07/23 10:59:09.800   2773745.6043   1652345.4872   5482224.8073   1  19   0.0006   0.0005   0.0012   0.0005   0.0006   0.0008   0.01    4.9
2017/07/23 10:59:10.000   2773745.6043   1652345.4872   5482224.8073   1  19   0.0006   0.0005   0.0012   0.0005   0.0006   0.0008   0.01    4.9
2017/07/23 10:59:10.200   2773745.6044   1652345.4872   5482224.8074   1  19   0.0006   0.0005   0.0012   0.0005   0.0006   0.0008   0.01    4.9
2017/07/23 10:59:10.400   2773745.6044   1652345.4872   5482224.8074   1  19   0.0006   0.0005   0.0012   0.0005   0.0006   0.0008   0.01    4.9
2017/07/23 10:59:10.600   2773745.6044   1652345.4872   5482224.8074   1  19   0.0006   0.0005   0.0012   0.0005   0.0006   0.0008   0.01    4.9
2017/07/23 10:59:10.800   2773745.6044   1652345.4872   5482224.8074   1  19   0.0006   0.0005   0.0012   0.0005   0.0006   0.0008   0.01    4.9
2017/07/23 10:59:11.000   2773745.6044   1652345.4872   5482224.8074   1  19   0.0006   0.0005   0.0012   0.0005   0.0006   0.0008   0.01    4.9
2017/07/23 10:59:11.200   2773745.6044   1652345.4872   5482224.8075   1  19   0.0006   0.0005   0.0012   0.0005   0.0006   0.0008   0.01    4.9
2017/07/23 10:59:11.400   2773745.6044   1652345.4872   5482224.8075   1  19   0.0006   0.0005   0.0012   0.0005   0.0006   0.0008   0.01    4.8
2017/07/23 10:59:11.600   2773745.6045   1652345.4873   5482224.8075   1  19   0.0006   0.0005   0.0012   0.0005   0.0006   0.0008   0.01    4.8
2017/07/23 10:59:11.800   2773745.6045   1652345.4873   5482224.8075   1  19   0.0006   0.0005   0.0012   0.0005   0.0006   0.0008   0.01    4.8
2017/07/23 10:59:12.000   2773745.6045   1652345.4873   5482224.8075   1  19   0.0006   0.0005   0.0012   0.0005   0.0006   0.0008   0.01    4.8
2017/07/23 10:59:12.200   2773745.6045   1652345.4873   5482224.8076   1  19   0.0006   0.0005   0.0012   0.0005   0.0006   0.0008   0.01    4.8
2017/07/23 10:59:12.400   2773745.6045   1652345.4873   5482224.8076   1  19   0.0006   0.0005   0.0012   0.0005   0.0006   0.0008   0.01    4.8
2017/07/23 10:59:12.600   2773745.6045   1652345.4873   5482224.8076   1  19   0.0006   0.0005   0.0012   0.0005   0.0006   0.0008   0.01    4.8
2017/07/23 10:59:12.800   2773745.6045   1652345.4873   5482224.8076   1  19   0.0006   0.0005   0.0012   0.0005   0.0006   0.0008   0.01    4.8
2017/07/23 10:59:13.000   2773745.6045   1652345.4873   5482224.8076   1  19   0.0006   0.0005   0.0012   0.0005   0.0006   0.0008   0.01    4.8
2017/07/23 10:59:13.200   2773745.6045   1652345.4873   5482224.8076   1  19   0.0006   0.0005   0.0012   0.0005   0.0006   0.0008   0.01    4.8
2017/07/23 10:59:13.400   2773745.6045   1652345.4873   5482224.8076   1  19   0.0006   0.0005   0.0012   0.0005   0.0006   0.0008   0.01    4.8
2017/07/23 10:59:13.600   2773745.6045   1652345.4873   5482224.8076   1  19   0.0006   0.0005   0.0012   0.0005   0.0006   0.0008   0.01    4.8
2017/07/23 10:59:13.800   2773745.6045   1652345.4873   5482224.8076   1  19   0.0006   0.0005   0.0012   0.0005   0.0006   0.0008   0.01    4.7
2017/07/23 10:59:14.000   2773745.6046   1652345.4873   5482224.8077   1  19   0.0006   0.0005   0.0012   0.0005   0.0006   0.0008   0.01    4.7
2017/07/23 10:59:14.200   2773745.6046   1652345.4873   5482224.8077   1  19   0.0006   0.0005   0.0012   0.0005   0.0006   0.0008   0.01    4.7
2017/07/23 10:59:14.400   2773745.6046   1652345.4873   5482224.8077   1  19   0.0006   0.0005   0.0012   0.0005   0.0007   0.0008   0.01    4.7
2017/07/23 10:59:14.600   2773745.6046   1652345.4873   5482224.8077   1  19   0.0006   0.0005   0.0012   0.0005   0.0007   0.0008   0.01    4.7
2017/07/23 10:59:14.800   2773745.6046   1652345.4873   5482224.8077   1  19   0.0006   0.0005   0.0012   0.0005   0.0007   0.0008   0.01    4.7
2017/07/23 10:59:15.000   2773745.6046   1652345.4873   5482224.8077   1  19   0.0006   0.0005   0.0012   0.0005   0.0007   0.0008   0.01    4.7
2017/07/23 10:59:15.200   2773745.6046   1652345.4873   5482224.8077   1  19   0.0006   0.0005   0.0012   0.0005   0.0007   0.0008   0.01    4.7
2017/07/23 10:59:15.400   2773745.6046   1652345.4873   5482224.8077   1  19   0.0006   0.0005   0.0012   0.0005   0.0007   0.0008   0.01    4.7
2017/07/23 10:59:15.600   2773745.6046   1652345.4873   5482224.8078   1  19   0.0006   0.0005   0.0012   0.0005   0.0007   0.0008   0.01    4.7
2017/07/23 10:59:15.800   2773745.6046   1652345.4874   5482224.8078   1  19   0.0006   0.0005   0.0012   0.0005   0.0007   0.0008   0.01    4.7
2017/07/23 10:59:16.000   2773745.6046   1652345.4874   5482224.8078   1  19   0.0006   0.0005   0.0012   0.0005   0.0007   0.0008   0.01    4.7
2017/07/23 10:59:16.200   2773745.6047   1652345.4874   5482224.8078   1  19   0.0006   0.0005   0.0012   0.0005   0.0007   0.0008   0.01    4.6
2017/07/23 10:59:16.400   2773745.6047   1652345.4874   5482224.8078   1  19   0.0006   0.0005   0.0012   0.0005   0.0007   0.0008   0.01    4.6
2017/07/23 10:59:16.600   2773745.6047   1652345.4874   5482224.8078   1  19   0.0006   0.0005   0.0012   0.0005   0.0007   0.0008   0.01    4.6
2017/07/23 10:59:16.800   2773745.6047   1652345.4874   5482224.8079   1  19   0.0006   0.0005   0.0012   0.0005   0.0007   0.0008   0.01    4.6
2017/07/23 10:59:17.000   2773745.6047   1652345.4874   5482224.8079   1  19   0.0006   0.0005   0.0012   0.0005   0.0007   0.0008   0.01    4.6
2017/07/23 10:59:17.200   2773745.6047   1652345.4874   5482224.8079   1  19   0.0006   0.0005   0.0012   0.0005   0.0007   0.0008   0.01    4.6
2017/07/23 10:59:17.400   2773745.6047   1652345.4874   5482224.8079   1  19   0.0006   0.0005   0.0012   0.0005   0.0007   0.0008   0.01    4.6
2017/07/23 10:59:17.600   2773745.6047   1652345.4874   5482224.8079   1  19   0.0006   0.0005   0.0012   0.0005   0.0007   0.0008   0.01    4.6
2017/07/23 10:59:17.800   2773745.6047   1652345.4874   5482224.8079   1  19   0.0006   0.0005   0.0012   0.0005   0.0007   0.0008   0.01    4.6
2017/07/23 10:59:18.000   2773745.6047   1652345.4874   5482224.8079   1  19   0.0006   0.0005   0.0012   0.0005   0.0007   0.0008   0.01    4.6
2017/07/23 10:59:18.200   2773745.6047   1652345.4874   5482224.8079   1  19   0.0006   0.0005   0.0012   0.0005   0.0007   0.0008   0.01    4.6
2017/07/23 10:59:18.400   2773745.6047   1652345.4874   5482224.8079   1  19   0.0006   0.0005   0.0012   0.0005   0.0007   0.0008   0.01    4.6
2017/07/23 10:59:18.600   2773745.6047   1652345.4874   5482224.8079   1  19   0.0006   0.0005   0.0012   0.0005   0.0007   0.0008   0.01    4.5
2017/07/23 10:59:18.800   2773745.6047   1652345.4874   5482224.8079   1  19   0.0006   0.0005   0.0012   0.0005   0.0007   0.0008   0.01    4.5
2017/07/23 10:59:19.000   2773745.6047   1652345.4874   5482224.8079   1  19   0.0006   0.0005   0.0012   0.0005   0.0007   0.0008   0.01    4.5
2017/07/23 10:59:19.200   2773745.6047   1652345.4874   5482224.8079   1  19   0.0006   0.0005   0.0012   0.0005   0.0007   0.0008   0.01    4.5
2017/07/23 10:59:19.400   2773745.6047   1652345.4874   5482224.8079   1  19   0.0006   0.0005   0.0012   0.0005   0.0007   0.0008   0.01    4.5
2017/07/23 10:59:19.600   2773745.6048   1652345.4874   5482224.8079   1  19   0.0006   0.0005   0.0012   0.0005   0.0007   0.0008   0.01    4.5
2017/07/23 10:59:19.800   2773745.6048   1652345.4874   5482224.8079   1  19   0.0006   0.0005   0.0012   0.0005   0.0007   0.0008   0.01    4.5
2017/07/23 10:59:20.000   2773745.6048   1652345.4874   5482224.8080   1  19   0.0006   0.0005   0.0012   0.0005   0.0007   0.0008   0.01    4.5
2017/07/23 10:59:20.200   2773745.6048   1652345.4874   5482224.8080   1  19   0.0006   0.0005   0.0012   0.0005   0.0007   0.0008   0.01    4.5
2017/07/23 10:59:20.400   2773745.6048   1652345.4874   5482224.8080   1  19   0.0006   0.0005   0.0012   0.0005   0.0007   0.0008   0.01    4.5
2017/07/23 10:59:20.600   2773745.6048   1652345.4874   5482224.8080   1  19   0.0006   0.0005   0.0012   0.0005   0.0007   0.0008   0.01    4.5
2017/07/23 10:59:20.800   2773745.6048   1652345.4874   5482224.8080   1  19   0.0006   0.0005   0.0012   0.0005   0.0007   0.0008   0.01    4.4
2017/07/23 10:59:21.000   2773745.6048   1652345.4875   5482224.8080   1  19   0.0006   0.0005   0.0012   0.0005   0.0007   0.0008   0.01    4.4
2017/07/23 10:59:21.200   2773745.6048   1652345.4874   5482224.8080   1  19   0.0006   0.0005   0.0012   0.0005   0.0007   0.0008   0.01    4.4
2017/07/23 10:59:21.400   2773745.6048   1652345.4874   5482224.8080   1  19   0.0006   0.0005   0.0012   0.0005   0.0007   0.0008   0.01    4.4
2017/07/23 10:59:21.600   2773745.6048   1652345.4874   5482224.8080   1  19   0.0006   0.0005   0.0012   0.0005   0.0007   0.0008   0.01    4.4
2017/07/23 10:59:21.800   2773745.6048   1652345.4874   5482224.8080   1  19   0.0006   0.0005   0.0012   0.0005   0.0007   0.0008   0.01    4.4
2017/07/23 10:59:22.000   2773745.6048   1652345.4874   5482224.8080   1  19   0.0006   0.0005   0.0012   0.0005   0.0007   0.0008   0.01    4.4
2017/07/23 10:59:22.200   2773745.6048   1652345.4874   5482224.8080   1  19   0.0006   0.0005   0.0012   0.0005   0.0007   0.0008   0.01    4.4
2017/07/23 10:59:22.400   2773745.6048   1652345.4874   5482224.8080   1  19   0.0006   0.0005   0.0012   0.0005   0.0007   0.0008   0.01    4.4
2017/07/23 10:59:22.600   2773745.6048   1652345.4874   5482224.8080   1  19   0.0006   0.0005   0.0012   0.0005   0.0007   0.0008   0.01    4.4
2017/07/23 10:59:22.800   2773745.6048   1652345.4874   5482224.8080   1  19   0.0006   0.0005   0.0012   0.0005   0.0007   0.0008   0.01    4.4
2017/07/23 10:59:23.000   2773745.6048   1652345.4874   5482224.8080   1  19   0.0006   0.0005   0.0012   0.0005   0.0007   0.0008   0.01    4.4
2017/07/23 10:59:23.200   2773745.6048   1652345.4874   5482224.8080   1  19   0.0006   0.0005   0.0012   0.0005   0.0007   0.0008   0.01    4.3
2017/07/23 10:59:23.400   2773745.6048   1652345.4874   5482224.8080   1  19   0.0006   0.0005   0.0012   0.0005   0.0007   0.0008   0.01    4.3
2017/07/23 10:59:23.600   2773745.6048   1652345.4874   5482224.8080   1  19   0.0006   0.0005   0.0012   0.0005   0.0007   0.0008   0.01    4.3
2017/07/23 10:59:23.800   2773745.6048   1652345.4874   5482224.8080   1  19   0.0006   0.0005   0.0012   0.0005   0.0007   0.0008   0.01    4.3
2017/07/23 10:59:24.000   2773745.6048   1652345.4874   5482224.8080   1  19   0.0006   0.0005   0.0012   0.0005   0.0007   0.0008   0.01    4.3
2017/07/23 10:59:24.200   2773745.6048   1652345.4874   5482224.8079   1  19   0.0006   0.0005   0.0012   0.0005   0.0007   0.0008   0.01    4.3
2017/07/23 10:59:24.400   2773745.6048   1652345.4874   5482224.8079   1  19   0.0006   0.0005   0.0012   0.0005   0.0007   0.0008   0.01    4.3
2017/07/23 10:59:24.600   2773745.6048   1652345.4874   5482224.8079   1  19   0.0006   0.0005   0.0012   0.0005   0.0007   0.0008   0.01    4.3
2017/07/23 10:59:24.800   2773745.6048   1652345.4874   5482224.8079   1  19   0.0006   0.0005   0.0012   0.0005   0.0007   0.0008   0.01    4.3
2017/07/23 10:59:25.000   2773745.6048   1652345.4874   5482224.8079   1  19   0.0006   0.0005   0.0012   0.0005   0.0007   0.0008   0.01    4.3
2017/07/23 10:59:25.200   2773745.6048   1652345.4874   5482224.8080   1  19   0.0006   0.0005   0.0012   0.0005   0.0007   0.0008   0.01    4.3
2017/07/23 10:59:25.400   2773745.6048   1652345.4874   5482224.8080   1  19   0.0006   0.0005   0.0012   0.0005   0.0007   0.0008   0.01    4.3
2017/07/23 10:59:25.600   2773745.6048   1652345.4874   5482224.8080   1  19   0.0006   0.0005   0.0012   0.0005   0.0007   0.0008   0.01    4.2
2017/07/23 10:59:25.800   2773745.6048   1652345.4874   5482224.8080   1  19   0.0006   0.0005   0.0012   0.0005   0.0007   0.0008   0.01    4.2
2017/07/23 10:59:26.000   2773745.6049   1652345.4874   5482224.8080   1  19   0.0006   0.0005   0.0012   0.0005   0.0007   0.0008   0.01    4.2
2017/07/23 10:59:26.200   2773745.6049   1652345.4874   5482224.8080   1  19   0.0006   0.0005   0.0012   0.0005   0.0007   0.0008   0.01    4.2
2017/07/23 10:59:26.400   2773745.6049   1652345.4874   5482224.8080   1  19   0.0006   0.0005   0.0012   0.0005   0.0007   0.0008   0.01    4.2
2017/07/23 10:59:26.600   2773745.6049   1652345.4874   5482224.8080   1  19   0.0006   0.0005   0.0012   0.0005   0.0007   0.0008   0.01    4.2
2017/07/23 10:59:26.800   2773745.6049   1652345.4874   5482224.8081   1  19   0.0006   0.0005   0.0012   0.0005   0.0007   0.0008   0.01    4.2
2017/07/23 10:59:27.000   2773745.6049   1652345.4874   5482224.8081   1  19   0.0006   0.0005   0.0012   0.0005   0.0007   0.0008   0.01    4.2
2017/07/23 10:59:27.200   2773745.6049   1652345.4874   5482224.8081   1  19   0.0006   0.0005   0.0012   0.0005   0.0007   0.0008   0.01    4.2
2017/07/23 10:59:27.400   2773745.6049   1652345.4874   5482224.8081   1  19   0.0006   0.0005   0.0012   0.0005   0.0007   0.0008   0.01    4.2
2017/07/23 10:59:27.600   2773745.6049   1652345.4874   5482224.8081   1  19   0.0006   0.0005   0.0012   0.0005   0.0007   0.0008   0.01    4.2
2017/07/23 10:59:27.800   2773745.6049   1652345.4874   5482224.8081   1  19   0.0006   0.0005   0.0012   0.0005   0.0007   0.0008   0.01    4.1
2017/07/23 10:59:28.000   2773745.6049   1652345.4874   5482224.8081   1  19   0.0006   0.0005   0.0012   0.0005   0.0007   0.0008   0.01    4.1
2017/07/23 10:59:28.200   2773745.6049   1652345.4874   5482224.8081   1  19   0.0006   0.0005   0.0012   0.0005   0.0007   0.0008   0.01    4.1
2017/07/23 10:59:28.400   2773745.6049   1652345.4874   5482224.8081   1  19   0.0006   0.0005   0.0012   0.0005   0.0007   0.0008   0.01    4.1
2017/07/23 10:59:28.600   2773745.6049   1652345.4874   5482224.8081   1  19   0.0006   0.0005   0.0012   0.0005   0.0007   0.0008   0.01    4.1
2017/07/23 10:59:28.800   2773745.6049   1652345.4874   5482224.8082   1  19   0.0006   0.0005   0.0012   0.0005   0.0007   0.0008   0.01    4.1
2017/07/23 10:59:29.000   2773745.6049   1652345.4874   5482224.8082   1  19   0.0006   0.0005   0.0012   0.0005   0.0007   0.0008   0.01    4.1
2017/07/23 10:59:29.200   2773745.6049   1652345.4874   5482224.8082   1  19   0.0006   0.0005   0.0012   0.0005   0.0007   0.0008   0.01    4.1
2017/07/23 10:59:29.400   2773745.6049   1652345.4874   5482224.8082   1  19   0.0006   0.0005   0.0012   0.0005   0.0007   0.0008   0.01    4.1
2017/07/23 10:59:29.600   2773745.6050   1652345.4875   5482224.8082   1  19   0.0006   0.0005   0.0012   0.0005   0.0007   0.0008   0.01    4.1
2017/07/23 10:59:29.800   2773745.6050   1652345.4875   5482224.8082   1  19   0.0006   0.0005   0.0012   0.0005   0.0007   0.0008   0.01    4.1
2017/07/23 10:59:30.000   2773745.6050   1652345.4875   5482224.8082   1  19   0.0006   0.0005   0.0012   0.0005   0.0007   0.0008   0.01    4.1
2017/07/23 10:59:30.200   2773745.6050   1652345.4875   5482224.8083   1  19   0.0006   0.0005   0.0012   0.0005   0.0007   0.0008   0.01    4.0
2017/07/23 10:59:30.400   2773745.6050   1652345.4875   5482224.8083   1  19   0.0006   0.0005   0.0012   0.0005   0.0007   0.0008   0.01    4.0
2017/07/23 10:59:30.600   2773745.6050   1652345.4875   5482224.8083   1  19   0.0006   0.0005   0.0012   0.0005   0.0007   0.0008   0.01    4.0
2017/07/23 10:59:30.800   2773745.6050   1652345.4875   5482224.8083   1  19   0.0006   0.0005   0.0012   0.0005   0.0007   0.0008   0.01    4.0
2017/07/23 10:59:31.000   2773745.6050   1652345.4875   5482224.8083   1  19   0.0006   0.0005   0.0012   0.0005   0.0007   0.0008   0.01    4.0
2017/07/23 10:59:31.200   2773745.6050   1652345.4875   5482224.8084   1  19   0.0006   0.0005   0.0012   0.0005   0.0007   0.0008   0.01    4.0
2017/07/23 10:59:31.400   2773745.6050   1652345.4875   5482224.8084   1  19   0.0006   0.0005   0.0012   0.0005   0.0007   0.0008   0.01    4.0
2017/07/23 10:59:31.600   2773745.6050   1652345.4875   5482224.8084   1  19   0.0006   0.0005   0.0012   0.0005   0.0007   0.0008   0.01    4.0
2017/07/23 10:59:31.800   2773745.6051   1652345.4875   5482224.8084   1  19   0.0006   0.0005   0.0012   0.0005   0.0007   0.0008   0.01    4.0
2017/07/23 10:59:32.000   2773745.6051   1652345.4875   5482224.8084   1  19   0.0006   0.0005   0.0012   0.0005   0.0007   0.0008   0.01    4.0
2017/07/23 10:59:32.200   2773745.6051   1652345.4875   5482224.8084   1  19   0.0006   0.0005   0.0012   0.0005   0.0007   0.0008   0.01    4.0
2017/07/23 10:59:32.400   2773745.6051   1652345.4875   5482224.8084   1  19   0.0006   0.0005   0.0012   0.0005   0.0007   0.0008   0.01    3.9
2017/07/23 10:59:32.600   2773745.6051   1652345.4875   5482224.8084   1  19   0.0006   0.0005   0.0012   0.0005   0.0007   0.0008   0.01    3.9
2017/07/23 10:59:32.800   2773745.6051   1652345.4875   5482224.8085   1  19   0.0006   0.0005   0.0012   0.0005   0.0007   0.0008   0.01    3.9
2017/07/23 10:59:33.000   2773745.6051   1652345.4876   5482224.8085   1  19   0.0006   0.0005   0.0012   0.0005   0.0007   0.0008   0.01    3.9
2017/07/23 10:59:33.200   2773745.6051   1652345.4876   5482224.8085   1  19   0.0006   0.0005   0.0012   0.0005   0.0007   0.0008   0.01    3.9
2017/07/23 10:59:33.400   2773745.6051   1652345.4876   5482224.8085   1  19   0.0006   0.0005   0.0012   0.0005   0.0007   0.0008   0.01    3.9
2017/07/23 10:59:33.600   2773745.6051   1652345.4876   5482224.8085   1  19   0.0006   0.0005   0.0012   0.0005   0.0007   0.0008   0.01    3.9
2017/07/23 10:59:33.800   2773745.6051   1652345.4876   5482224.8086   1  19   0.0006   0.0005   0.0012   0.0005   0.0007   0.0008   0.01    3.9
2017/07/23 10:59:34.000   2773745.6052   1652345.4876   5482224.8086   1  19   0.0006   0.0005   0.0012   0.0005   0.0007   0.0008   0.01    3.9
2017/07/23 10:59:34.200   2773745.6052   1652345.4876   5482224.8086   1  19   0.0006   0.0005   0.0012   0.0005   0.0007   0.0008   0.01    3.9
2017/07/23 10:59:34.400   2773745.6052   1652345.4876   5482224.8086   1  19   0.0006   0.0005   0.0012   0.0005   0.0007   0.0008   0.01    3.9
2017/07/23 10:59:34.600   2773745.6052   1652345.4876   5482224.8086   1  19   0.0006   0.0005   0.0012   0.0005   0.0007   0.0008   0.01    3.8
2017/07/23 10:59:34.800   2773745.6052   1652345.4876   5482224.8087   1  19   0.0006   0.0005   0.0012   0.0005   0.0007   0.0008   0.01    3.8
2017/07/23 10:59:35.000   2773745.6052   1652345.4876   5482224.8087   1  19   0.0006   0.0005   0.0012   0.0005   0.0007   0.0008   0.01    3.8
2017/07/23 10:59:35.200   2773745.6052   1652345.4876   5482224.8087   1  19   0.0006   0.0005   0.0012   0.0005   0.0007   0.0008   0.01    3.8
2017/07/23 10:59:35.400   2773745.6052   1652345.4876   5482224.8087   1  19   0.0006   0.0005   0.0012   0.0005   0.0007   0.0008   0.01    3.8
2017/07/23 10:59:35.600   2773745.6053   1652345.4876   5482224.8088   1  19   0.0006   0.0005   0.0012   0.0005   0.0007   0.0008   0.01    3.8
2017/07/23 10:59:35.800   2773745.6053   1652345.4876   5482224.8088   1  19   0.0006   0.0005   0.0012   0.0005   0.0007   0.0008   0.01    3.8
2017/07/23 10:59:36.000   2773745.6053   1652345.4876   5482224.8088   1  19   0.0006   0.0005   0.0012   0.0005   0.0007   0.0008   0.01    3.8
2017/07/23 10:59:36.200   2773745.6053   1652345.4877   5482224.8088   1  19   0.0006   0.0005   0.0012   0.0005   0.0007   0.0008   0.01    3.8
2017/07/23 10:59:36.400   2773745.6053   1652345.4877   5482224.8089   1  19   0.0006   0.0005   0.0012   0.0005   0.0007   0.0008   0.01    3.8
2017/07/23 10:59:36.600   2773745.6053   1652345.4877   5482224.8089   1  19   0.0006   0.0005   0.0012   0.0005   0.0007   0.0008   0.01    3.8
2017/07/23 10:59:36.800   2773745.6053   1652345.4877   5482224.8089   1  19   0.0006   0.0005   0.0012   0.0005   0.0007   0.0008   0.01    3.7
2017/07/23 10:59:37.000   2773745.6053   1652345.4877   5482224.8089   1  19   0.0006   0.0005   0.0012   0.0005   0.0007   0.0008   0.01    3.7
2017/07/23 10:59:37.200   2773745.6053   1652345.4877   5482224.8089   1  19   0.0006   0.0005   0.0012   0.0005   0.0007   0.0008   0.01    3.7
2017/07/23 10:59:37.400   2773745.6053   1652345.4877   5482224.8089   1  19   0.0006   0.0005   0.0012   0.0005   0.0007   0.0008   0.01    3.7
2017/07/23 10:59:37.600   2773745.6053   1652345.4877   5482224.8089   1  19   0.0006   0.0005   0.0012   0.0005   0.0007   0.0008   0.01    3.7
2017/07/23 10:59:37.800   2773745.6053   1652345.4877   5482224.8089   1  19   0.0006   0.0005   0.0012   0.0005   0.0007   0.0008   0.01    3.7
2017/07/23 10:59:38.000   2773745.6053   1652345.4877   5482224.8090   1  19   0.0006   0.0005   0.0012   0.0005   0.0007   0.0008   0.01    3.7
2017/07/23 10:59:38.200   2773745.6054   1652345.4877   5482224.8090   1  19   0.0006   0.0005   0.0012   0.0005   0.0007   0.0008   0.01    3.7
2017/07/23 10:59:38.400   2773745.6054   1652345.4877   5482224.8090   1  19   0.0006   0.0005   0.0012   0.0005   0.0007   0.0008   0.01    3.7
2017/07/23 10:59:38.600   2773745.6054   1652345.4877   5482224.8090   1  19   0.0006   0.0005   0.0012   0.0005   0.0007   0.0008   0.01    3.7
2017/07/23 10:59:38.800   2773745.6054   1652345.4877   5482224.8091   1  19   0.0006   0.0005   0.0012   0.0005   0.0007   0.0008   0.01    3.7
2017/07/23 10:59:39.000   2773745.6054   1652345.4877   5482224.8091   1  19   0.0006   0.0005   0.0012   0.0005   0.0007   0.0008   0.01    3.6
2017/07/23 10:59:39.200   2773745.6054   1652345.4877   5482224.8091   1  19   0.0006   0.0005   0.0012   0.0005   0.0007   0.0008   0.01    3.6
2017/07/23 10:59:39.400   2773745.6054   1652345.4877   5482224.8091   1  19   0.0006   0.0005   0.0012   0.0005   0.0007   0.0008   0.01    3.6
2017/07/23 10:59:39.600   2773745.6054   1652345.4878   5482224.8091   1  19   0.0006   0.0005   0.0012   0.0005   0.0007   0.0008   0.01    3.6
2017/07/23 10:59:39.800   2773745.6055   1652345.4878   5482224.8092   1  19   0.0006   0.0005   0.0012   0.0005   0.0007   0.0008   0.01    3.6
2017/07/23 10:59:40.000   2773745.6055   1652345.4878   5482224.8092   1  19   0.0006   0.0005   0.0012   0.0005   0.0007   0.0008   0.01    3.6
2017/07/23 10:59:40.200   2773745.6055   1652345.4878   5482224.8092   1  19   0.0006   0.0005   0.0012   0.0005   0.0007   0.0008   0.01    3.6
2017/07/23 10:59:40.400   2773745.6055   1652345.4878   5482224.8092   1  19   0.0006   0.0005   0.0012   0.0005   0.0007   0.0008   0.01    3.6
2017/07/23 10:59:40.600   2773745.6055   1652345.4878   5482224.8093   1  19   0.0006   0.0005   0.0012   0.0005   0.0007   0.0008   0.01    3.6
2017/07/23 10:59:40.800   2773745.6055   1652345.4878   5482224.8093   1  19   0.0006   0.0005   0.0012   0.0005   0.0007   0.0008   0.01    3.6
2017/07/23 10:59:41.000   2773745.6055   1652345.4878   5482224.8094   1  19   0.0006   0.0005   0.0012   0.0005   0.0007   0.0008   0.01    3.5
2017/07/23 10:59:41.200   2773745.6056   1652345.4878   5482224.8094   1  19   0.0006   0.0005   0.0012   0.0005   0.0007   0.0008   0.01    3.5
2017/07/23 10:59:41.400   2773745.6056   1652345.4879   5482224.8094   1  19   0.0006   0.0005   0.0012   0.0005   0.0007   0.0008   0.01    3.5
2017/07/23 10:59:41.600   2773745.6056   1652345.4879   5482224.8095   1  19   0.0006   0.0005   0.0012   0.0005   0.0007   0.0008   0.01    3.5
2017/07/23 10:59:41.800   2773745.6056   1652345.4879   5482224.8095   1  19   0.0006   0.0005   0.0012   0.0005   0.0007   0.0008   0.01    3.5
2017/07/23 10:59:42.000   2773745.6056   1652345.4879   5482224.8095   1  19   0.0006   0.0005   0.0012   0.0005   0.0007   0.0008   0.01    3.5
2017/07/23 10:59:42.200   2773745.6056   1652345.4879   5482224.8096   1  19   0.0006   0.0005   0.0012   0.0005   0.0007   0.0008   0.01    3.5
2017/07/23 10:59:42.400   2773745.6057   1652345.4879   5482224.8096   1  19   0.0006   0.0005   0.0012   0.0005   0.0007   0.0009   0.01    3.5
2017/07/23 10:59:42.600   2773745.6057   1652345.4879   5482224.8096   1  19   0.0006   0.0005   0.0012   0.0005   0.0007   0.0009   0.01    3.5
2017/07/23 10:59:42.800   2773745.6057   1652345.4879   5482224.8096   1  19   0.0006   0.0005   0.0012   0.0005   0.0007   0.0009   0.01    3.5
2017/07/23 10:59:43.000   2773745.6057   1652345.4879   5482224.8096   1  19   0.0006   0.0005   0.0012   0.0005   0.0007   0.0009   0.01    3.4
2017/07/23 10:59:43.200   2773745.6057   1652345.4879   5482224.8097   1  19   0.0006   0.0005   0.0012   0.0005   0.0007   0.0009   0.01    3.4
2017/07/23 10:59:43.400   2773745.6057   1652345.4880   5482224.8097   1  19   0.0006   0.0005   0.0012   0.0005   0.0007   0.0009   0.01    3.4
2017/07/23 10:59:43.600   2773745.6057   1652345.4880   5482224.8097   1  19   0.0006   0.0005   0.0012   0.0005   0.0007   0.0009   0.01    3.4
2017/07/23 10:59:43.800   2773745.6057   1652345.4880   5482224.8098   1  19   0.0006   0.0005   0.0012   0.0005   0.0007   0.0009   0.01    3.4
2017/07/23 10:59:44.000   2773745.6058   1652345.4880   5482224.8098   1  19   0.0006   0.0005   0.0012   0.0005   0.0007   0.0009   0.01    3.4
2017/07/23 10:59:44.200   2773745.6058   1652345.4880   5482224.8098   1  19   0.0006   0.0005   0.0012   0.0005   0.0007   0.0009   0.01    3.4
2017/07/23 10:59:44.400   2773745.6058   1652345.4880   5482224.8098   1  19   0.0006   0.0005   0.0012   0.0005   0.0007   0.0009   0.01    3.4
2017/07/23 10:59:44.600   2773745.6058   1652345.4880   5482224.8099   1  19   0.0006   0.0005   0.0012   0.0005   0.0007   0.0009   0.01    3.4
2017/07/23 10:59:44.800   2773745.6051   1652345.4876   5482224.8082   1  19   0.0007   0.0005   0.0013   0.0005   0.0007   0.0009   0.01    5.7
2017/07/23 10:59:45.000   2773745.6052   1652345.4876   5482224.8082   1  19   0.0007   0.0005   0.0013   0.0005   0.0007   0.0009   0.01    5.7
2017/07/23 10:59:45.200   2773745.6052   1652345.4876   5482224.8083   1  19   0.0007   0.0005   0.0013   0.0005   0.0007   0.0009   0.01    5.7
2017/07/23 10:59:45.400   2773745.6052   1652345.4876   5482224.8083   1  19   0.0007   0.0005   0.0013   0.0005   0.0007   0.0009   0.01    5.7
2017/07/23 10:59:45.600   2773745.6052   1652345.4876   5482224.8083   1  19   0.0007   0.0005   0.0013   0.0005   0.0007   0.0009   0.01    5.7
2017/07/23 10:59:45.800   2773745.6052   1652345.4876   5482224.8084   1  19   0.0007   0.0005   0.0013   0.0005   0.0007   0.0009   0.01    5.7
2017/07/23 10:59:46.000   2773745.6052   1652345.4876   5482224.8084   1  19   0.0007   0.0005   0.0013   0.0005   0.0007   0.0009   0.01    5.7
2017/07/23 10:59:46.200   2773745.6053   1652345.4877   5482224.8085   1  19   0.0007   0.0005   0.0013   0.0005   0.0007   0.0009   0.01    5.6
2017/07/23 10:59:46.400   2773745.6053   1652345.4877   5482224.8085   1  19   0.0007   0.0005   0.0013   0.0005   0.0007   0.0009   0.01    5.6
2017/07/23 10:59:46.600   2773745.6053   1652345.4877   5482224.8086   1  19   0.0007   0.0005   0.0013   0.0005   0.0007   0.0009   0.01    5.6
2017/07/23 10:59:46.800   2773745.6053   1652345.4877   5482224.8086   1  19   0.0007   0.0005   0.0013   0.0005   0.0007   0.0009   0.01    5.6
2017/07/23 10:59:47.000   2773745.6053   1652345.4877   5482224.8086   1  19   0.0007   0.0005   0.0013   0.0005   0.0007   0.0009   0.01    5.6
2017/07/23 10:59:47.200   2773745.6053   1652345.4877   5482224.8086   1  19   0.0007   0.0005   0.0013   0.0005   0.0007   0.0009   0.01    5.6
2017/07/23 10:59:47.400   2773745.6054   1652345.4877   5482224.8087   1  19   0.0007   0.0005   0.0013   0.0005   0.0007   0.0009   0.01    5.6
2017/07/23 10:59:47.600   2773745.6054   1652345.4877   5482224.8087   1  19   0.0007   0.0005   0.0013   0.0005   0.0007   0.0009   0.01    5.6
2017/07/23 10:59:47.800   2773745.6054   1652345.4877   5482224.8087   1  19   0.0006   0.0005   0.0013   0.0005   0.0007   0.0009   0.01    5.6
2017/07/23 10:59:48.000   2773745.6054   1652345.4877   5482224.8088   1  19   0.0006   0.0005   0.0013   0.0005   0.0007   0.0009   0.01    5.6
2017/07/23 10:59:48.200   2773745.6054   1652345.4877   5482224.8088   1  19   0.0006   0.0005   0.0013   0.0005   0.0007   0.0009   0.01    5.6
2017/07/23 10:59:48.400   2773745.6054   1652345.4878   5482224.8089   1  19   0.0006   0.0005   0.0013   0.0005   0.0007   0.0009   0.01    5.6
2017/07/23 10:59:48.600   2773745.6054   1652345.4878   5482224.8089   1  19   0.0006   0.0005   0.0013   0.0005   0.0007   0.0009   0.01    5.6
2017/07/23 10:59:48.800   2773745.6055   1652345.4878   5482224.8089   1  19   0.0006   0.0005   0.0013   0.0005   0.0007   0.0009   0.01    5.6
2017/07/23 10:59:49.000   2773745.6055   1652345.4878   5482224.8090   1  19   0.0006   0.0005   0.0013   0.0005   0.0007   0.0009   0.01    5.6
2017/07/23 10:59:49.200   2773745.6055   1652345.4878   5482224.8090   1  19   0.0006   0.0005   0.0013   0.0005   0.0007   0.0009   0.01    5.6
2017/07/23 10:59:49.400   2773745.6055   1652345.4878   5482224.8090   1  19   0.0006   0.0005   0.0013   0.0005   0.0007   0.0009   0.01    5.6
2017/07/23 10:59:49.600   2773745.6055   1652345.4878   5482224.8090   1  19   0.0006   0.0005   0.0013   0.0005   0.0007   0.0009   0.01    5.6
2017/07/23 10:59:49.800   2773745.6055   1652345.4878   5482224.8090   1  19   0.0006   0.0005   0.0013   0.0005   0.0007   0.0009   0.01    5.6
2017/07/23 10:59:50.000   2773745.6055   1652345.4878   5482224.8091   1  19   0.0006   0.0005   0.0013   0.0005   0.0007   0.0009   0.01    5.6
2017/07/23 10:59:50.200   2773745.6055   1652345.4878   5482224.8091   1  19   0.0006   0.0005   0.0013   0.0005   0.0007   0.0009   0.01    5.6
2017/07/23 10:59:50.400   2773745.6055   1652345.4879   5482224.8091   1  19   0.0006   0.0005   0.0013   0.0005   0.0007   0.0009   0.01    5.6
2017/07/23 10:59:50.600   2773745.6056   1652345.4879   5482224.8092   1  19   0.0006   0.0005   0.0013   0.0005   0.0007   0.0009   0.01    5.6
2017/07/23 10:59:50.800   2773745.6056   1652345.4879   5482224.8092   1  19   0.0006   0.0005   0.0013   0.0005   0.0007   0.0009   0.01    5.6
2017/07/23 10:59:51.000   2773745.6056   1652345.4879   5482224.8092   1  19   0.0006   0.0005   0.0013   0.0005   0.0007   0.0009   0.01    5.6
2017/07/23 10:59:51.200   2773745.6056   1652345.4879   5482224.8092   1  19   0.0006   0.0005   0.0013   0.0005   0.0007   0.0009   0.01    5.6
2017/07/23 10:59:51.400   2773745.6056   1652345.4879   5482224.8092   1  19   0.0006   0.0005   0.0013   0.0005   0.0007   0.0009   0.01    5.6
2017/07/23 10:59:51.600   2773745.6056   1652345.4879   5482224.8093   1  19   0.0006   0.0005   0.0013   0.0005   0.0007   0.0009   0.01    5.6
2017/07/23 10:59:51.800   2773745.6056   1652345.4879   5482224.8093   1  19   0.0006   0.0005   0.0013   0.0005   0.0007   0.0009   0.01    5.6
2017/07/23 10:59:52.000   2773745.6056   1652345.4879   5482224.8093   1  19   0.0006   0.0005   0.0013   0.0005   0.0007   0.0009   0.01    5.6
2017/07/23 10:59:52.200   2773745.6056   1652345.4879   5482224.8093   1  19   0.0006   0.0005   0.0013   0.0005   0.0007   0.0009   0.01    5.6
2017/07/23 10:59:52.400   2773745.6057   1652345.4879   5482224.8094   1  19   0.0006   0.0005   0.0013   0.0005   0.0007   0.0009   0.01    5.6
2017/07/23 10:59:52.600   2773745.6057   1652345.4879   5482224.8094   1  19   0.0006   0.0005   0.0013   0.0005   0.0007   0.0009   0.01    5.5
2017/07/23 10:59:52.800   2773745.6057   1652345.4880   5482224.8094   1  19   0.0006   0.0005   0.0013   0.0005   0.0007   0.0009   0.01    5.5
2017/07/23 10:59:53.000   2773745.6057   1652345.4880   5482224.8094   1  19   0.0006   0.0005   0.0013   0.0005   0.0007   0.0009   0.01    5.5
2017/07/23 10:59:53.200   2773745.6057   1652345.4880   5482224.8095   1  19   0.0006   0.0005   0.0013   0.0005   0.0007   0.0009   0.01    5.5
2017/07/23 10:59:53.400   2773745.6057   1652345.4880   5482224.8095   1  19   0.0006   0.0005   0.0013   0.0005   0.0007   0.0009   0.01    5.5
2017/07/23 10:59:53.600   2773745.6057   1652345.4880   5482224.8095   1  19   0.0006   0.0005   0.0013   0.0005   0.0007   0.0009   0.01    5.5
2017/07/23 10:59:53.800   2773745.6057   1652345.4880   5482224.8096   1  19   0.0006   0.0005   0.0013   0.0005   0.0007   0.0009   0.01    5.5
2017/07/23 10:59:54.000   2773745.6058   1652345.4880   5482224.8096   1  19   0.0006   0.0005   0.0013   0.0005   0.0007   0.0009   0.01    5.5
2017/07/23 10:59:54.200   2773745.6058   1652345.4880   5482224.8096   1  19   0.0006   0.0005   0.0013   0.0005   0.0007   0.0009   0.01    5.5
2017/07/23 10:59:54.400   2773745.6058   1652345.4880   5482224.8097   1  19   0.0006   0.0005   0.0013   0.0005   0.0007   0.0009   0.01    5.5
2017/07/23 10:59:54.600   2773745.6058   1652345.4880   5482224.8097   1  19   0.0006   0.0005   0.0013   0.0005   0.0007   0.0009   0.01    5.5
2017/07/23 10:59:54.800   2773745.6058   1652345.4880   5482224.8097   1  19   0.0006   0.0005   0.0013   0.0005   0.0007   0.0009   0.01    5.5
2017/07/23 10:59:55.000   2773745.6058   1652345.4881   5482224.8097   1  19   0.0006   0.0005   0.0013   0.0005   0.0007   0.0009   0.01    5.5
2017/07/23 10:59:55.200   2773745.6058   1652345.4881   5482224.8097   1  19   0.0006   0.0005   0.0013   0.0005   0.0007   0.0009   0.01    5.5
2017/07/23 10:59:55.400   2773745.6058   1652345.4881   5482224.8098   1  19   0.0006   0.0005   0.0013   0.0005   0.0007   0.0009   0.01    5.5
2017/07/23 10:59:55.600   2773745.6058   1652345.4881   5482224.8098   1  19   0.0006   0.0005   0.0013   0.0005   0.0007   0.0009   0.01    5.5
2017/07/23 10:59:55.800   2773745.6059   1652345.4881   5482224.8098   1  19   0.0006   0.0005   0.0013   0.0005   0.0007   0.0009   0.01    5.5
2017/07/23 10:59:56.000   2773745.6059   1652345.4881   5482224.8099   1  19   0.0006   0.0005   0.0013   0.0005   0.0007   0.0009   0.01    5.5
2017/07/23 10:59:56.200   2773745.6059   1652345.4881   5482224.8099   1  19   0.0006   0.0005   0.0013   0.0005   0.0007   0.0009   0.01    5.5
2017/07/23 10:59:56.400   2773745.6059   1652345.4881   5482224.8099   1  19   0.0006   0.0005   0.0013   0.0005   0.0007   0.0009   0.01    5.5
2017/07/23 10:59:56.600   2773745.6059   1652345.4881   5482224.8099   1  19   0.0006   0.0005   0.0013   0.0005   0.0007   0.0009   0.01    5.5
2017/07/23 10:59:56.800   2773745.6059   1652345.4881   5482224.8100   1  19   0.0006   0.0005   0.0013   0.0005   0.0007   0.0009   0.01    5.5
2017/07/23 10:59:57.000   2773745.6059   1652345.4881   5482224.8100   1  19   0.0006   0.0005   0.0013   0.0005   0.0007   0.0009   0.01    5.5
2017/07/23 10:59:57.200   2773745.6059   1652345.4881   5482224.8100   1  19   0.0006   0.0005   0.0013   0.0005   0.0007   0.0009   0.01    5.5
2017/07/23 10:59:57.400   2773745.6060   1652345.4881   5482224.8100   1  19   0.0006   0.0005   0.0013   0.0005   0.0007   0.0009   0.01    5.5
2017/07/23 10:59:57.600   2773745.6060   1652345.4881   5482224.8101   1  19   0.0006   0.0005   0.0013   0.0005   0.0007   0.0009   0.01    5.5
2017/07/23 10:59:57.800   2773745.6060   1652345.4881   5482224.8101   1  19   0.0006   0.0005   0.0013   0.0005   0.0007   0.0009   0.01    5.5
2017/07/23 10:59:58.000   2773745.6060   1652345.4881   5482224.8101   1  19   0.0006   0.0005   0.0013   0.0005   0.0007   0.0009   0.01    5.5
2017/07/23 10:59:58.200   2773745.6060   1652345.4881   5482224.8102   1  19   0.0006   0.0005   0.0013   0.0005   0.0007   0.0009   0.01    5.5
2017/07/23 10:59:58.400   2773745.6060   1652345.4882   5482224.8102   1  19   0.0006   0.0005   0.0013   0.0005   0.0007   0.0009   0.01    5.4
2017/07/23 10:59:58.600   2773745.6061   1652345.4882   5482224.8102   1  19   0.0006   0.0005   0.0013   0.0005   0.0007   0.0009   0.01    5.4
2017/07/23 10:59:58.800   2773745.6061   1652345.4882   5482224.8103   1  19   0.0006   0.0005   0.0013   0.0005   0.0007   0.0009   0.01    5.4
2017/07/23 10:59:59.000   2773745.6061   1652345.4882   5482224.8103   1  19   0.0006   0.0005   0.0013   0.0005   0.0007   0.0009   0.01    5.4
2017/07/23 10:59:59.200   2773745.6061   1652345.4882   5482224.8103   1  19   0.0006   0.0005   0.0013   0.0005   0.0007   0.0009   0.01    5.4
2017/07/23 10:59:59.400   2773745.6061   1652345.4882   5482224.8104   1  19   0.0006   0.0005   0.0013   0.0005   0.0007   0.0009   0.01    5.4
2017/07/23 10:59:59.600   2773745.6061   1652345.4882   5482224.8104   1  19   0.0006   0.0005   0.0013   0.0005   0.0007   0.0009   0.01    5.4
2017/07/23 10:59:59.800   2773745.6061   1652345.4882   5482224.8104   1  19   0.0006   0.0005   0.0013   0.0005   0.0007   0.0009   0.01    5.4
2017/07/23 11:00:00.000   2773745.6061   1652345.4882   5482224.8105   1  19   0.0006   0.0005   0.0013   0.0005   0.0007   0.0009   0.01    5.4
2017/07/23 11:00:00.200   2773745.6061   1652345.4882   5482224.8105   1  19   0.0006   0.0005   0.0013   0.0005   0.0007   0.0009   0.01    5.4
2017/07/23 11:00:00.400   2773745.6062   1652345.4882   5482224.8105   1  19   0.0006   0.0005   0.0013   0.0005   0.0007   0.0009   0.01    5.4
2017/07/23 11:00:00.600   2773745.6062   1652345.4882   5482224.8105   1  19   0.0006   0.0005   0.0013   0.0005   0.0007   0.0009   0.01    5.4
2017/07/23 11:00:00.800   2773745.6062   1652345.4882   5482224.8105   1  19   0.0006   0.0005   0.0013   0.0005   0.0007   0.0009   0.01    5.4
2017/07/23 11:00:01.000   2773745.6062   1652345.4882   5482224.8106   1  19   0.0006   0.0005   0.0013   0.0005   0.0007   0.0009   0.01    5.4
2017/07/23 11:00:01.200   2773745.6062   1652345.4882   5482224.8106   1  19   0.0006   0.0005   0.0013   0.0005   0.0007   0.0009   0.01    5.4
2017/07/23 11:00:01.400   2773745.6062   1652345.4882   5482224.8106   1  19   0.0006   0.0005   0.0013   0.0005   0.0007   0.0009   0.01    5.4
2017/07/23 11:00:01.600   2773745.6062   1652345.4882   5482224.8106   1  19   0.0006   0.0005   0.0013   0.0005   0.0007   0.0009   0.01    5.4
2017/07/23 11:00:01.800   2773745.6062   1652345.4882   5482224.8107   1  19   0.0006   0.0005   0.0013   0.0005   0.0007   0.0009   0.01    5.4
2017/07/23 11:00:02.000   2773745.6062   1652345.4882   5482224.8107   1  19   0.0006   0.0005   0.0013   0.0005   0.0007   0.0009   0.01    5.4
2017/07/23 11:00:02.200   2773745.6062   1652345.4882   5482224.8107   1  19   0.0006   0.0005   0.0013   0.0005   0.0007   0.0009   0.01    5.4
2017/07/23 11:00:02.400   2773745.6062   1652345.4882   5482224.8108   1  19   0.0006   0.0005   0.0013   0.0005   0.0007   0.0009   0.01    5.4
2017/07/23 11:00:02.600   2773745.6063   1652345.4882   5482224.8108   1  19   0.0006   0.0005   0.0013   0.0005   0.0007   0.0009   0.01    5.4
2017/07/23 11:00:02.800   2773745.6063   1652345.4882   5482224.8108   1  19   0.0006   0.0005   0.0013   0.0005   0.0007   0.0009   0.01    5.4
2017/07/23 11:00:03.000   2773745.6063   1652345.4882   5482224.8108   1  19   0.0006   0.0005   0.0013   0.0005   0.0007   0.0009   0.01    5.4
2017/07/23 11:00:03.200   2773745.6063   1652345.4882   5482224.8109   1  19   0.0006   0.0005   0.0013   0.0005   0.0007   0.0009   0.01    5.4
2017/07/23 11:00:03.400   2773745.6063   1652345.4882   5482224.8109   1  19   0.0006   0.0005   0.0013   0.0005   0.0007   0.0009   0.01    5.4
2017/07/23 11:00:03.600   2773745.6063   1652345.4882   5482224.8109   1  19   0.0006   0.0005   0.0013   0.0005   0.0007   0.0009   0.01    5.4
2017/07/23 11:00:03.800   2773745.6063   1652345.4882   5482224.8110   1  19   0.0006   0.0005   0.0013   0.0005   0.0007   0.0009   0.01    5.4
2017/07/23 11:00:04.000   2773745.6063   1652345.4882   5482224.8110   1  19   0.0006   0.0005   0.0013   0.0005   0.0007   0.0009   0.01    5.4
2017/07/23 11:00:04.200   2773745.6063   1652345.4882   5482224.8110   1  19   0.0006   0.0005   0.0013   0.0005   0.0007   0.0009   0.01    5.4
2017/07/23 11:00:04.400   2773745.6063   1652345.4882   5482224.8110   1  19   0.0006   0.0005   0.0013   0.0005   0.0007   0.0009   0.01    5.4
2017/07/23 11:00:04.600   2773745.6063   1652345.4882   5482224.8111   1  19   0.0006   0.0005   0.0013   0.0005   0.0007   0.0009   0.01    5.4
2017/07/23 11:00:04.800   2773745.6063   1652345.4882   5482224.8111   1  19   0.0006   0.0005   0.0013   0.0005   0.0007   0.0009   0.01    5.4
