% program   : RTKLIB ver.2.4.3 Emlid
% inp file  : /home/artur/RTKLIB/test/test/static/6_pp9a/rover.obs
% inp file  : /home/artur/RTKLIB/test/test/static/6_pp9a/base.obs
% inp file  : /home/artur/RTKLIB/test/test/static/6_pp9a/rover.nav
% obs start : 2017/07/23 09:35:56.0 GPST (week1959  34556.0s)
% obs end   : 2017/07/23 09:46:09.2 GPST (week1959  35169.2s)
% pos mode  : static
% freqs     : L1
% solution  : combined
% elev mask : 15.0 deg
% dynamics  : on
% tidecorr  : off
% ionos opt : broadcast
% tropo opt : est ztd
% ephemeris : broadcast
% navi sys  : gps glonass galileo qzss beidou sbas
% amb res   : continuous
% amb glo   : off
% val thres : 3.0
% antenna1  :                       ( 0.0000  0.0000  0.0000)
% antenna2  :                       ( 0.0000  0.0000  0.0000)
% ref pos   :  2773909.8712  1654076.4507  5481627.6877
%
% (x/y/z-ecef=WGS84,Q=1:fix,2:float,3:sbas,4:dgps,5:single,6:ppp,ns=# of satellites)
%  GPST                      x-ecef(m)      y-ecef(m)      z-ecef(m)   Q  ns   sdx(m)   sdy(m)   sdz(m)  sdxy(m)  sdyz(m)  sdzx(m) age(s)  ratio
2017/07/23 09:35:56.000   2773707.7652   1653135.4978   5481976.1163   5  17   1.5833   1.4480   3.1038   0.7702   1.5256   0.7490 -198.21    0.0
2017/07/23 09:35:56.200   2773707.8810   1653135.6121   5481976.5554   5  17   1.5833   1.4480   3.1038   0.7702   1.5256   0.7491 -198.01    0.0
2017/07/23 09:35:56.400   2773707.9396   1653135.6265   5481976.6267   5  17   1.5833   1.4481   3.1039   0.7702   1.5256   0.7491 -197.81    0.0
2017/07/23 09:35:56.600   2773707.9599   1653135.6669   5481976.7814   5  17   1.5833   1.4481   3.1039   0.7702   1.5257   0.7492 -197.61    0.0
2017/07/23 09:35:56.800   2773708.0179   1653135.6969   5481976.8102   5  17   1.5833   1.4481   3.1040   0.7702   1.5257   0.7492 -197.41    0.0
2017/07/23 09:35:57.000   2773708.0302   1653135.6159   5481976.7355   5  17   1.5833   1.4481   3.1040   0.7703   1.5258   0.7493 -197.21    0.0
2017/07/23 09:35:57.200   2773708.0684   1653135.6999   5481976.8179   5  17   1.5833   1.4481   3.1041   0.7703   1.5258   0.7493 -197.01    0.0
2017/07/23 09:35:57.400   2773708.0190   1653135.5745   5481976.5746   5  17   1.5833   1.4481   3.1041   0.7703   1.5258   0.7494 -196.81    0.0
2017/07/23 09:35:57.600   2773708.0727   1653135.5799   5481976.5960   5  17   1.5833   1.4481   3.1042   0.7703   1.5259   0.7494 -196.61    0.0
2017/07/23 09:35:57.800   2773708.0838   1653135.5176   5481976.6423   5  17   1.5833   1.4482   3.1043   0.7703   1.5259   0.7495 -196.41    0.0
2017/07/23 09:35:58.000   2773707.9946   1653135.4378   5481976.4449   5  17   1.5833   1.4482   3.1043   0.7704   1.5259   0.7495 -196.21    0.0
2017/07/23 09:35:58.200   2773707.9648   1653135.4685   5481976.6100   5  17   1.5833   1.4482   3.1044   0.7704   1.5260   0.7496 -196.01    0.0
2017/07/23 09:35:58.400   2773707.8793   1653135.4874   5481976.5514   5  17   1.5833   1.4482   3.1044   0.7704   1.5260   0.7496 -195.81    0.0
2017/07/23 09:35:58.600   2773707.8016   1653135.3433   5481976.4574   5  17   1.5833   1.4482   3.1045   0.7704   1.5261   0.7497 -195.61    0.0
2017/07/23 09:35:58.800   2773707.7904   1653135.3262   5481976.5869   5  17   1.5833   1.4482   3.1045   0.7704   1.5261   0.7497 -195.41    0.0
2017/07/23 09:35:59.000   2773707.8407   1653135.2123   5481976.6014   5  17   1.5833   1.4482   3.1046   0.7705   1.5261   0.7498 -195.21    0.0
2017/07/23 09:35:59.200   2773707.7556   1653135.1406   5481976.5882   5  17   1.5833   1.4483   3.1046   0.7705   1.5262   0.7498 -195.01    0.0
2017/07/23 09:35:59.400   2773707.6625   1653135.1485   5481976.5675   5  17   1.5833   1.4483   3.1047   0.7705   1.5262   0.7499 -194.81    0.0
2017/07/23 09:35:59.600   2773707.7219   1653135.2788   5481976.7968   5  17   1.5833   1.4483   3.1047   0.7705   1.5262   0.7499 -194.61    0.0
2017/07/23 09:35:59.800   2773707.7102   1653135.1811   5481976.7812   5  17   1.5833   1.4483   3.1048   0.7705   1.5263   0.7500 -194.41    0.0
2017/07/23 09:36:00.000   2773707.6421   1653135.1307   5481976.9788   5  17   1.5833   1.4483   3.1048   0.7705   1.5263   0.7500 -194.21    0.0
2017/07/23 09:36:00.200   2773707.6091   1653135.0802   5481977.2095   5  17   1.5833   1.4483   3.1049   0.7706   1.5264   0.7501 -194.01    0.0
2017/07/23 09:36:00.400   2773707.5039   1653135.0328   5481977.2213   5  17   1.5833   1.4483   3.1050   0.7706   1.5264   0.7501 -193.81    0.0
2017/07/23 09:36:00.600   2773707.5012   1653135.0959   5481977.2320   5  17   1.5833   1.4484   3.1050   0.7706   1.5264   0.7502 -193.61    0.0
2017/07/23 09:36:00.800   2773707.4936   1653135.1406   5481977.3688   5  17   1.5833   1.4484   3.1051   0.7706   1.5265   0.7503 -193.41    0.0
2017/07/23 09:36:01.000   2773707.5698   1653135.1578   5481977.2335   5  17   1.5833   1.4484   3.1051   0.7706   1.5265   0.7503 -193.21    0.0
2017/07/23 09:36:01.200   2773707.6639   1653135.1156   5481977.1959   5  17   1.5833   1.4484   3.1052   0.7707   1.5265   0.7504 -193.01    0.0
2017/07/23 09:36:01.400   2773707.6283   1653135.0722   5481977.3507   5  17   1.5833   1.4484   3.1052   0.7707   1.5266   0.7504 -192.81    0.0
2017/07/23 09:36:01.600   2773707.6544   1653135.1794   5481977.3135   5  17   1.5833   1.4484   3.1053   0.7707   1.5266   0.7505 -192.61    0.0
2017/07/23 09:36:01.800   2773707.6560   1653135.1629   5481977.2505   5  17   1.5833   1.4484   3.1053   0.7707   1.5267   0.7505 -192.41    0.0
2017/07/23 09:36:02.000   2773707.6288   1653135.1856   5481977.2189   5  17   1.5833   1.4484   3.1054   0.7707   1.5267   0.7506 -192.21    0.0
2017/07/23 09:36:02.200   2773707.5889   1653135.0927   5481976.9498   5  17   1.5833   1.4485   3.1054   0.7708   1.5267   0.7506 -192.01    0.0
2017/07/23 09:36:02.400   2773707.5035   1653135.0009   5481976.6816   5  17   1.5833   1.4485   3.1055   0.7708   1.5268   0.7507 -191.81    0.0
2017/07/23 09:36:02.600   2773707.4367   1653134.8477   5481976.5290   5  17   1.5833   1.4485   3.1055   0.7708   1.5268   0.7507 -191.61    0.0
2017/07/23 09:36:02.800   2773707.4992   1653134.8895   5481976.7589   5  17   1.5833   1.4485   3.1056   0.7708   1.5268   0.7508 -191.41    0.0
2017/07/23 09:36:03.000   2773707.5418   1653134.9015   5481976.9203   5  17   1.5833   1.4485   3.1057   0.7708   1.5269   0.7508 -191.21    0.0
2017/07/23 09:36:03.200   2773707.5378   1653134.8813   5481976.7113   5  17   1.5833   1.4485   3.1057   0.7709   1.5269   0.7509 -191.01    0.0
2017/07/23 09:36:03.400   2773707.5176   1653134.8510   5481976.5813   5  17   1.5833   1.4485   3.1058   0.7709   1.5270   0.7509 -190.81    0.0
2017/07/23 09:36:03.600   2773707.5337   1653134.8872   5481976.6313   5  17   1.5833   1.4486   3.1058   0.7709   1.5270   0.7510 -190.61    0.0
2017/07/23 09:36:03.800   2773707.5054   1653134.8921   5481976.4899   5  17   1.5833   1.4486   3.1059   0.7709   1.5270   0.7510 -190.41    0.0
2017/07/23 09:36:04.000   2773707.4595   1653134.9632   5481976.5871   5  17   1.5833   1.4486   3.1059   0.7709   1.5271   0.7511 -190.21    0.0
2017/07/23 09:36:04.200   2773707.4623   1653135.0497   5481976.4228   5  17   1.5833   1.4486   3.1060   0.7709   1.5271   0.7511 -190.01    0.0
2017/07/23 09:36:04.400   2773707.5536   1653135.1335   5481976.5790   5  17   1.5833   1.4486   3.1060   0.7710   1.5271   0.7512 -189.81    0.0
2017/07/23 09:36:04.600   2773707.5618   1653135.1370   5481976.4032   5  17   1.5833   1.4486   3.1061   0.7710   1.5272   0.7512 -189.61    0.0
2017/07/23 09:36:04.800   2773707.5167   1653135.0594   5481976.3454   5  17   1.5833   1.4486   3.1061   0.7710   1.5272   0.7513 -189.41    0.0
2017/07/23 09:36:05.000   2773707.5167   1653135.0038   5481976.0751   5  17   1.5833   1.4487   3.1062   0.7710   1.5272   0.7513 -189.21    0.0
2017/07/23 09:36:05.200   2773707.4952   1653135.1046   5481976.2078   5  17   1.5834   1.4487   3.1062   0.7710   1.5273   0.7514 -189.01    0.0
2017/07/23 09:36:05.400   2773707.4752   1653135.2091   5481976.4221   5  17   1.5834   1.4487   3.1063   0.7711   1.5273   0.7514 -188.81    0.0
2017/07/23 09:36:05.600   2773707.4951   1653135.2334   5481976.5221   5  17   1.5834   1.4487   3.1064   0.7711   1.5274   0.7515 -188.61    0.0
2017/07/23 09:36:05.800   2773707.4310   1653135.2899   5481976.5689   5  17   1.5834   1.4487   3.1064   0.7711   1.5274   0.7515 -188.41    0.0
2017/07/23 09:36:06.000   2773707.4605   1653135.3347   5481976.7036   5  17   1.5834   1.4487   3.1065   0.7711   1.5274   0.7516 -188.21    0.0
2017/07/23 09:36:06.200   2773707.3835   1653135.3018   5481976.6014   5  17   1.5834   1.4487   3.1065   0.7711   1.5275   0.7516 -188.01    0.0
2017/07/23 09:36:06.400   2773707.3339   1653135.3677   5481976.7487   5  17   1.5834   1.4488   3.1066   0.7712   1.5275   0.7517 -187.81    0.0
2017/07/23 09:36:06.600   2773707.3398   1653135.4036   5481976.6332   5  17   1.5834   1.4488   3.1066   0.7712   1.5275   0.7517 -187.61    0.0
2017/07/23 09:36:06.800   2773707.2553   1653135.4380   5481976.7241   5  17   1.5834   1.4488   3.1067   0.7712   1.5276   0.7518 -187.41    0.0
2017/07/23 09:36:07.000   2773707.1779   1653135.4221   5481976.5604   5  17   1.5834   1.4488   3.1067   0.7712   1.5276   0.7518 -187.21    0.0
2017/07/23 09:36:07.200   2773707.2202   1653135.5527   5481976.6827   5  17   1.5834   1.4488   3.1068   0.7712   1.5277   0.7519 -187.01    0.0
2017/07/23 09:36:07.400   2773707.2509   1653135.7654   5481976.9019   5  17   1.5834   1.4488   3.1068   0.7713   1.5277   0.7519 -186.81    0.0
2017/07/23 09:36:07.600   2773707.1253   1653135.7075   5481976.7868   5  17   1.5834   1.4488   3.1069   0.7713   1.5277   0.7520 -186.61    0.0
2017/07/23 09:36:07.800   2773707.0617   1653135.7710   5481976.8401   5  17   1.5834   1.4489   3.1069   0.7713   1.5278   0.7520 -186.41    0.0
2017/07/23 09:36:08.000   2773706.9771   1653135.8449   5481977.0390   5  17   1.5834   1.4489   3.1070   0.7713   1.5278   0.7521 -186.21    0.0
2017/07/23 09:36:08.200   2773706.9153   1653135.8969   5481977.2273   5  17   1.5834   1.4489   3.1071   0.7713   1.5278   0.7521 -186.01    0.0
2017/07/23 09:36:08.400   2773706.9323   1653135.8282   5481977.3816   5  17   1.5834   1.4489   3.1071   0.7713   1.5279   0.7522 -185.81    0.0
2017/07/23 09:36:08.600   2773707.0732   1653135.9637   5481977.5332   5  17   1.5834   1.4489   3.1072   0.7714   1.5279   0.7522 -185.61    0.0
2017/07/23 09:36:08.800   2773707.1901   1653135.9321   5481977.4915   5  17   1.5834   1.4489   3.1072   0.7714   1.5280   0.7523 -185.41    0.0
2017/07/23 09:36:09.000   2773707.2975   1653135.9606   5481977.6132   5  17   1.5834   1.4489   3.1073   0.7714   1.5280   0.7523 -185.21    0.0
2017/07/23 09:36:09.200   2773707.2563   1653135.9631   5481977.6167   5  17   1.5834   1.4490   3.1073   0.7714   1.5280   0.7524 -185.01    0.0
2017/07/23 09:36:09.400   2773707.0829   1653135.9834   5481977.5714   5  17   1.5834   1.4490   3.1074   0.7714   1.5281   0.7524 -184.81    0.0
2017/07/23 09:36:09.600   2773707.0855   1653135.9786   5481977.6568   5  17   1.5834   1.4490   3.1074   0.7715   1.5281   0.7525 -184.61    0.0
2017/07/23 09:36:09.800   2773707.0105   1653135.9656   5481977.7137   5  17   1.5834   1.4490   3.1075   0.7715   1.5281   0.7525 -184.41    0.0
2017/07/23 09:36:10.000   2773706.9173   1653135.9281   5481978.0561   5  17   1.5834   1.4490   3.1075   0.7715   1.5282   0.7526 -184.21    0.0
2017/07/23 09:36:10.200   2773706.8341   1653135.9294   5481977.8506   5  17   1.5834   1.4490   3.1076   0.7715   1.5282   0.7526 -184.01    0.0
2017/07/23 09:36:10.400   2773706.7817   1653135.9933   5481977.8772   5  17   1.5834   1.4490   3.1076   0.7715   1.5283   0.7527 -183.81    0.0
2017/07/23 09:36:10.600   2773706.6652   1653135.9563   5481977.8148   5  17   1.5834   1.4490   3.1077   0.7716   1.5283   0.7527 -183.61    0.0
2017/07/23 09:36:10.800   2773706.6229   1653136.0120   5481977.8421   5  17   1.5834   1.4491   3.1078   0.7716   1.5283   0.7528 -183.41    0.0
2017/07/23 09:36:11.000   2773706.5503   1653136.0624   5481977.9521   5  17   1.5834   1.4491   3.1078   0.7716   1.5284   0.7528 -183.21    0.0
2017/07/23 09:36:11.200   2773706.5198   1653136.0413   5481977.9710   5  17   1.5834   1.4491   3.1079   0.7716   1.5284   0.7529 -183.01    0.0
2017/07/23 09:36:11.400   2773706.4897   1653136.0745   5481977.9243   5  17   1.5834   1.4491   3.1079   0.7716   1.5284   0.7529 -182.81    0.0
2017/07/23 09:36:11.600   2773706.5319   1653136.1318   5481978.1028   5  17   1.5834   1.4491   3.1080   0.7717   1.5285   0.7530 -182.61    0.0
2017/07/23 09:36:11.800   2773706.5664   1653136.2186   5481978.1817   5  17   1.5834   1.4491   3.1080   0.7717   1.5285   0.7530 -182.41    0.0
2017/07/23 09:36:12.000   2773706.5765   1653136.3389   5481978.1458   5  17   1.5834   1.4491   3.1081   0.7717   1.5285   0.7531 -182.21    0.0
2017/07/23 09:36:12.200   2773706.5064   1653136.4295   5481978.3173   5  17   1.5834   1.4492   3.1081   0.7717   1.5286   0.7531 -182.01    0.0
2017/07/23 09:36:12.400   2773706.4061   1653136.3483   5481978.0471   5  17   1.5834   1.4492   3.1082   0.7717   1.5286   0.7532 -181.81    0.0
2017/07/23 09:36:12.600   2773706.4014   1653136.3562   5481977.9845   5  17   1.5834   1.4492   3.1082   0.7717   1.5287   0.7532 -181.61    0.0
2017/07/23 09:36:12.800   2773706.4608   1653136.4879   5481978.0792   5  17   1.5834   1.4492   3.1083   0.7718   1.5287   0.7533 -181.41    0.0
2017/07/23 09:36:13.000   2773706.4979   1653136.6087   5481978.2990   5  17   1.5834   1.4492   3.1083   0.7718   1.5287   0.7533 -181.21    0.0
2017/07/23 09:36:13.200   2773706.5341   1653136.7845   5481978.5086   5  17   1.5834   1.4492   3.1084   0.7718   1.5288   0.7534 -181.01    0.0
2017/07/23 09:36:13.400   2773706.5209   1653136.8314   5481978.3504   5  17   1.5834   1.4492   3.1084   0.7718   1.5288   0.7534 -180.81    0.0
2017/07/23 09:36:13.600   2773706.4828   1653136.7770   5481978.2619   5  17   1.5834   1.4493   3.1085   0.7718   1.5288   0.7535 -180.61    0.0
2017/07/23 09:36:13.800   2773706.5364   1653136.7722   5481978.2051   5  17   1.5834   1.4493   3.1086   0.7719   1.5289   0.7535 -180.41    0.0
2017/07/23 09:36:14.000   2773706.5418   1653136.7541   5481978.1758   5  17   1.5834   1.4493   3.1086   0.7719   1.5289   0.7536 -180.21    0.0
2017/07/23 09:36:14.200   2773706.4771   1653136.6812   5481978.1513   5  17   1.5834   1.4493   3.1087   0.7719   1.5290   0.7536 -180.01    0.0
2017/07/23 09:36:14.400   2773706.5131   1653136.7139   5481978.3128   5  17   1.5834   1.4493   3.1087   0.7719   1.5290   0.7537 -179.81    0.0
2017/07/23 09:36:14.600   2773706.5202   1653136.6655   5481978.3279   5  17   1.5834   1.4493   3.1088   0.7719   1.5290   0.7537 -179.61    0.0
2017/07/23 09:36:14.800   2773706.5268   1653136.5774   5481978.1235   5  17   1.5834   1.4493   3.1088   0.7720   1.5291   0.7538 -179.41    0.0
2017/07/23 09:36:15.000   2773706.5583   1653136.5757   5481978.0147   5  17   1.5834   1.4494   3.1089   0.7720   1.5291   0.7538 -179.21    0.0
2017/07/23 09:36:15.200   2773706.6381   1653136.6391   5481978.0604   5  17   1.5834   1.4494   3.1089   0.7720   1.5291   0.7539 -179.01    0.0
2017/07/23 09:36:15.400   2773706.5133   1653136.5279   5481977.8910   5  17   1.5834   1.4494   3.1090   0.7720   1.5292   0.7539 -178.81    0.0
2017/07/23 09:36:15.600   2773706.4738   1653136.4657   5481977.7691   5  17   1.5834   1.4494   3.1090   0.7720   1.5292   0.7540 -178.61    0.0
2017/07/23 09:36:15.800   2773706.5736   1653136.5402   5481977.9519   5  17   1.5834   1.4494   3.1091   0.7721   1.5293   0.7540 -178.41    0.0
2017/07/23 09:36:16.000   2773706.6148   1653136.5677   5481978.2215   5  17   1.5834   1.4494   3.1091   0.7721   1.5293   0.7541 -178.21    0.0
2017/07/23 09:36:16.200   2773706.5859   1653136.4888   5481978.4009   5  17   1.5834   1.4494   3.1092   0.7721   1.5293   0.7541 -178.01    0.0
2017/07/23 09:36:16.400   2773706.6436   1653136.5570   5481978.5573   5  17   1.5834   1.4495   3.1092   0.7721   1.5294   0.7542 -177.81    0.0
2017/07/23 09:36:16.600   2773706.6810   1653136.5800   5481978.4430   5  17   1.5834   1.4495   3.1093   0.7721   1.5294   0.7542 -177.61    0.0
2017/07/23 09:36:16.800   2773706.7328   1653136.6305   5481978.3745   5  17   1.5834   1.4495   3.1094   0.7721   1.5294   0.7543 -177.41    0.0
2017/07/23 09:36:17.000   2773706.8052   1653136.7190   5481978.5139   5  17   1.5834   1.4495   3.1094   0.7722   1.5295   0.7543 -177.21    0.0
2017/07/23 09:36:17.200   2773706.7895   1653136.7127   5481978.5473   5  17   1.5834   1.4495   3.1095   0.7722   1.5295   0.7544 -177.01    0.0
2017/07/23 09:36:17.400   2773706.8336   1653136.8225   5481978.5885   5  17   1.5835   1.4495   3.1095   0.7722   1.5295   0.7544 -176.81    0.0
2017/07/23 09:36:17.600   2773706.8338   1653136.9119   5481978.7424   5  17   1.5835   1.4495   3.1096   0.7722   1.5296   0.7545 -176.61    0.0
2017/07/23 09:36:17.800   2773706.8272   1653136.8914   5481978.5897   5  17   1.5835   1.4496   3.1096   0.7722   1.5296   0.7545 -176.41    0.0
2017/07/23 09:36:18.000   2773706.7550   1653136.8760   5481978.6360   5  17   1.5835   1.4496   3.1097   0.7723   1.5297   0.7546 -176.21    0.0
2017/07/23 09:36:18.200   2773706.6295   1653136.7156   5481978.4894   5  17   1.5835   1.4496   3.1097   0.7723   1.5297   0.7547 -176.01    0.0
2017/07/23 09:36:18.400   2773706.6426   1653136.7986   5481978.5937   5  17   1.5835   1.4496   3.1098   0.7723   1.5297   0.7547 -175.81    0.0
2017/07/23 09:36:18.600   2773706.7705   1653136.8812   5481978.6438   5  17   1.5835   1.4496   3.1098   0.7723   1.5298   0.7548 -175.61    0.0
2017/07/23 09:36:18.800   2773706.7893   1653136.7473   5481978.5166   5  17   1.5835   1.4496   3.1099   0.7723   1.5298   0.7548 -175.41    0.0
2017/07/23 09:36:19.000   2773706.7282   1653136.7367   5481978.6162   5  17   1.5835   1.4496   3.1099   0.7724   1.5298   0.7549 -175.21    0.0
2017/07/23 09:36:19.200   2773706.6500   1653136.7116   5481978.5934   5  17   1.5835   1.4496   3.1100   0.7724   1.5299   0.7549 -175.01    0.0
2017/07/23 09:36:19.400   2773706.5859   1653136.7102   5481978.5164   5  17   1.5835   1.4497   3.1100   0.7724   1.5299   0.7550 -174.81    0.0
2017/07/23 09:36:19.600   2773706.5914   1653136.6859   5481978.2721   5  17   1.5835   1.4497   3.1101   0.7724   1.5300   0.7550 -174.61    0.0
2017/07/23 09:36:19.800   2773706.5439   1653136.6535   5481978.3235   5  17   1.5835   1.4497   3.1102   0.7724   1.5300   0.7551 -174.41    0.0
2017/07/23 09:36:20.000   2773706.5782   1653136.6681   5481978.4623   5  17   1.5835   1.4497   3.1102   0.7725   1.5300   0.7551 -174.21    0.0
2017/07/23 09:36:20.200   2773706.6216   1653136.5822   5481978.5694   5  17   1.5835   1.4497   3.1103   0.7725   1.5301   0.7552 -174.01    0.0
2017/07/23 09:36:20.400   2773706.5841   1653136.5547   5481978.5988   5  17   1.5835   1.4497   3.1103   0.7725   1.5301   0.7552 -173.81    0.0
2017/07/23 09:36:20.600   2773706.6461   1653136.6523   5481978.7540   5  17   1.5835   1.4497   3.1104   0.7725   1.5301   0.7553 -173.61    0.0
2017/07/23 09:36:20.800   2773706.7387   1653136.6765   5481978.7402   5  17   1.5835   1.4498   3.1104   0.7725   1.5302   0.7553 -173.41    0.0
2017/07/23 09:36:21.000   2773706.7031   1653136.6509   5481978.6902   5  17   1.5835   1.4498   3.1105   0.7726   1.5302   0.7554 -173.21    0.0
2017/07/23 09:36:21.200   2773706.8173   1653136.6570   5481978.6198   5  17   1.5835   1.4498   3.1105   0.7726   1.5302   0.7554 -173.01    0.0
2017/07/23 09:36:21.400   2773706.8630   1653136.7564   5481978.7051   5  17   1.5835   1.4498   3.1106   0.7726   1.5303   0.7555 -172.81    0.0
2017/07/23 09:36:21.600   2773706.8707   1653136.7686   5481978.6984   5  17   1.5835   1.4498   3.1106   0.7726   1.5303   0.7555 -172.61    0.0
2017/07/23 09:36:21.800   2773706.8692   1653136.7046   5481978.5761   5  17   1.5835   1.4498   3.1107   0.7726   1.5304   0.7556 -172.41    0.0
2017/07/23 09:36:22.000   2773706.8231   1653136.7314   5481978.4581   5  17   1.5835   1.4498   3.1107   0.7726   1.5304   0.7556 -172.21    0.0
2017/07/23 09:36:22.200   2773706.8029   1653136.7162   5481978.2346   5  17   1.5835   1.4499   3.1108   0.7727   1.5304   0.7557 -172.01    0.0
2017/07/23 09:36:22.400   2773706.8245   1653136.7453   5481978.1381   5  17   1.5835   1.4499   3.1108   0.7727   1.5305   0.7557 -171.81    0.0
2017/07/23 09:36:22.600   2773706.8318   1653136.7928   5481978.1956   5  17   1.5835   1.4499   3.1109   0.7727   1.5305   0.7558 -171.61    0.0
2017/07/23 09:36:22.800   2773706.8753   1653136.8361   5481978.0177   5  17   1.5835   1.4499   3.1110   0.7727   1.5305   0.7558 -171.41    0.0
2017/07/23 09:36:23.000   2773706.8945   1653136.8685   5481978.1223   5  17   1.5835   1.4499   3.1110   0.7727   1.5306   0.7559 -171.21    0.0
2017/07/23 09:36:23.200   2773706.8525   1653136.8161   5481978.0155   5  17   1.5835   1.4499   3.1111   0.7728   1.5306   0.7559 -171.01    0.0
2017/07/23 09:36:23.400   2773706.9036   1653136.7910   5481977.8722   5  18   1.5835   1.4499   3.1111   0.7728   1.5307   0.7560 -170.81    0.0
2017/07/23 09:36:23.600   2773706.8279   1653136.7106   5481977.6599   5  18   1.5835   1.4500   3.1112   0.7728   1.5307   0.7560 -170.61    0.0
2017/07/23 09:36:23.800   2773706.8530   1653136.6903   5481977.4519   5  17   1.5835   1.4500   3.1112   0.7728   1.5307   0.7561 -170.41    0.0
2017/07/23 09:36:24.000   2773706.8699   1653136.6775   5481977.6309   5  17   1.5835   1.4500   3.1113   0.7728   1.5308   0.7561 -170.21    0.0
2017/07/23 09:36:24.200   2773706.7867   1653136.6456   5481977.6451   5  17   1.5835   1.4500   3.1113   0.7729   1.5308   0.7562 -170.01    0.0
2017/07/23 09:36:24.400   2773706.7229   1653136.6207   5481977.6116   5  17   1.5835   1.4500   3.1114   0.7729   1.5308   0.7562 -169.81    0.0
2017/07/23 09:36:24.600   2773706.7140   1653136.6305   5481977.8872   5  17   1.5835   1.4500   3.1114   0.7729   1.5309   0.7563 -169.61    0.0
2017/07/23 09:36:24.800   2773706.6593   1653136.6326   5481977.7532   5  17   1.5835   1.4500   3.1115   0.7729   1.5309   0.7563 -169.41    0.0
2017/07/23 09:36:25.000   2773706.6999   1653136.6554   5481977.4774   5  17   1.5835   1.4501   3.1115   0.7729   1.5309   0.7564 -169.21    0.0
2017/07/23 09:36:25.200   2773706.7076   1653136.6922   5481977.4463   5  17   1.5835   1.4501   3.1116   0.7730   1.5310   0.7564 -169.01    0.0
2017/07/23 09:36:25.400   2773706.7162   1653136.7849   5481977.5346   5  17   1.5835   1.4501   3.1116   0.7730   1.5310   0.7565 -168.81    0.0
2017/07/23 09:36:25.600   2773706.7661   1653136.7995   5481977.5886   5  17   1.5835   1.4501   3.1117   0.7730   1.5311   0.7565 -168.61    0.0
2017/07/23 09:36:25.800   2773706.8458   1653136.8077   5481977.6192   5  17   1.5835   1.4501   3.1117   0.7730   1.5311   0.7566 -168.41    0.0
2017/07/23 09:36:26.000   2773706.8640   1653136.7617   5481977.5676   5  17   1.5835   1.4501   3.1118   0.7730   1.5311   0.7566 -168.21    0.0
2017/07/23 09:36:26.200   2773706.8277   1653136.7397   5481977.6878   5  17   1.5835   1.4501   3.1119   0.7731   1.5312   0.7567 -168.01    0.0
2017/07/23 09:36:26.400   2773706.8888   1653136.8570   5481977.7266   5  17   1.5835   1.4502   3.1119   0.7731   1.5312   0.7567 -167.81    0.0
2017/07/23 09:36:26.600   2773706.8769   1653136.8276   5481977.5006   5  18   1.5835   1.4502   3.1120   0.7731   1.5312   0.7568 -167.61    0.0
2017/07/23 09:36:26.800   2773706.8674   1653136.7072   5481977.1689   5  18   1.5835   1.4502   3.1120   0.7731   1.5313   0.7568 -167.41    0.0
2017/07/23 09:36:27.000   2773706.8425   1653136.5811   5481977.2393   5  18   1.5835   1.4502   3.1121   0.7731   1.5313   0.7569 -167.21    0.0
2017/07/23 09:36:27.200   2773706.8679   1653136.5388   5481977.1518   5  18   1.5835   1.4502   3.1121   0.7731   1.5314   0.7569 -167.01    0.0
2017/07/23 09:36:27.400   2773706.8232   1653136.4572   5481977.0937   5  18   1.5835   1.4502   3.1122   0.7732   1.5314   0.7570 -166.81    0.0
2017/07/23 09:36:27.600   2773706.7508   1653136.3994   5481976.9901   5  18   1.5835   1.4502   3.1122   0.7732   1.5314   0.7570 -166.61    0.0
2017/07/23 09:36:27.800   2773706.6430   1653136.3155   5481976.7151   5  18   1.5835   1.4503   3.1123   0.7732   1.5315   0.7571 -166.41    0.0
2017/07/23 09:36:28.000   2773706.5597   1653136.2383   5481976.5856   5  18   1.5835   1.4503   3.1123   0.7732   1.5315   0.7571 -166.21    0.0
2017/07/23 09:36:28.200   2773706.7044   1653136.1533   5481976.5037   5  18   1.5835   1.4503   3.1124   0.7732   1.5315   0.7572 -166.01    0.0
2017/07/23 09:36:28.400   2773706.6921   1653136.1025   5481976.7535   5  17   1.5835   1.4503   3.1124   0.7733   1.5316   0.7573 -165.81    0.0
2017/07/23 09:36:28.600   2773706.7660   1653136.1734   5481977.0966   5  17   1.5835   1.4503   3.1125   0.7733   1.5316   0.7573 -165.61    0.0
2017/07/23 09:36:28.800   2773706.6576   1653136.1477   5481977.2367   5  17   1.5835   1.4503   3.1125   0.7733   1.5316   0.7574 -165.41    0.0
2017/07/23 09:36:29.000   2773706.7255   1653136.1989   5481977.4244   5  17   1.5835   1.4503   3.1126   0.7733   1.5317   0.7574 -165.21    0.0
2017/07/23 09:36:29.200   2773706.8041   1653136.2773   5481977.3878   5  17   1.5835   1.4503   3.1126   0.7733   1.5317   0.7575 -165.01    0.0
2017/07/23 09:36:29.400   2773706.7698   1653136.3022   5481977.4614   5  17   1.5836   1.4504   3.1127   0.7734   1.5318   0.7575 -164.81    0.0
2017/07/23 09:36:29.600   2773706.7059   1653136.2882   5481977.5014   5  17   1.5836   1.4504   3.1128   0.7734   1.5318   0.7576 -164.61    0.0
2017/07/23 09:36:29.800   2773706.8432   1653136.3689   5481977.7319   5  17   1.5836   1.4504   3.1128   0.7734   1.5318   0.7576 -164.41    0.0
2017/07/23 09:36:30.000   2773706.7821   1653136.3271   5481977.6618   5  17   1.5836   1.4504   3.1129   0.7734   1.5319   0.7577 -164.21    0.0
2017/07/23 09:36:30.200   2773706.7790   1653136.3504   5481977.5202   5  17   1.5836   1.4504   3.1129   0.7734   1.5319   0.7577 -164.01    0.0
2017/07/23 09:36:30.400   2773706.3463   1653135.6863   5481976.6056   5  16   1.7812   2.2341   3.5941   1.4086   2.3237   1.4280 -163.81    0.0
2017/07/23 09:36:30.600   2773706.3504   1653135.6412   5481976.3929   5  16   1.7812   2.2342   3.5941   1.4086   2.3237   1.4280 -163.61    0.0
2017/07/23 09:36:30.800   2773706.6521   1653136.2284   5481976.8686   5  17   1.5836   1.4505   3.1131   0.7735   1.5320   0.7579 -163.41    0.0
2017/07/23 09:36:31.000   2773706.7655   1653136.2040   5481976.9106   5  17   1.5836   1.4505   3.1131   0.7735   1.5321   0.7579 -163.21    0.0
2017/07/23 09:36:31.200   2773706.7844   1653136.1421   5481977.0671   5  17   1.5836   1.4505   3.1132   0.7735   1.5321   0.7580 -163.01    0.0
2017/07/23 09:36:31.400   2773706.8519   1653136.1249   5481977.1306   5  17   1.5836   1.4505   3.1132   0.7736   1.5321   0.7580 -162.81    0.0
2017/07/23 09:36:31.600   2773706.9042   1653136.0727   5481976.8811   5  17   1.5836   1.4505   3.1133   0.7736   1.5322   0.7581 -162.61    0.0
2017/07/23 09:36:31.800   2773706.9391   1653136.0188   5481976.8378   5  17   1.5836   1.4505   3.1133   0.7736   1.5322   0.7581 -162.41    0.0
2017/07/23 09:36:32.000   2773706.9090   1653136.0633   5481976.9816   5  17   1.5836   1.4505   3.1134   0.7736   1.5322   0.7582 -162.21    0.0
2017/07/23 09:36:32.200   2773706.8841   1653135.9989   5481976.9379   5  17   1.5836   1.4506   3.1134   0.7736   1.5323   0.7582 -162.01    0.0
2017/07/23 09:36:32.400   2773706.9368   1653136.0611   5481977.0298   5  17   1.5836   1.4506   3.1135   0.7737   1.5323   0.7583 -161.81    0.0
2017/07/23 09:36:32.600   2773706.9937   1653136.0228   5481977.0922   5  17   1.5836   1.4506   3.1135   0.7737   1.5323   0.7583 -161.61    0.0
2017/07/23 09:36:32.800   2773706.9508   1653136.0081   5481976.9677   5  17   1.5836   1.4506   3.1136   0.7737   1.5324   0.7584 -161.41    0.0
2017/07/23 09:36:33.000   2773707.1079   1653136.1038   5481977.1228   5  17   1.5836   1.4506   3.1136   0.7737   1.5324   0.7584 -161.21    0.0
2017/07/23 09:36:33.200   2773707.1052   1653136.0811   5481977.2046   5  17   1.5836   1.4506   3.1137   0.7737   1.5325   0.7585 -161.01    0.0
2017/07/23 09:36:33.400   2773707.1028   1653136.0513   5481977.3839   5  17   1.5836   1.4506   3.1138   0.7737   1.5325   0.7585 -160.81    0.0
2017/07/23 09:36:33.600   2773707.0627   1653136.1471   5481977.4342   5  17   1.5836   1.4507   3.1138   0.7738   1.5325   0.7586 -160.61    0.0
2017/07/23 09:36:33.800   2773707.0823   1653136.2909   5481977.5795   5  17   1.5836   1.4507   3.1139   0.7738   1.5326   0.7586 -160.41    0.0
2017/07/23 09:36:34.000   2773707.0911   1653136.3679   5481977.5441   5  17   1.5836   1.4507   3.1139   0.7738   1.5326   0.7587 -160.21    0.0
2017/07/23 09:36:34.200   2773706.9950   1653136.3645   5481977.4644   5  17   1.5836   1.4507   3.1140   0.7738   1.5326   0.7587 -160.01    0.0
2017/07/23 09:36:34.400   2773707.0823   1653136.4326   5481977.6579   5  17   1.5836   1.4507   3.1140   0.7738   1.5327   0.7588 -159.81    0.0
2017/07/23 09:36:34.600   2773707.1426   1653136.4232   5481977.4817   5  17   1.5836   1.4507   3.1141   0.7739   1.5327   0.7588 -159.61    0.0
2017/07/23 09:36:34.800   2773707.0977   1653136.5060   5481977.5417   5  17   1.5836   1.4507   3.1141   0.7739   1.5327   0.7589 -159.41    0.0
2017/07/23 09:36:35.000   2773707.0653   1653136.4625   5481977.5170   5  17   1.5836   1.4508   3.1142   0.7739   1.5328   0.7589 -159.21    0.0
2017/07/23 09:36:35.200   2773707.1026   1653136.4747   5481977.5782   5  17   1.5836   1.4508   3.1142   0.7739   1.5328   0.7590 -159.01    0.0
2017/07/23 09:36:35.400   2773707.0527   1653136.4662   5481977.7438   5  17   1.5836   1.4508   3.1143   0.7739   1.5329   0.7590 -158.81    0.0
2017/07/23 09:36:35.600   2773707.0224   1653136.5602   5481977.9712   5  17   1.5836   1.4508   3.1143   0.7740   1.5329   0.7591 -158.61    0.0
2017/07/23 09:36:35.800   2773706.9730   1653136.5823   5481977.7506   5  17   1.5836   1.4508   3.1144   0.7740   1.5329   0.7591 -158.41    0.0
2017/07/23 09:36:36.000   2773707.0023   1653136.5707   5481977.5832   5  17   1.5836   1.4508   3.1144   0.7740   1.5330   0.7592 -158.21    0.0
2017/07/23 09:36:36.200   2773707.0348   1653136.5305   5481977.5462   5  17   1.5836   1.4508   3.1145   0.7740   1.5330   0.7592 -158.01    0.0
2017/07/23 09:36:36.400   2773706.9170   1653136.5296   5481977.3440   5  17   1.5836   1.4509   3.1145   0.7740   1.5330   0.7593 -157.81    0.0
2017/07/23 09:36:36.600   2773706.9159   1653136.5022   5481977.4230   5  17   1.5836   1.4509   3.1146   0.7741   1.5331   0.7594 -157.61    0.0
2017/07/23 09:36:36.800   2773706.9199   1653136.5348   5481977.6919   5  17   1.5836   1.4509   3.1146   0.7741   1.5331   0.7594 -157.41    0.0
2017/07/23 09:36:37.000   2773706.8842   1653136.5530   5481977.7085   5  17   1.5836   1.4509   3.1147   0.7741   1.5332   0.7595 -157.21    0.0
2017/07/23 09:36:37.200   2773706.9338   1653136.6530   5481977.7865   5  17   1.5836   1.4509   3.1148   0.7741   1.5332   0.7595 -157.01    0.0
2017/07/23 09:36:37.400   2773706.9836   1653136.6644   5481977.7745   5  17   1.5836   1.4509   3.1148   0.7741   1.5332   0.7596 -156.81    0.0
2017/07/23 09:36:37.600   2773706.9701   1653136.6784   5481977.8123   5  17   1.5836   1.4509   3.1149   0.7742   1.5333   0.7596 -156.61    0.0
2017/07/23 09:36:37.800   2773706.9864   1653136.6587   5481977.3384   5  17   1.5836   1.4510   3.1149   0.7742   1.5333   0.7597 -156.41    0.0
2017/07/23 09:36:38.000   2773707.0470   1653136.6746   5481977.2071   5  17   1.5836   1.4510   3.1150   0.7742   1.5333   0.7597 -156.21    0.0
2017/07/23 09:36:38.200   2773707.0992   1653136.7816   5481977.2239   5  17   1.5836   1.4510   3.1150   0.7742   1.5334   0.7598 -156.01    0.0
2017/07/23 09:36:38.400   2773707.1616   1653136.8581   5481977.3258   5  17   1.5836   1.4510   3.1151   0.7742   1.5334   0.7598 -155.81    0.0
2017/07/23 09:36:38.600   2773707.3293   1653137.0970   5481977.6517   5  17   1.5836   1.4510   3.1151   0.7743   1.5334   0.7599 -155.61    0.0
2017/07/23 09:36:38.800   2773707.4513   1653137.1938   5481977.5930   5  17   1.5836   1.4510   3.1152   0.7743   1.5335   0.7599 -155.41    0.0
2017/07/23 09:36:39.000   2773707.3579   1653137.1427   5481977.5880   5  17   1.5836   1.4510   3.1152   0.7743   1.5335   0.7600 -155.21    0.0
2017/07/23 09:36:39.200   2773707.2815   1653137.0743   5481977.3946   5  17   1.5836   1.4510   3.1153   0.7743   1.5336   0.7600 -155.01    0.0
2017/07/23 09:36:39.400   2773707.2717   1653137.1151   5481977.0664   5  17   1.5836   1.4511   3.1153   0.7743   1.5336   0.7601 -154.81    0.0
2017/07/23 09:36:39.600   2773707.1988   1653137.1357   5481976.9479   5  17   1.5836   1.4511   3.1154   0.7744   1.5336   0.7601 -154.61    0.0
2017/07/23 09:36:39.800   2773707.2397   1653137.0980   5481976.9601   5  17   1.5836   1.4511   3.1154   0.7744   1.5337   0.7602 -154.41    0.0
2017/07/23 09:36:40.000   2773707.2806   1653137.0155   5481976.9025   5  17   1.5836   1.4511   3.1155   0.7744   1.5337   0.7602 -154.21    0.0
2017/07/23 09:36:40.200   2773707.2403   1653137.0567   5481977.0783   5  17   1.5836   1.4511   3.1155   0.7744   1.5337   0.7603 -154.01    0.0
2017/07/23 09:36:40.400   2773707.1534   1653137.0606   5481977.1211   5  17   1.5836   1.4511   3.1156   0.7744   1.5338   0.7603 -153.81    0.0
2017/07/23 09:36:40.600   2773707.0836   1653136.9572   5481977.0389   5  17   1.5836   1.4511   3.1156   0.7744   1.5338   0.7604 -153.61    0.0
2017/07/23 09:36:40.800   2773707.0014   1653136.8361   5481976.6675   5  17   1.5836   1.4512   3.1157   0.7745   1.5338   0.7604 -153.41    0.0
2017/07/23 09:36:41.000   2773707.0130   1653136.7517   5481976.5169   5  17   1.5837   1.4512   3.1157   0.7745   1.5339   0.7605 -153.21    0.0
2017/07/23 09:36:41.200   2773707.0428   1653136.6193   5481976.5043   5  17   1.5837   1.4512   3.1158   0.7745   1.5339   0.7605 -153.01    0.0
2017/07/23 09:36:41.400   2773707.0721   1653136.5227   5481976.6101   5  17   1.5837   1.4512   3.1159   0.7745   1.5340   0.7606 -152.81    0.0
2017/07/23 09:36:41.600   2773706.9936   1653136.4879   5481976.4502   5  17   1.5837   1.4512   3.1159   0.7745   1.5340   0.7606 -152.61    0.0
2017/07/23 09:36:41.800   2773706.9433   1653136.5002   5481976.6172   5  17   1.5837   1.4512   3.1160   0.7746   1.5340   0.7607 -152.41    0.0
2017/07/23 09:36:42.000   2773706.9686   1653136.5259   5481976.4948   5  17   1.5837   1.4512   3.1160   0.7746   1.5341   0.7607 -152.21    0.0
2017/07/23 09:36:42.200   2773707.0158   1653136.4680   5481976.1824   5  17   1.5837   1.4513   3.1161   0.7746   1.5341   0.7608 -152.01    0.0
2017/07/23 09:36:42.400   2773707.0188   1653136.3873   5481976.0714   5  17   1.5837   1.4513   3.1161   0.7746   1.5341   0.7608 -151.81    0.0
2017/07/23 09:36:42.600   2773707.0577   1653136.4793   5481976.1401   5  17   1.5837   1.4513   3.1162   0.7746   1.5342   0.7609 -151.61    0.0
2017/07/23 09:36:42.800   2773707.0455   1653136.4392   5481976.1092   5  17   1.5837   1.4513   3.1162   0.7747   1.5342   0.7609 -151.41    0.0
2017/07/23 09:36:43.000   2773707.0362   1653136.4563   5481976.0654   5  17   1.5837   1.4513   3.1163   0.7747   1.5342   0.7610 -151.21    0.0
2017/07/23 09:36:43.200   2773707.0263   1653136.4384   5481975.9175   5  17   1.5837   1.4513   3.1163   0.7747   1.5343   0.7611 -151.01    0.0
2017/07/23 09:36:43.400   2773707.0991   1653136.4837   5481975.9473   5  17   1.5837   1.4513   3.1164   0.7747   1.5343   0.7611 -150.81    0.0
2017/07/23 09:36:43.600   2773707.0799   1653136.4350   5481976.0274   5  17   1.5837   1.4514   3.1164   0.7747   1.5344   0.7612 -150.61    0.0
2017/07/23 09:36:43.800   2773707.1604   1653136.4522   5481976.0796   5  17   1.5837   1.4514   3.1165   0.7748   1.5344   0.7612 -150.41    0.0
2017/07/23 09:36:44.000   2773707.1758   1653136.3874   5481976.2073   5  17   1.5837   1.4514   3.1165   0.7748   1.5344   0.7613 -150.21    0.0
2017/07/23 09:36:44.200   2773707.2327   1653136.4620   5481976.5650   5  17   1.5837   1.4514   3.1166   0.7748   1.5345   0.7613 -150.01    0.0
2017/07/23 09:36:44.400   2773707.3285   1653136.4361   5481976.7012   5  17   1.5837   1.4514   3.1166   0.7748   1.5345   0.7614 -149.81    0.0
2017/07/23 09:36:44.600   2773707.3903   1653136.4953   5481976.7472   5  17   1.5837   1.4514   3.1167   0.7748   1.5345   0.7614 -149.61    0.0
2017/07/23 09:36:44.800   2773707.4123   1653136.5847   5481977.0326   5  17   1.5837   1.4514   3.1167   0.7749   1.5346   0.7615 -149.41    0.0
2017/07/23 09:36:45.000   2773707.4459   1653136.5981   5481977.0076   5  17   1.5837   1.4515   3.1168   0.7749   1.5346   0.7615 -149.21    0.0
2017/07/23 09:36:45.200   2773707.4590   1653136.5459   5481977.1965   5  17   1.5837   1.4515   3.1168   0.7749   1.5346   0.7616 -149.01    0.0
2017/07/23 09:36:45.400   2773707.3409   1653136.4599   5481977.1701   5  17   1.5837   1.4515   3.1169   0.7749   1.5347   0.7616 -148.81    0.0
2017/07/23 09:36:45.600   2773707.4161   1653136.3926   5481977.3242   5  17   1.5837   1.4515   3.1170   0.7749   1.5347   0.7617 -148.61    0.0
2017/07/23 09:36:45.800   2773707.4890   1653136.3516   5481977.3208   5  17   1.5837   1.4515   3.1170   0.7750   1.5348   0.7617 -148.41    0.0
2017/07/23 09:36:46.000   2773707.5392   1653136.3934   5481977.4235   5  17   1.5837   1.4515   3.1171   0.7750   1.5348   0.7618 -148.21    0.0
2017/07/23 09:36:46.200   2773707.6046   1653136.4034   5481977.3826   5  17   1.5837   1.4515   3.1171   0.7750   1.5348   0.7618 -148.01    0.0
2017/07/23 09:36:46.400   2773707.6171   1653136.3712   5481977.2825   5  17   1.5837   1.4516   3.1172   0.7750   1.5349   0.7619 -147.81    0.0
2017/07/23 09:36:46.600   2773707.4883   1653136.3963   5481977.2163   5  17   1.5837   1.4516   3.1172   0.7750   1.5349   0.7619 -147.61    0.0
2017/07/23 09:36:46.800   2773707.4280   1653136.2905   5481976.9362   5  17   1.5837   1.4516   3.1173   0.7751   1.5349   0.7620 -147.41    0.0
2017/07/23 09:36:47.000   2773707.4370   1653136.3010   5481976.8355   5  17   1.5837   1.4516   3.1173   0.7751   1.5350   0.7620 -147.21    0.0
2017/07/23 09:36:47.200   2773707.5493   1653136.3553   5481976.8804   5  17   1.5837   1.4516   3.1174   0.7751   1.5350   0.7621 -147.01    0.0
2017/07/23 09:36:47.400   2773707.6046   1653136.4101   5481977.1141   5  17   1.5837   1.4516   3.1174   0.7751   1.5350   0.7621 -146.81    0.0
2017/07/23 09:36:47.600   2773707.6659   1653136.5008   5481977.2591   5  17   1.5837   1.4516   3.1175   0.7751   1.5351   0.7622 -146.61    0.0
2017/07/23 09:36:47.800   2773707.7378   1653136.5299   5481977.4856   5  17   1.5837   1.4517   3.1175   0.7752   1.5351   0.7622 -146.41    0.0
2017/07/23 09:36:48.000   2773707.7597   1653136.5653   5481977.4400   5  17   1.5837   1.4517   3.1176   0.7752   1.5352   0.7623 -146.21    0.0
2017/07/23 09:36:48.200   2773707.7979   1653136.5205   5481977.3771   5  17   1.5837   1.4517   3.1176   0.7752   1.5352   0.7623 -146.01    0.0
2017/07/23 09:36:48.400   2773707.8027   1653136.5120   5481977.2675   5  17   1.5837   1.4517   3.1177   0.7752   1.5352   0.7624 -145.81    0.0
2017/07/23 09:36:48.600   2773707.8346   1653136.4256   5481977.3793   5  17   1.5837   1.4517   3.1177   0.7752   1.5353   0.7624 -145.61    0.0
2017/07/23 09:36:48.800   2773707.8321   1653136.4233   5481977.3820   5  17   1.5837   1.4517   3.1178   0.7752   1.5353   0.7625 -145.41    0.0
2017/07/23 09:36:49.000   2773707.8650   1653136.4188   5481977.4976   5  17   1.5837   1.4517   3.1178   0.7753   1.5353   0.7625 -145.21    0.0
2017/07/23 09:36:49.200   2773707.7564   1653136.3592   5481977.3959   5  17   1.5837   1.4518   3.1179   0.7753   1.5354   0.7626 -145.01    0.0
2017/07/23 09:36:49.400   2773707.7550   1653136.4226   5481977.5607   5  17   1.5837   1.4518   3.1179   0.7753   1.5354   0.7627 -144.81    0.0
2017/07/23 09:36:49.600   2773707.7300   1653136.5116   5481977.5888   5  17   1.5837   1.4518   3.1180   0.7753   1.5354   0.7627 -144.61    0.0
2017/07/23 09:36:49.800   2773707.7785   1653136.5770   5481977.3912   5  17   1.5837   1.4518   3.1180   0.7753   1.5355   0.7628 -144.41    0.0
2017/07/23 09:36:50.000   2773707.8442   1653136.5522   5481977.2355   5  17   1.5837   1.4518   3.1181   0.7754   1.5355   0.7628 -144.21    0.0
2017/07/23 09:36:50.200   2773707.8137   1653136.6335   5481977.2224   5  17   1.5837   1.4518   3.1181   0.7754   1.5356   0.7629 -144.01    0.0
2017/07/23 09:36:50.400   2773707.7707   1653136.5147   5481977.2402   5  17   1.5837   1.4518   3.1182   0.7754   1.5356   0.7629 -143.81    0.0
2017/07/23 09:36:50.600   2773707.8098   1653136.4987   5481977.2915   5  17   1.5837   1.4518   3.1183   0.7754   1.5356   0.7630 -143.61    0.0
2017/07/23 09:36:50.800   2773707.8125   1653136.5244   5481977.3257   5  17   1.5837   1.4519   3.1183   0.7754   1.5357   0.7630 -143.41    0.0
2017/07/23 09:36:51.000   2773707.8601   1653136.5564   5481977.3270   5  17   1.5837   1.4519   3.1184   0.7755   1.5357   0.7631 -143.21    0.0
2017/07/23 09:36:51.200   2773707.7544   1653136.6274   5481977.3961   5  17   1.5837   1.4519   3.1184   0.7755   1.5357   0.7631 -143.01    0.0
2017/07/23 09:36:51.400   2773707.6907   1653136.6871   5481977.2742   5  17   1.5837   1.4519   3.1185   0.7755   1.5358   0.7632 -142.81    0.0
2017/07/23 09:36:51.600   2773707.7297   1653136.8114   5481977.3962   5  17   1.5837   1.4519   3.1185   0.7755   1.5358   0.7632 -142.61    0.0
2017/07/23 09:36:51.800   2773707.7764   1653136.9227   5481977.4882   5  17   1.5837   1.4519   3.1186   0.7755   1.5358   0.7633 -142.41    0.0
2017/07/23 09:36:52.000   2773707.7355   1653136.9058   5481977.4702   5  17   1.5837   1.4519   3.1186   0.7756   1.5359   0.7633 -142.21    0.0
2017/07/23 09:36:52.200   2773707.7847   1653136.9945   5481977.4011   5  17   1.5837   1.4520   3.1187   0.7756   1.5359   0.7634 -142.01    0.0
2017/07/23 09:36:52.400   2773707.7169   1653136.9222   5481977.1573   5  17   1.5838   1.4520   3.1187   0.7756   1.5360   0.7634 -141.81    0.0
2017/07/23 09:36:52.600   2773707.7186   1653136.9394   5481977.1239   5  17   1.5838   1.4520   3.1188   0.7756   1.5360   0.7635 -141.61    0.0
2017/07/23 09:36:52.800   2773707.5962   1653136.8714   5481977.0148   5  17   1.5838   1.4520   3.1188   0.7756   1.5360   0.7635 -141.41    0.0
2017/07/23 09:36:53.000   2773707.5244   1653136.8728   5481976.7417   5  17   1.5838   1.4520   3.1189   0.7757   1.5361   0.7636 -141.21    0.0
2017/07/23 09:36:53.200   2773707.5542   1653136.8095   5481976.6488   5  17   1.5838   1.4520   3.1189   0.7757   1.5361   0.7636 -141.01    0.0
2017/07/23 09:36:53.400   2773707.5358   1653136.8252   5481976.6239   5  17   1.5838   1.4520   3.1190   0.7757   1.5361   0.7637 -140.81    0.0
2017/07/23 09:36:53.600   2773707.4833   1653136.6482   5481976.6114   5  17   1.5838   1.4521   3.1190   0.7757   1.5362   0.7637 -140.61    0.0
2017/07/23 09:36:53.800   2773707.4675   1653136.6904   5481976.7714   5  17   1.5838   1.4521   3.1191   0.7757   1.5362   0.7638 -140.41    0.0
2017/07/23 09:36:54.000   2773707.4209   1653136.6981   5481976.8981   5  17   1.5838   1.4521   3.1191   0.7758   1.5362   0.7638 -140.21    0.0
2017/07/23 09:36:54.200   2773707.4356   1653136.6933   5481976.9011   5  17   1.5838   1.4521   3.1192   0.7758   1.5363   0.7639 -140.01    0.0
2017/07/23 09:36:54.400   2773707.2699   1653136.6038   5481976.9980   5  17   1.5838   1.4521   3.1192   0.7758   1.5363   0.7639 -139.81    0.0
2017/07/23 09:36:54.600   2773707.1972   1653136.5027   5481976.5922   5  17   1.5838   1.4521   3.1193   0.7758   1.5363   0.7640 -139.61    0.0
2017/07/23 09:36:54.800   2773707.2137   1653136.4755   5481976.6968   5  17   1.5838   1.4521   3.1193   0.7758   1.5364   0.7641 -139.41    0.0
2017/07/23 09:36:55.000   2773707.3698   1653136.5303   5481976.8784   5  17   1.5838   1.4522   3.1194   0.7759   1.5364   0.7641 -139.21    0.0
2017/07/23 09:36:55.200   2773707.4257   1653136.5448   5481976.8981   5  17   1.5838   1.4522   3.1194   0.7759   1.5365   0.7642 -139.01    0.0
2017/07/23 09:36:55.400   2773707.4382   1653136.5402   5481976.9059   5  17   1.5838   1.4522   3.1195   0.7759   1.5365   0.7642 -138.81    0.0
2017/07/23 09:36:55.600   2773707.4689   1653136.5239   5481976.9932   5  17   1.5838   1.4522   3.1195   0.7759   1.5365   0.7643 -138.61    0.0
2017/07/23 09:36:55.800   2773707.3958   1653136.5234   5481977.0922   5  17   1.5838   1.4522   3.1196   0.7759   1.5366   0.7643 -138.41    0.0
2017/07/23 09:36:56.000   2773707.3838   1653136.4810   5481977.1191   5  17   1.5838   1.4522   3.1197   0.7760   1.5366   0.7644 -138.21    0.0
2017/07/23 09:36:56.200   2773707.2631   1653136.3791   5481976.9679   5  17   1.5838   1.4522   3.1197   0.7760   1.5366   0.7644 -138.01    0.0
2017/07/23 09:36:56.400   2773707.2461   1653136.3504   5481977.0611   5  17   1.5838   1.4523   3.1198   0.7760   1.5367   0.7645 -137.81    0.0
2017/07/23 09:36:56.600   2773707.3193   1653136.3454   5481977.0973   5  17   1.5838   1.4523   3.1198   0.7760   1.5367   0.7645 -137.61    0.0
2017/07/23 09:36:56.800   2773707.3783   1653136.4656   5481977.5457   5  17   1.5838   1.4523   3.1199   0.7760   1.5367   0.7646 -137.41    0.0
2017/07/23 09:36:57.000   2773707.4404   1653136.4809   5481977.4592   5  17   1.5838   1.4523   3.1199   0.7761   1.5368   0.7646 -137.21    0.0
2017/07/23 09:36:57.200   2773707.4547   1653136.4612   5481977.5182   5  17   1.5838   1.4523   3.1200   0.7761   1.5368   0.7647 -137.01    0.0
2017/07/23 09:36:57.400   2773707.4282   1653136.4616   5481977.4021   5  17   1.5838   1.4523   3.1200   0.7761   1.5369   0.7647 -136.81    0.0
2017/07/23 09:36:57.600   2773707.4005   1653136.3769   5481976.9660   5  17   1.5838   1.4523   3.1201   0.7761   1.5369   0.7648 -136.61    0.0
2017/07/23 09:36:57.800   2773707.3454   1653136.2840   5481976.9328   5  18   1.5838   1.4524   3.1201   0.7761   1.5369   0.7648 -136.41    0.0
2017/07/23 09:36:58.000   2773707.3399   1653136.3198   5481976.9961   5  18   1.5838   1.4524   3.1202   0.7762   1.5370   0.7649 -136.21    0.0
2017/07/23 09:36:58.200   2773707.3803   1653136.3903   5481976.8638   5  18   1.5838   1.4524   3.1202   0.7762   1.5370   0.7649 -136.01    0.0
2017/07/23 09:36:58.400   2773707.4635   1653136.4455   5481976.9716   5  18   1.5838   1.4524   3.1203   0.7762   1.5370   0.7650 -135.81    0.0
2017/07/23 09:36:58.600   2773707.4521   1653136.4399   5481977.0277   5  18   1.5838   1.4524   3.1203   0.7762   1.5371   0.7650 -135.61    0.0
2017/07/23 09:36:58.800   2773707.4042   1653136.5022   5481977.0671   5  18   1.5838   1.4524   3.1204   0.7762   1.5371   0.7651 -135.41    0.0
2017/07/23 09:36:59.000   2773707.4803   1653136.5534   5481977.1053   5  18   1.5838   1.4524   3.1204   0.7763   1.5371   0.7651 -135.21    0.0
2017/07/23 09:36:59.200   2773707.2739   1653136.4544   5481976.7472   5  17   1.5838   1.4525   3.1205   0.7763   1.5372   0.7652 -135.01    0.0
2017/07/23 09:36:59.400   2773707.2391   1653136.4856   5481976.7056   5  17   1.5838   1.4525   3.1205   0.7763   1.5372   0.7652 -134.81    0.0
2017/07/23 09:36:59.600   2773707.1847   1653136.5047   5481976.7762   5  17   1.5838   1.4525   3.1206   0.7763   1.5373   0.7653 -134.61    0.0
2017/07/23 09:36:59.800   2773707.1503   1653136.5212   5481976.7596   5  18   1.5838   1.4525   3.1206   0.7763   1.5373   0.7654 -134.41    0.0
2017/07/23 09:37:00.000   2773707.1454   1653136.4210   5481976.5552   5  17   1.5838   1.4525   3.1207   0.7763   1.5373   0.7654 -134.21    0.0
2017/07/23 09:37:00.200   2773707.1599   1653136.4570   5481976.4596   5  17   1.5838   1.4525   3.1207   0.7764   1.5374   0.7655 -134.01    0.0
2017/07/23 09:37:00.400   2773707.0984   1653136.3786   5481976.3169   5  17   1.5838   1.4525   3.1208   0.7764   1.5374   0.7655 -133.81    0.0
2017/07/23 09:37:00.600   2773707.0753   1653136.2778   5481976.0202   5  17   1.5838   1.4525   3.1208   0.7764   1.5374   0.7656 -133.61    0.0
2017/07/23 09:37:00.800   2773706.9718   1653136.1096   5481975.8983   5  17   1.5838   1.4526   3.1209   0.7764   1.5375   0.7656 -133.41    0.0
2017/07/23 09:37:01.000   2773706.9133   1653136.1687   5481975.9489   5  17   1.5838   1.4526   3.1209   0.7764   1.5375   0.7657 -133.21    0.0
2017/07/23 09:37:01.200   2773707.0404   1653136.2230   5481975.8750   5  17   1.5838   1.4526   3.1210   0.7765   1.5375   0.7657 -133.01    0.0
2017/07/23 09:37:01.400   2773707.0022   1653136.2298   5481975.7313   5  17   1.5838   1.4526   3.1210   0.7765   1.5376   0.7658 -132.81    0.0
2017/07/23 09:37:01.600   2773707.0821   1653136.3175   5481975.9713   5  17   1.5838   1.4526   3.1211   0.7765   1.5376   0.7658 -132.61    0.0
2017/07/23 09:37:01.800   2773707.0643   1653136.3722   5481976.2661   5  17   1.5838   1.4526   3.1211   0.7765   1.5376   0.7659 -132.41    0.0
2017/07/23 09:37:02.000   2773707.1801   1653136.4717   5481976.4699   5  17   1.5838   1.4526   3.1212   0.7765   1.5377   0.7659 -132.21    0.0
2017/07/23 09:37:02.200   2773707.1034   1653136.3831   5481976.6710   5  17   1.5838   1.4527   3.1213   0.7766   1.5377   0.7660 -132.01    0.0
2017/07/23 09:37:02.400   2773707.1618   1653136.3442   5481976.6555   5  17   1.5838   1.4527   3.1213   0.7766   1.5378   0.7660 -131.81    0.0
2017/07/23 09:37:02.600   2773707.1206   1653136.3207   5481976.7315   5  17   1.5838   1.4527   3.1214   0.7766   1.5378   0.7661 -131.61    0.0
2017/07/23 09:37:02.800   2773707.2377   1653136.4113   5481976.9286   5  17   1.5838   1.4527   3.1214   0.7766   1.5378   0.7661 -131.41    0.0
2017/07/23 09:37:03.000   2773707.3099   1653136.5153   5481977.3114   5  17   1.5838   1.4527   3.1215   0.7766   1.5379   0.7662 -131.21    0.0
2017/07/23 09:37:03.200   2773707.3805   1653136.6181   5481977.2762   5  17   1.5838   1.4527   3.1215   0.7767   1.5379   0.7662 -131.01    0.0
2017/07/23 09:37:03.400   2773707.3657   1653136.6061   5481977.1558   5  17   1.5838   1.4527   3.1216   0.7767   1.5379   0.7663 -130.81    0.0
2017/07/23 09:37:03.600   2773707.2390   1653136.4807   5481976.9798   5  17   1.5839   1.4528   3.1216   0.7767   1.5380   0.7663 -130.61    0.0
2017/07/23 09:37:03.800   2773707.2044   1653136.4797   5481977.1202   5  17   1.5839   1.4528   3.1217   0.7767   1.5380   0.7664 -130.41    0.0
2017/07/23 09:37:04.000   2773707.2388   1653136.5063   5481976.9247   5  17   1.5839   1.4528   3.1217   0.7767   1.5380   0.7664 -130.21    0.0
2017/07/23 09:37:04.200   2773707.1946   1653136.4428   5481976.8075   5  17   1.5839   1.4528   3.1218   0.7768   1.5381   0.7665 -130.01    0.0
2017/07/23 09:37:04.400   2773707.1411   1653136.4239   5481976.9341   5  17   1.5839   1.4528   3.1218   0.7768   1.5381   0.7665 -129.81    0.0
2017/07/23 09:37:04.600   2773707.2510   1653136.3248   5481976.9751   5  17   1.5839   1.4528   3.1219   0.7768   1.5382   0.7666 -129.61    0.0
2017/07/23 09:37:04.800   2773707.3541   1653136.4158   5481977.3599   5  17   1.5839   1.4528   3.1219   0.7768   1.5382   0.7667 -129.41    0.0
2017/07/23 09:37:05.000   2773707.3926   1653136.4634   5481977.5947   5  17   1.5839   1.4529   3.1220   0.7768   1.5382   0.7667 -129.21    0.0
2017/07/23 09:37:05.200   2773707.5163   1653136.5543   5481977.8062   5  17   1.5839   1.4529   3.1220   0.7769   1.5383   0.7668 -129.01    0.0
2017/07/23 09:37:05.400   2773707.5944   1653136.4714   5481977.5929   5  17   1.5839   1.4529   3.1221   0.7769   1.5383   0.7668 -128.81    0.0
2017/07/23 09:37:05.600   2773707.6700   1653136.5240   5481977.6475   5  17   1.5839   1.4529   3.1221   0.7769   1.5383   0.7669 -128.61    0.0
2017/07/23 09:37:05.800   2773707.6404   1653136.4134   5481977.7273   5  17   1.5839   1.4529   3.1222   0.7769   1.5384   0.7669 -128.41    0.0
2017/07/23 09:37:06.000   2773707.6738   1653136.3675   5481977.6590   5  17   1.5839   1.4529   3.1222   0.7769   1.5384   0.7670 -128.21    0.0
2017/07/23 09:37:06.200   2773707.6999   1653136.4231   5481977.9371   5  17   1.5839   1.4529   3.1223   0.7770   1.5384   0.7670 -128.01    0.0
2017/07/23 09:37:06.400   2773707.7154   1653136.3504   5481977.8093   5  17   1.5839   1.4530   3.1223   0.7770   1.5385   0.7671 -127.81    0.0
2017/07/23 09:37:06.600   2773707.7044   1653136.3794   5481978.0607   5  17   1.5839   1.4530   3.1224   0.7770   1.5385   0.7671 -127.61    0.0
2017/07/23 09:37:06.800   2773707.6711   1653136.2823   5481978.0593   5  17   1.5839   1.4530   3.1224   0.7770   1.5385   0.7672 -127.41    0.0
2017/07/23 09:37:07.000   2773707.6363   1653136.3348   5481978.1313   5  17   1.5839   1.4530   3.1225   0.7770   1.5386   0.7672 -127.21    0.0
2017/07/23 09:37:07.200   2773707.5488   1653136.2730   5481977.9578   5  17   1.5839   1.4530   3.1225   0.7771   1.5386   0.7673 -127.01    0.0
2017/07/23 09:37:07.400   2773707.5181   1653136.1819   5481977.9571   5  17   1.5839   1.4530   3.1226   0.7771   1.5387   0.7673 -126.81    0.0
2017/07/23 09:37:07.600   2773707.4086   1653136.0878   5481978.0152   5  17   1.5839   1.4530   3.1226   0.7771   1.5387   0.7674 -126.61    0.0
2017/07/23 09:37:07.800   2773707.4233   1653136.1440   5481978.1868   5  17   1.5839   1.4531   3.1227   0.7771   1.5387   0.7674 -126.41    0.0
2017/07/23 09:37:08.000   2773707.4680   1653136.1652   5481978.3268   5  17   1.5839   1.4531   3.1227   0.7771   1.5388   0.7675 -126.21    0.0
2017/07/23 09:37:08.200   2773707.4710   1653136.0844   5481978.3311   5  17   1.5839   1.4531   3.1228   0.7772   1.5388   0.7675 -126.01    0.0
2017/07/23 09:37:08.400   2773707.4883   1653136.0765   5481978.3257   5  17   1.5839   1.4531   3.1228   0.7772   1.5388   0.7676 -125.81    0.0
2017/07/23 09:37:08.600   2773707.4511   1653136.0985   5481978.2910   5  17   1.5839   1.4531   3.1229   0.7772   1.5389   0.7676 -125.61    0.0
2017/07/23 09:37:08.800   2773707.4178   1653136.0015   5481978.2716   5  17   1.5839   1.4531   3.1229   0.7772   1.5389   0.7677 -125.41    0.0
2017/07/23 09:37:09.000   2773707.3839   1653135.9909   5481978.1121   5  17   1.5839   1.4531   3.1230   0.7772   1.5389   0.7678 -125.21    0.0
2017/07/23 09:37:09.200   2773707.2638   1653135.8527   5481978.1867   5  17   1.5839   1.4532   3.1230   0.7773   1.5390   0.7678 -125.01    0.0
2017/07/23 09:37:09.400   2773707.2461   1653135.9102   5481978.3181   5  17   1.5839   1.4532   3.1231   0.7773   1.5390   0.7679 -124.81    0.0
2017/07/23 09:37:09.600   2773707.2519   1653135.8512   5481978.1044   5  17   1.5839   1.4532   3.1232   0.7773   1.5391   0.7679 -124.61    0.0
2017/07/23 09:37:09.800   2773707.3365   1653135.8808   5481978.1014   5  17   1.5839   1.4532   3.1232   0.7773   1.5391   0.7680 -124.41    0.0
2017/07/23 09:37:10.000   2773707.3457   1653135.7617   5481978.0332   5  17   1.5839   1.4532   3.1233   0.7773   1.5391   0.7680 -124.21    0.0
2017/07/23 09:37:10.200   2773707.3417   1653135.8054   5481977.9272   5  17   1.5839   1.4532   3.1233   0.7774   1.5392   0.7681 -124.01    0.0
2017/07/23 09:37:10.400   2773707.4091   1653135.8556   5481977.9200   5  17   1.5839   1.4532   3.1234   0.7774   1.5392   0.7681 -123.81    0.0
2017/07/23 09:37:10.600   2773707.2999   1653135.7200   5481977.6245   5  17   1.5839   1.4533   3.1234   0.7774   1.5392   0.7682 -123.61    0.0
2017/07/23 09:37:10.800   2773707.2709   1653135.6273   5481977.5642   5  17   1.5839   1.4533   3.1235   0.7774   1.5393   0.7682 -123.41    0.0
2017/07/23 09:37:11.000   2773707.2096   1653135.6098   5481977.6417   5  17   1.5839   1.4533   3.1235   0.7774   1.5393   0.7683 -123.21    0.0
2017/07/23 09:37:11.200   2773707.2649   1653135.6608   5481978.0054   5  17   1.5839   1.4533   3.1236   0.7775   1.5393   0.7683 -123.01    0.0
2017/07/23 09:37:11.400   2773707.3539   1653135.7906   5481978.2885   5  17   1.5839   1.4533   3.1236   0.7775   1.5394   0.7684 -122.81    0.0
2017/07/23 09:37:11.600   2773707.3146   1653135.7736   5481978.3124   5  17   1.5839   1.4533   3.1237   0.7775   1.5394   0.7684 -122.61    0.0
2017/07/23 09:37:11.800   2773707.3321   1653135.8238   5481978.0995   5  17   1.5839   1.4533   3.1237   0.7775   1.5394   0.7685 -122.41    0.0
2017/07/23 09:37:12.000   2773707.3092   1653135.8475   5481978.1697   5  17   1.5839   1.4533   3.1238   0.7775   1.5395   0.7685 -122.21    0.0
2017/07/23 09:37:12.200   2773707.3489   1653135.8077   5481978.1245   5  17   1.5839   1.4534   3.1238   0.7776   1.5395   0.7686 -122.01    0.0
2017/07/23 09:37:12.400   2773707.3003   1653135.8334   5481978.1659   5  17   1.5839   1.4534   3.1239   0.7776   1.5396   0.7686 -121.81    0.0
2017/07/23 09:37:12.600   2773707.4174   1653135.8886   5481978.2153   5  17   1.5839   1.4534   3.1239   0.7776   1.5396   0.7687 -121.61    0.0
2017/07/23 09:37:12.800   2773707.4502   1653135.9198   5481978.0592   5  17   1.5839   1.4534   3.1240   0.7776   1.5396   0.7687 -121.41    0.0
2017/07/23 09:37:13.000   2773707.5729   1653136.0941   5481978.5515   5  17   1.5839   1.4534   3.1240   0.7776   1.5397   0.7688 -121.21    0.0
2017/07/23 09:37:13.200   2773707.5458   1653136.0952   5481978.7337   5  17   1.5839   1.4534   3.1241   0.7777   1.5397   0.7688 -121.01    0.0
2017/07/23 09:37:13.400   2773707.4354   1653136.1293   5481978.5953   5  17   1.5839   1.4534   3.1241   0.7777   1.5397   0.7689 -120.81    0.0
2017/07/23 09:37:13.600   2773707.3206   1653136.1142   5481978.4776   5  17   1.5839   1.4535   3.1242   0.7777   1.5398   0.7690 -120.61    0.0
2017/07/23 09:37:13.800   2773707.3254   1653136.2723   5481978.5109   5  17   1.5839   1.4535   3.1242   0.7777   1.5398   0.7690 -120.41    0.0
2017/07/23 09:37:14.000   2773707.3321   1653136.2092   5481978.2732   5  17   1.5839   1.4535   3.1243   0.7777   1.5398   0.7691 -120.21    0.0
2017/07/23 09:37:14.200   2773707.2503   1653136.1384   5481977.8858   5  17   1.5839   1.4535   3.1243   0.7778   1.5399   0.7691 -120.01    0.0
2017/07/23 09:37:14.400   2773707.2224   1653136.2111   5481977.9708   5  17   1.5839   1.4535   3.1244   0.7778   1.5399   0.7692 -119.81    0.0
2017/07/23 09:37:14.600   2773707.2460   1653136.2498   5481978.2232   5  18   1.5840   1.4535   3.1244   0.7778   1.5399   0.7692 -119.61    0.0
2017/07/23 09:37:14.800   2773707.2253   1653136.3075   5481978.5354   5  18   1.5840   1.4535   3.1245   0.7778   1.5400   0.7693 -119.41    0.0
2017/07/23 09:37:15.000   2773707.2149   1653136.2908   5481978.5167   5  18   1.5840   1.4536   3.1245   0.7778   1.5400   0.7693 -119.21    0.0
2017/07/23 09:37:15.200   2773707.2204   1653136.2847   5481978.7153   5  17   1.5840   1.4536   3.1246   0.7779   1.5401   0.7694 -119.01    0.0
2017/07/23 09:37:15.400   2773707.0798   1653136.2762   5481978.7930   5  17   1.5840   1.4536   3.1246   0.7779   1.5401   0.7694 -118.81    0.0
2017/07/23 09:37:15.600   2773707.0318   1653136.2691   5481978.7585   5  17   1.5840   1.4536   3.1247   0.7779   1.5401   0.7695 -118.61    0.0
2017/07/23 09:37:15.800   2773707.0834   1653136.3305   5481978.7205   5  18   1.5840   1.4536   3.1247   0.7779   1.5402   0.7695 -118.41    0.0
2017/07/23 09:37:16.000   2773707.1900   1653136.2828   5481978.4493   5  17   1.5840   1.4536   3.1248   0.7779   1.5402   0.7696 -118.21    0.0
2017/07/23 09:37:16.200   2773707.1547   1653136.1434   5481978.2149   5  17   1.5840   1.4536   3.1248   0.7780   1.5402   0.7696 -118.01    0.0
2017/07/23 09:37:16.400   2773707.2118   1653136.1658   5481978.4240   5  17   1.5840   1.4537   3.1249   0.7780   1.5403   0.7697 -117.81    0.0
