% program   : RTKLIB ver.2.4.3 Emlid
% inp file  : /home/artur/RTKLIB/test/test/static/1_yasnaya_polyana/rover.obs
% inp file  : /home/artur/RTKLIB/test/test/static/1_yasnaya_polyana/base.obs
% inp file  : /home/artur/RTKLIB/test/test/static/1_yasnaya_polyana/rover.nav
% obs start : 2017/07/23 10:03:50.0 GPST (week1959  36230.0s)
% obs end   : 2017/07/23 10:14:15.6 GPST (week1959  36855.6s)
% pos mode  : static
% freqs     : L1
% solution  : combined
% elev mask : 15.0 deg
% dynamics  : on
% tidecorr  : off
% ionos opt : broadcast
% tropo opt : est ztd
% ephemeris : broadcast
% navi sys  : gps glonass galileo qzss beidou sbas
% amb res   : continuous
% amb glo   : off
% val thres : 3.0
% antenna1  :                       ( 0.0000  0.0000  0.0000)
% antenna2  :                       ( 0.0000  0.0000  0.0000)
% ref pos   :  2773909.8712  1654076.4507  5481627.6877
%
% (x/y/z-ecef=WGS84,Q=1:fix,2:float,3:sbas,4:dgps,5:single,6:ppp,ns=# of satellites)
%  GPST                      x-ecef(m)      y-ecef(m)      z-ecef(m)   Q  ns   sdx(m)   sdy(m)   sdz(m)  sdxy(m)  sdyz(m)  sdzx(m) age(s)  ratio
2017/07/23 10:03:50.000   2773768.7786   1652507.4804   5482142.4837   1  17   0.0005   0.0004   0.0011   0.0004   0.0006   0.0007   0.19    5.6
2017/07/23 10:03:50.200   2773768.7786   1652507.4804   5482142.4837   1  17   0.0005   0.0004   0.0011   0.0004   0.0006   0.0007   0.19    5.6
2017/07/23 10:03:50.400   2773768.7786   1652507.4804   5482142.4837   1  17   0.0005   0.0004   0.0011   0.0004   0.0006   0.0007   0.19    5.6
2017/07/23 10:03:50.600   2773768.7786   1652507.4804   5482142.4837   1  17   0.0005   0.0004   0.0011   0.0004   0.0006   0.0007   0.19    5.6
2017/07/23 10:03:50.800   2773768.7785   1652507.4804   5482142.4837   1  17   0.0005   0.0004   0.0011   0.0004   0.0006   0.0007   0.19    5.6
2017/07/23 10:03:51.000   2773768.7785   1652507.4804   5482142.4837   1  17   0.0005   0.0004   0.0011   0.0004   0.0006   0.0007   0.19    5.6
2017/07/23 10:03:51.200   2773768.7785   1652507.4804   5482142.4837   1  17   0.0005   0.0004   0.0011   0.0004   0.0006   0.0007   0.19    5.6
2017/07/23 10:03:51.400   2773768.7785   1652507.4804   5482142.4837   1  17   0.0005   0.0004   0.0011   0.0004   0.0006   0.0007   0.19    5.6
2017/07/23 10:03:51.600   2773768.7785   1652507.4804   5482142.4837   1  17   0.0005   0.0004   0.0011   0.0004   0.0006   0.0007   0.19    5.6
2017/07/23 10:03:51.800   2773768.7785   1652507.4804   5482142.4836   1  17   0.0005   0.0004   0.0011   0.0004   0.0006   0.0007   0.19    5.6
2017/07/23 10:03:52.000   2773768.7785   1652507.4804   5482142.4836   1  17   0.0005   0.0004   0.0011   0.0004   0.0006   0.0007   0.19    5.6
2017/07/23 10:03:52.200   2773768.7785   1652507.4804   5482142.4836   1  17   0.0005   0.0004   0.0011   0.0004   0.0006   0.0007   0.19    5.6
2017/07/23 10:03:52.400   2773768.7784   1652507.4804   5482142.4836   1  17   0.0005   0.0004   0.0011   0.0004   0.0006   0.0007   0.19    5.6
2017/07/23 10:03:52.600   2773768.7784   1652507.4804   5482142.4836   1  17   0.0005   0.0004   0.0011   0.0004   0.0006   0.0007   0.19    5.6
2017/07/23 10:03:52.800   2773768.7784   1652507.4804   5482142.4836   1  17   0.0005   0.0004   0.0011   0.0004   0.0006   0.0007   0.19    5.5
2017/07/23 10:03:53.000   2773768.7784   1652507.4804   5482142.4836   1  17   0.0005   0.0004   0.0011   0.0004   0.0006   0.0007   0.19    5.5
2017/07/23 10:03:53.200   2773768.7784   1652507.4804   5482142.4835   1  17   0.0005   0.0004   0.0011   0.0004   0.0006   0.0007   0.19    5.5
2017/07/23 10:03:53.400   2773768.7784   1652507.4804   5482142.4835   1  17   0.0005   0.0004   0.0011   0.0004   0.0006   0.0007   0.19    5.5
2017/07/23 10:03:53.600   2773768.7784   1652507.4804   5482142.4835   1  17   0.0005   0.0004   0.0011   0.0004   0.0006   0.0007   0.19    5.5
2017/07/23 10:03:53.800   2773768.7784   1652507.4804   5482142.4835   1  17   0.0005   0.0004   0.0011   0.0004   0.0006   0.0007   0.19    5.5
2017/07/23 10:03:54.000   2773768.7784   1652507.4804   5482142.4835   1  17   0.0005   0.0004   0.0011   0.0004   0.0006   0.0007   0.19    5.5
2017/07/23 10:03:54.200   2773768.7784   1652507.4804   5482142.4835   1  17   0.0005   0.0004   0.0011   0.0004   0.0006   0.0007   0.19    5.5
2017/07/23 10:03:54.400   2773768.7784   1652507.4804   5482142.4835   1  17   0.0005   0.0004   0.0011   0.0004   0.0006   0.0007   0.19    5.5
2017/07/23 10:03:54.600   2773768.7783   1652507.4804   5482142.4835   1  17   0.0005   0.0004   0.0011   0.0004   0.0006   0.0007   0.19    5.5
2017/07/23 10:03:54.800   2773768.7783   1652507.4804   5482142.4835   1  17   0.0005   0.0004   0.0011   0.0004   0.0006   0.0007   0.19    5.5
2017/07/23 10:03:55.000   2773768.7783   1652507.4804   5482142.4835   1  17   0.0005   0.0004   0.0011   0.0004   0.0006   0.0007   0.19    5.5
2017/07/23 10:03:55.200   2773768.7783   1652507.4804   5482142.4835   1  17   0.0005   0.0004   0.0011   0.0004   0.0006   0.0007   0.19    5.5
2017/07/23 10:03:55.400   2773768.7783   1652507.4804   5482142.4835   1  17   0.0005   0.0004   0.0011   0.0004   0.0006   0.0007   0.19    5.5
2017/07/23 10:03:55.600   2773768.7783   1652507.4804   5482142.4835   1  17   0.0005   0.0004   0.0011   0.0004   0.0006   0.0007   0.19    5.5
2017/07/23 10:03:55.800   2773768.7783   1652507.4804   5482142.4835   1  17   0.0005   0.0004   0.0011   0.0004   0.0006   0.0007   0.19    5.5
2017/07/23 10:03:56.000   2773768.7783   1652507.4804   5482142.4835   1  17   0.0005   0.0004   0.0011   0.0004   0.0006   0.0007   0.19    5.5
2017/07/23 10:03:56.200   2773768.7783   1652507.4804   5482142.4834   1  17   0.0005   0.0004   0.0011   0.0004   0.0006   0.0007   0.19    5.5
2017/07/23 10:03:56.400   2773768.7783   1652507.4804   5482142.4834   1  17   0.0005   0.0004   0.0011   0.0004   0.0006   0.0007   0.19    5.5
2017/07/23 10:03:56.600   2773768.7783   1652507.4804   5482142.4834   1  17   0.0005   0.0004   0.0011   0.0004   0.0006   0.0007   0.19    5.5
2017/07/23 10:03:56.800   2773768.7783   1652507.4804   5482142.4834   1  17   0.0005   0.0004   0.0011   0.0004   0.0006   0.0007   0.19    5.5
2017/07/23 10:03:57.000   2773768.7783   1652507.4804   5482142.4834   1  17   0.0005   0.0004   0.0011   0.0004   0.0006   0.0007   0.19    5.5
2017/07/23 10:03:57.200   2773768.7783   1652507.4804   5482142.4834   1  17   0.0005   0.0004   0.0011   0.0004   0.0006   0.0007   0.19    5.5
2017/07/23 10:03:57.400   2773768.7783   1652507.4804   5482142.4834   1  17   0.0005   0.0004   0.0011   0.0004   0.0006   0.0007   0.19    5.5
2017/07/23 10:03:57.600   2773768.7782   1652507.4804   5482142.4834   1  17   0.0005   0.0004   0.0011   0.0004   0.0006   0.0007   0.19    5.5
2017/07/23 10:03:57.800   2773768.7782   1652507.4804   5482142.4834   1  17   0.0005   0.0004   0.0011   0.0004   0.0006   0.0007   0.19    5.5
2017/07/23 10:03:58.000   2773768.7782   1652507.4804   5482142.4833   1  17   0.0005   0.0004   0.0011   0.0004   0.0006   0.0007   0.19    5.5
2017/07/23 10:03:58.200   2773768.7782   1652507.4804   5482142.4833   1  17   0.0005   0.0004   0.0011   0.0004   0.0006   0.0007   0.19    5.5
2017/07/23 10:03:58.400   2773768.7782   1652507.4804   5482142.4833   1  17   0.0005   0.0004   0.0011   0.0004   0.0006   0.0007   0.19    5.5
2017/07/23 10:03:58.600   2773768.7782   1652507.4804   5482142.4833   1  17   0.0005   0.0004   0.0011   0.0004   0.0006   0.0007   0.19    5.5
2017/07/23 10:03:58.800   2773768.7782   1652507.4804   5482142.4833   1  17   0.0005   0.0004   0.0011   0.0004   0.0006   0.0007   0.19    5.5
2017/07/23 10:03:59.000   2773768.7782   1652507.4804   5482142.4833   1  17   0.0005   0.0004   0.0011   0.0004   0.0006   0.0007   0.19    5.5
2017/07/23 10:03:59.200   2773768.7782   1652507.4804   5482142.4833   1  17   0.0005   0.0004   0.0011   0.0004   0.0006   0.0007   0.19    5.5
2017/07/23 10:03:59.400   2773768.7782   1652507.4804   5482142.4833   1  17   0.0005   0.0004   0.0011   0.0004   0.0006   0.0007   0.19    5.5
2017/07/23 10:03:59.600   2773768.7782   1652507.4804   5482142.4833   1  17   0.0005   0.0004   0.0011   0.0004   0.0006   0.0007   0.19    5.5
2017/07/23 10:03:59.800   2773768.7782   1652507.4804   5482142.4833   1  17   0.0005   0.0004   0.0011   0.0004   0.0006   0.0007   0.19    5.5
2017/07/23 10:04:00.000   2773768.7782   1652507.4804   5482142.4833   1  17   0.0005   0.0004   0.0011   0.0004   0.0006   0.0007   0.19    5.5
2017/07/23 10:04:00.200   2773768.7782   1652507.4804   5482142.4832   1  17   0.0005   0.0004   0.0011   0.0004   0.0006   0.0007   0.19    5.5
2017/07/23 10:04:00.400   2773768.7782   1652507.4804   5482142.4832   1  17   0.0005   0.0004   0.0011   0.0004   0.0006   0.0007   0.19    5.5
2017/07/23 10:04:00.600   2773768.7782   1652507.4804   5482142.4832   1  17   0.0005   0.0004   0.0011   0.0004   0.0006   0.0007   0.19    5.5
2017/07/23 10:04:00.800   2773768.7782   1652507.4804   5482142.4832   1  17   0.0005   0.0004   0.0011   0.0004   0.0006   0.0007   0.19    5.5
2017/07/23 10:04:01.000   2773768.7782   1652507.4804   5482142.4832   1  17   0.0005   0.0004   0.0011   0.0004   0.0006   0.0007   0.19    5.5
2017/07/23 10:04:01.200   2773768.7782   1652507.4804   5482142.4832   1  17   0.0005   0.0004   0.0011   0.0004   0.0006   0.0007   0.19    5.5
2017/07/23 10:04:01.400   2773768.7781   1652507.4804   5482142.4832   1  17   0.0005   0.0004   0.0011   0.0004   0.0006   0.0007   0.19    5.5
2017/07/23 10:04:01.600   2773768.7781   1652507.4804   5482142.4832   1  17   0.0005   0.0004   0.0011   0.0004   0.0006   0.0007   0.19    5.5
2017/07/23 10:04:01.800   2773768.7781   1652507.4803   5482142.4832   1  17   0.0005   0.0004   0.0011   0.0004   0.0006   0.0007   0.19    5.5
2017/07/23 10:04:02.000   2773768.7781   1652507.4803   5482142.4831   1  17   0.0005   0.0004   0.0011   0.0004   0.0006   0.0007   0.19    5.5
2017/07/23 10:04:02.200   2773768.7781   1652507.4803   5482142.4831   1  17   0.0005   0.0004   0.0011   0.0004   0.0006   0.0007   0.19    5.5
2017/07/23 10:04:02.400   2773768.7781   1652507.4803   5482142.4831   1  17   0.0005   0.0004   0.0011   0.0004   0.0006   0.0007   0.19    5.5
2017/07/23 10:04:02.600   2773768.7781   1652507.4803   5482142.4831   1  17   0.0005   0.0004   0.0011   0.0004   0.0006   0.0007   0.19    5.5
2017/07/23 10:04:02.800   2773768.7781   1652507.4803   5482142.4831   1  17   0.0005   0.0004   0.0011   0.0004   0.0006   0.0007   0.19    5.5
2017/07/23 10:04:03.000   2773768.7781   1652507.4803   5482142.4831   1  17   0.0005   0.0004   0.0011   0.0004   0.0006   0.0007   0.19    5.4
2017/07/23 10:04:03.200   2773768.7781   1652507.4803   5482142.4831   1  17   0.0005   0.0004   0.0011   0.0004   0.0006   0.0007   0.19    5.4
2017/07/23 10:04:03.400   2773768.7781   1652507.4803   5482142.4831   1  17   0.0005   0.0004   0.0011   0.0004   0.0006   0.0007   0.19    5.4
2017/07/23 10:04:03.600   2773768.7781   1652507.4803   5482142.4830   1  17   0.0005   0.0004   0.0011   0.0004   0.0006   0.0007   0.19    5.4
2017/07/23 10:04:03.800   2773768.7781   1652507.4803   5482142.4830   1  17   0.0005   0.0004   0.0011   0.0004   0.0006   0.0007   0.19    5.4
2017/07/23 10:04:04.000   2773768.7781   1652507.4803   5482142.4830   1  17   0.0005   0.0004   0.0011   0.0004   0.0006   0.0007   0.19    5.4
2017/07/23 10:04:04.200   2773768.7781   1652507.4803   5482142.4830   1  17   0.0005   0.0004   0.0011   0.0004   0.0006   0.0007   0.19    5.4
2017/07/23 10:04:04.400   2773768.7781   1652507.4803   5482142.4830   1  17   0.0005   0.0004   0.0011   0.0004   0.0006   0.0007   0.19    5.4
2017/07/23 10:04:04.600   2773768.7781   1652507.4803   5482142.4830   1  17   0.0005   0.0004   0.0011   0.0004   0.0006   0.0007   0.19    5.4
2017/07/23 10:04:04.800   2773768.7781   1652507.4803   5482142.4830   1  17   0.0005   0.0004   0.0011   0.0004   0.0006   0.0007   0.19    5.4
2017/07/23 10:04:05.000   2773768.7780   1652507.4803   5482142.4830   1  17   0.0005   0.0004   0.0011   0.0004   0.0006   0.0007   0.19    5.4
2017/07/23 10:04:05.200   2773768.7780   1652507.4803   5482142.4829   1  17   0.0005   0.0004   0.0011   0.0004   0.0006   0.0007   0.19    5.4
2017/07/23 10:04:05.400   2773768.7780   1652507.4803   5482142.4829   1  17   0.0005   0.0004   0.0011   0.0004   0.0006   0.0007   0.19    5.4
2017/07/23 10:04:05.600   2773768.7780   1652507.4803   5482142.4829   1  17   0.0005   0.0004   0.0011   0.0004   0.0006   0.0007   0.19    5.4
2017/07/23 10:04:05.800   2773768.7780   1652507.4803   5482142.4829   1  17   0.0005   0.0004   0.0011   0.0004   0.0006   0.0007   0.19    5.4
2017/07/23 10:04:06.000   2773768.7780   1652507.4803   5482142.4829   1  17   0.0005   0.0004   0.0011   0.0004   0.0006   0.0007   0.19    5.4
2017/07/23 10:04:06.200   2773768.7780   1652507.4803   5482142.4829   1  17   0.0005   0.0004   0.0011   0.0004   0.0006   0.0007   0.19    5.4
2017/07/23 10:04:06.400   2773768.7780   1652507.4803   5482142.4829   1  17   0.0005   0.0004   0.0011   0.0004   0.0006   0.0007   0.19    5.4
2017/07/23 10:04:06.600   2773768.7780   1652507.4803   5482142.4829   1  17   0.0005   0.0004   0.0011   0.0004   0.0006   0.0007   0.19    5.4
2017/07/23 10:04:06.800   2773768.7780   1652507.4803   5482142.4828   1  17   0.0005   0.0004   0.0011   0.0004   0.0006   0.0007   0.19    5.4
2017/07/23 10:04:07.000   2773768.7780   1652507.4803   5482142.4828   1  17   0.0005   0.0004   0.0011   0.0004   0.0006   0.0007   0.19    5.4
2017/07/23 10:04:07.200   2773768.7780   1652507.4803   5482142.4828   1  17   0.0005   0.0004   0.0011   0.0004   0.0006   0.0007   0.19    5.4
2017/07/23 10:04:07.400   2773768.7780   1652507.4803   5482142.4828   1  17   0.0005   0.0004   0.0011   0.0004   0.0006   0.0007   0.19    5.4
2017/07/23 10:04:07.600   2773768.7780   1652507.4803   5482142.4828   1  17   0.0005   0.0004   0.0011   0.0004   0.0006   0.0007   0.19    5.4
2017/07/23 10:04:07.800   2773768.7780   1652507.4803   5482142.4828   1  17   0.0005   0.0004   0.0011   0.0004   0.0006   0.0007   0.19    5.4
2017/07/23 10:04:08.000   2773768.7780   1652507.4803   5482142.4828   1  17   0.0005   0.0004   0.0011   0.0004   0.0006   0.0007   0.19    5.4
2017/07/23 10:04:08.200   2773768.7780   1652507.4803   5482142.4828   1  17   0.0005   0.0004   0.0011   0.0004   0.0006   0.0007   0.19    5.4
2017/07/23 10:04:08.400   2773768.7780   1652507.4803   5482142.4827   1  17   0.0005   0.0004   0.0011   0.0004   0.0006   0.0007   0.19    5.4
2017/07/23 10:04:08.600   2773768.7779   1652507.4803   5482142.4827   1  17   0.0005   0.0004   0.0011   0.0004   0.0006   0.0007   0.19    5.4
2017/07/23 10:04:08.800   2773768.7779   1652507.4803   5482142.4827   1  17   0.0005   0.0004   0.0011   0.0004   0.0006   0.0007   0.19    5.4
2017/07/23 10:04:09.000   2773768.7779   1652507.4803   5482142.4827   1  17   0.0005   0.0004   0.0011   0.0004   0.0006   0.0007   0.19    5.4
2017/07/23 10:04:09.200   2773768.7779   1652507.4803   5482142.4827   1  17   0.0005   0.0004   0.0011   0.0004   0.0006   0.0007   0.19    5.4
2017/07/23 10:04:09.400   2773768.7779   1652507.4802   5482142.4827   1  17   0.0005   0.0004   0.0011   0.0004   0.0006   0.0007   0.19    5.4
2017/07/23 10:04:09.600   2773768.7779   1652507.4802   5482142.4827   1  17   0.0005   0.0004   0.0011   0.0004   0.0006   0.0007   0.19    5.4
2017/07/23 10:04:09.800   2773768.7779   1652507.4802   5482142.4827   1  17   0.0005   0.0004   0.0011   0.0004   0.0006   0.0007   0.19    5.4
2017/07/23 10:04:10.000   2773768.7779   1652507.4802   5482142.4826   1  17   0.0005   0.0004   0.0011   0.0004   0.0006   0.0007   0.19    5.4
2017/07/23 10:04:10.200   2773768.7779   1652507.4802   5482142.4826   1  17   0.0005   0.0004   0.0011   0.0004   0.0006   0.0007   0.19    5.4
2017/07/23 10:04:10.400   2773768.7779   1652507.4802   5482142.4826   1  17   0.0005   0.0004   0.0011   0.0004   0.0006   0.0007   0.19    5.4
2017/07/23 10:04:10.600   2773768.7779   1652507.4802   5482142.4826   1  17   0.0005   0.0004   0.0011   0.0004   0.0006   0.0007   0.19    5.4
2017/07/23 10:04:10.800   2773768.7779   1652507.4802   5482142.4826   1  17   0.0005   0.0004   0.0011   0.0004   0.0006   0.0007   0.19    5.4
2017/07/23 10:04:11.000   2773768.7779   1652507.4802   5482142.4826   1  17   0.0005   0.0004   0.0011   0.0004   0.0006   0.0007   0.19    5.4
2017/07/23 10:04:11.200   2773768.7779   1652507.4802   5482142.4826   1  17   0.0005   0.0004   0.0011   0.0004   0.0006   0.0007   0.19    5.4
2017/07/23 10:04:11.400   2773768.7778   1652507.4802   5482142.4825   1  17   0.0005   0.0004   0.0011   0.0004   0.0006   0.0007   0.19    5.4
2017/07/23 10:04:11.600   2773768.7778   1652507.4802   5482142.4825   1  17   0.0005   0.0004   0.0011   0.0004   0.0006   0.0007   0.19    5.4
2017/07/23 10:04:11.800   2773768.7778   1652507.4802   5482142.4825   1  17   0.0005   0.0004   0.0011   0.0004   0.0006   0.0007   0.19    5.4
2017/07/23 10:04:12.000   2773768.7778   1652507.4802   5482142.4825   1  17   0.0005   0.0004   0.0011   0.0004   0.0006   0.0007   0.19    5.4
2017/07/23 10:04:12.200   2773768.7778   1652507.4802   5482142.4825   1  17   0.0005   0.0004   0.0011   0.0004   0.0006   0.0007   0.19    5.4
2017/07/23 10:04:12.400   2773768.7778   1652507.4802   5482142.4824   1  17   0.0005   0.0004   0.0011   0.0004   0.0006   0.0007   0.19    5.4
2017/07/23 10:04:12.600   2773768.7778   1652507.4802   5482142.4824   1  17   0.0005   0.0004   0.0011   0.0004   0.0006   0.0007   0.19    5.4
2017/07/23 10:04:12.800   2773768.7778   1652507.4802   5482142.4824   1  17   0.0005   0.0004   0.0011   0.0004   0.0006   0.0007   0.19    5.4
2017/07/23 10:04:13.000   2773768.7778   1652507.4802   5482142.4824   1  17   0.0005   0.0004   0.0011   0.0004   0.0006   0.0007   0.19    5.4
2017/07/23 10:04:13.200   2773768.7778   1652507.4802   5482142.4824   1  17   0.0005   0.0004   0.0011   0.0004   0.0006   0.0007   0.19    5.3
2017/07/23 10:04:13.400   2773768.7778   1652507.4802   5482142.4824   1  17   0.0005   0.0004   0.0011   0.0004   0.0006   0.0007   0.19    5.3
2017/07/23 10:04:13.600   2773768.7777   1652507.4802   5482142.4824   1  17   0.0005   0.0004   0.0011   0.0004   0.0006   0.0007   0.19    5.3
2017/07/23 10:04:13.800   2773768.7777   1652507.4802   5482142.4823   1  17   0.0005   0.0004   0.0011   0.0004   0.0006   0.0007   0.19    5.3
2017/07/23 10:04:14.000   2773768.7777   1652507.4802   5482142.4823   1  17   0.0005   0.0004   0.0011   0.0004   0.0006   0.0007   0.19    5.3
2017/07/23 10:04:14.200   2773768.7777   1652507.4802   5482142.4823   1  17   0.0005   0.0004   0.0011   0.0004   0.0006   0.0007   0.19    5.3
2017/07/23 10:04:14.400   2773768.7777   1652507.4802   5482142.4823   1  17   0.0005   0.0004   0.0011   0.0004   0.0006   0.0007   0.19    5.3
2017/07/23 10:04:14.600   2773768.7777   1652507.4802   5482142.4823   1  17   0.0005   0.0004   0.0011   0.0004   0.0006   0.0007   0.19    5.3
2017/07/23 10:04:14.800   2773768.7777   1652507.4802   5482142.4823   1  17   0.0005   0.0004   0.0011   0.0004   0.0006   0.0007   0.19    5.3
2017/07/23 10:04:15.000   2773768.7777   1652507.4802   5482142.4822   1  17   0.0005   0.0004   0.0011   0.0004   0.0006   0.0007   0.19    5.3
2017/07/23 10:04:15.200   2773768.7777   1652507.4802   5482142.4822   1  17   0.0005   0.0004   0.0011   0.0004   0.0006   0.0007   0.19    5.3
2017/07/23 10:04:15.400   2773768.7776   1652507.4802   5482142.4822   1  17   0.0005   0.0004   0.0011   0.0004   0.0006   0.0007   0.19    5.3
2017/07/23 10:04:15.600   2773768.7776   1652507.4802   5482142.4822   1  17   0.0005   0.0004   0.0011   0.0004   0.0006   0.0007   0.19    5.3
2017/07/23 10:04:15.800   2773768.7776   1652507.4802   5482142.4821   1  17   0.0005   0.0004   0.0011   0.0004   0.0006   0.0007   0.19    5.3
2017/07/23 10:04:16.000   2773768.7776   1652507.4802   5482142.4821   1  17   0.0005   0.0004   0.0011   0.0004   0.0006   0.0007   0.19    5.3
2017/07/23 10:04:16.200   2773768.7776   1652507.4802   5482142.4821   1  17   0.0005   0.0004   0.0011   0.0004   0.0006   0.0007   0.19    5.3
2017/07/23 10:04:16.400   2773768.7776   1652507.4802   5482142.4821   1  17   0.0005   0.0004   0.0011   0.0004   0.0006   0.0007   0.19    5.3
2017/07/23 10:04:16.600   2773768.7775   1652507.4802   5482142.4820   1  17   0.0005   0.0004   0.0011   0.0004   0.0006   0.0007   0.19    5.3
2017/07/23 10:04:16.800   2773768.7775   1652507.4802   5482142.4820   1  17   0.0005   0.0004   0.0011   0.0004   0.0006   0.0007   0.19    5.3
2017/07/23 10:04:17.000   2773768.7775   1652507.4801   5482142.4820   1  17   0.0005   0.0004   0.0011   0.0004   0.0006   0.0007   0.19    5.3
2017/07/23 10:04:17.200   2773768.7775   1652507.4801   5482142.4819   1  17   0.0005   0.0004   0.0011   0.0004   0.0006   0.0007   0.19    5.3
2017/07/23 10:04:17.400   2773768.7775   1652507.4801   5482142.4819   1  17   0.0005   0.0004   0.0011   0.0004   0.0006   0.0007   0.19    5.3
2017/07/23 10:04:17.600   2773768.7775   1652507.4801   5482142.4819   1  17   0.0005   0.0004   0.0011   0.0004   0.0006   0.0007   0.19    5.3
2017/07/23 10:04:17.800   2773768.7775   1652507.4801   5482142.4818   1  17   0.0005   0.0004   0.0011   0.0004   0.0006   0.0007   0.19    5.2
2017/07/23 10:04:18.000   2773768.7774   1652507.4801   5482142.4818   1  17   0.0005   0.0004   0.0011   0.0004   0.0006   0.0007   0.19    5.2
2017/07/23 10:04:18.200   2773768.7774   1652507.4801   5482142.4818   1  17   0.0005   0.0004   0.0011   0.0004   0.0006   0.0007   0.19    5.2
2017/07/23 10:04:18.400   2773768.7774   1652507.4801   5482142.4818   1  17   0.0005   0.0004   0.0011   0.0004   0.0006   0.0007   0.19    5.2
2017/07/23 10:04:18.600   2773768.7774   1652507.4801   5482142.4817   1  17   0.0005   0.0004   0.0011   0.0004   0.0006   0.0007   0.19    5.2
2017/07/23 10:04:18.800   2773768.7774   1652507.4801   5482142.4817   1  17   0.0005   0.0004   0.0011   0.0004   0.0006   0.0007   0.19    5.2
2017/07/23 10:04:19.000   2773768.7774   1652507.4801   5482142.4817   1  17   0.0005   0.0004   0.0011   0.0004   0.0006   0.0007   0.19    5.2
2017/07/23 10:04:19.200   2773768.7774   1652507.4801   5482142.4817   1  17   0.0005   0.0004   0.0011   0.0004   0.0006   0.0007   0.19    5.2
2017/07/23 10:04:19.400   2773768.7774   1652507.4801   5482142.4816   1  17   0.0005   0.0004   0.0011   0.0004   0.0006   0.0007   0.19    5.2
2017/07/23 10:04:19.600   2773768.7773   1652507.4801   5482142.4816   1  17   0.0005   0.0004   0.0011   0.0004   0.0006   0.0007   0.19    5.2
2017/07/23 10:04:19.800   2773768.7773   1652507.4801   5482142.4816   1  17   0.0005   0.0004   0.0011   0.0004   0.0006   0.0007   0.19    5.2
2017/07/23 10:04:20.000   2773768.7773   1652507.4800   5482142.4815   1  17   0.0005   0.0004   0.0011   0.0004   0.0006   0.0007   0.19    5.2
2017/07/23 10:04:20.200   2773768.7773   1652507.4800   5482142.4815   1  17   0.0005   0.0004   0.0011   0.0004   0.0006   0.0007   0.19    5.2
2017/07/23 10:04:20.400   2773768.7773   1652507.4800   5482142.4815   1  17   0.0005   0.0004   0.0011   0.0004   0.0006   0.0007   0.19    5.2
2017/07/23 10:04:20.600   2773768.7773   1652507.4800   5482142.4815   1  17   0.0005   0.0004   0.0011   0.0004   0.0006   0.0007   0.19    5.2
2017/07/23 10:04:20.800   2773768.7773   1652507.4800   5482142.4814   1  17   0.0005   0.0004   0.0011   0.0004   0.0006   0.0007   0.19    5.2
2017/07/23 10:04:21.000   2773768.7772   1652507.4800   5482142.4814   1  17   0.0005   0.0004   0.0011   0.0004   0.0006   0.0007   0.19    5.2
2017/07/23 10:04:21.200   2773768.7772   1652507.4800   5482142.4814   1  17   0.0005   0.0004   0.0011   0.0004   0.0006   0.0007   0.19    5.2
2017/07/23 10:04:21.400   2773768.7772   1652507.4800   5482142.4814   1  17   0.0005   0.0004   0.0011   0.0004   0.0006   0.0007   0.19    5.2
2017/07/23 10:04:21.600   2773768.7772   1652507.4800   5482142.4813   1  17   0.0005   0.0004   0.0011   0.0004   0.0006   0.0007   0.19    5.2
2017/07/23 10:04:21.800   2773768.7772   1652507.4800   5482142.4813   1  17   0.0005   0.0004   0.0011   0.0004   0.0006   0.0007   0.19    5.2
2017/07/23 10:04:22.000   2773768.7772   1652507.4800   5482142.4813   1  17   0.0005   0.0004   0.0011   0.0004   0.0006   0.0007   0.19    5.2
2017/07/23 10:04:22.200   2773768.7772   1652507.4800   5482142.4813   1  17   0.0005   0.0004   0.0011   0.0004   0.0006   0.0007   0.19    5.2
2017/07/23 10:04:22.400   2773768.7772   1652507.4800   5482142.4812   1  17   0.0005   0.0004   0.0011   0.0004   0.0006   0.0007   0.19    5.2
2017/07/23 10:04:22.600   2773768.7772   1652507.4800   5482142.4812   1  17   0.0005   0.0004   0.0011   0.0004   0.0006   0.0007   0.19    5.2
2017/07/23 10:04:22.800   2773768.7771   1652507.4800   5482142.4812   1  17   0.0005   0.0004   0.0011   0.0004   0.0006   0.0007   0.19    5.1
2017/07/23 10:04:23.000   2773768.7771   1652507.4800   5482142.4812   1  17   0.0005   0.0004   0.0011   0.0004   0.0006   0.0007   0.19    5.1
2017/07/23 10:04:23.200   2773768.7771   1652507.4800   5482142.4812   1  17   0.0005   0.0004   0.0011   0.0004   0.0006   0.0007   0.19    5.1
2017/07/23 10:04:23.400   2773768.7771   1652507.4800   5482142.4811   1  17   0.0005   0.0004   0.0011   0.0004   0.0006   0.0007   0.19    5.1
2017/07/23 10:04:23.600   2773768.7771   1652507.4800   5482142.4811   1  17   0.0005   0.0004   0.0011   0.0004   0.0006   0.0007   0.19    5.1
2017/07/23 10:04:23.800   2773768.7771   1652507.4800   5482142.4811   1  17   0.0005   0.0004   0.0011   0.0004   0.0006   0.0007   0.19    5.1
2017/07/23 10:04:24.000   2773768.7771   1652507.4800   5482142.4811   1  17   0.0005   0.0004   0.0011   0.0004   0.0006   0.0007   0.19    5.1
2017/07/23 10:04:24.200   2773768.7771   1652507.4800   5482142.4811   1  17   0.0005   0.0004   0.0011   0.0004   0.0006   0.0007   0.19    5.1
2017/07/23 10:04:24.400   2773768.7771   1652507.4800   5482142.4810   1  17   0.0005   0.0004   0.0011   0.0004   0.0006   0.0007   0.19    5.1
2017/07/23 10:04:24.600   2773768.7771   1652507.4800   5482142.4810   1  17   0.0005   0.0004   0.0011   0.0004   0.0006   0.0007   0.19    5.1
2017/07/23 10:04:24.800   2773768.7771   1652507.4800   5482142.4810   1  17   0.0005   0.0004   0.0011   0.0004   0.0006   0.0007   0.19    5.1
2017/07/23 10:04:25.000   2773768.7770   1652507.4800   5482142.4810   1  17   0.0005   0.0004   0.0011   0.0004   0.0006   0.0007   0.19    5.1
2017/07/23 10:04:25.200   2773768.7770   1652507.4800   5482142.4810   1  17   0.0005   0.0004   0.0011   0.0004   0.0006   0.0007   0.19    5.1
2017/07/23 10:04:25.400   2773768.7770   1652507.4800   5482142.4809   1  17   0.0005   0.0004   0.0011   0.0004   0.0006   0.0007   0.19    5.1
2017/07/23 10:04:25.600   2773768.7770   1652507.4799   5482142.4809   1  17   0.0005   0.0004   0.0011   0.0004   0.0006   0.0007   0.19    5.1
2017/07/23 10:04:25.800   2773768.7770   1652507.4799   5482142.4809   1  17   0.0005   0.0004   0.0011   0.0004   0.0006   0.0007   0.19    5.1
2017/07/23 10:04:26.000   2773768.7770   1652507.4799   5482142.4809   1  17   0.0005   0.0004   0.0011   0.0004   0.0006   0.0007   0.19    5.1
2017/07/23 10:04:26.200   2773768.7770   1652507.4799   5482142.4809   1  17   0.0005   0.0004   0.0011   0.0004   0.0006   0.0007   0.19    5.1
2017/07/23 10:04:26.400   2773768.7770   1652507.4799   5482142.4808   1  17   0.0005   0.0004   0.0011   0.0004   0.0006   0.0007   0.19    5.1
2017/07/23 10:04:26.600   2773768.7770   1652507.4799   5482142.4808   1  17   0.0005   0.0004   0.0011   0.0004   0.0006   0.0007   0.19    5.1
2017/07/23 10:04:26.800   2773768.7770   1652507.4799   5482142.4808   1  17   0.0005   0.0004   0.0011   0.0004   0.0006   0.0007   0.19    5.1
2017/07/23 10:04:27.000   2773768.7769   1652507.4799   5482142.4808   1  17   0.0005   0.0004   0.0011   0.0004   0.0006   0.0007   0.19    5.1
2017/07/23 10:04:27.200   2773768.7769   1652507.4799   5482142.4808   1  17   0.0005   0.0004   0.0011   0.0004   0.0006   0.0007   0.19    5.1
2017/07/23 10:04:27.400   2773768.7769   1652507.4799   5482142.4808   1  17   0.0005   0.0004   0.0011   0.0004   0.0006   0.0007   0.19    5.1
2017/07/23 10:04:27.600   2773768.7769   1652507.4799   5482142.4808   1  17   0.0005   0.0004   0.0011   0.0004   0.0006   0.0007   0.19    5.1
2017/07/23 10:04:27.800   2773768.7769   1652507.4799   5482142.4808   1  17   0.0005   0.0004   0.0011   0.0004   0.0006   0.0007   0.19    5.1
2017/07/23 10:04:28.000   2773768.7769   1652507.4799   5482142.4808   1  17   0.0005   0.0004   0.0011   0.0004   0.0006   0.0007   0.19    5.1
2017/07/23 10:04:28.200   2773768.7769   1652507.4799   5482142.4808   1  17   0.0005   0.0004   0.0011   0.0004   0.0006   0.0007   0.19    5.1
2017/07/23 10:04:28.400   2773768.7769   1652507.4799   5482142.4808   1  17   0.0005   0.0004   0.0011   0.0004   0.0006   0.0007   0.19    5.1
2017/07/23 10:04:28.600   2773768.7769   1652507.4799   5482142.4808   1  17   0.0005   0.0004   0.0011   0.0004   0.0006   0.0007   0.19    5.0
2017/07/23 10:04:28.800   2773768.7769   1652507.4799   5482142.4808   1  17   0.0005   0.0004   0.0011   0.0004   0.0006   0.0007   0.19    5.0
2017/07/23 10:04:29.000   2773768.7769   1652507.4799   5482142.4807   1  17   0.0005   0.0004   0.0011   0.0004   0.0006   0.0007   0.19    5.0
2017/07/23 10:04:29.200   2773768.7769   1652507.4799   5482142.4807   1  17   0.0005   0.0004   0.0011   0.0004   0.0006   0.0007   0.19    5.0
2017/07/23 10:04:29.400   2773768.7769   1652507.4799   5482142.4807   1  17   0.0005   0.0004   0.0011   0.0004   0.0006   0.0007   0.19    5.0
2017/07/23 10:04:29.600   2773768.7769   1652507.4800   5482142.4807   1  17   0.0005   0.0004   0.0011   0.0004   0.0006   0.0007   0.19    5.0
2017/07/23 10:04:29.800   2773768.7769   1652507.4800   5482142.4807   1  17   0.0005   0.0004   0.0011   0.0004   0.0006   0.0007   0.19    5.0
2017/07/23 10:04:30.000   2773768.7769   1652507.4800   5482142.4808   1  17   0.0005   0.0004   0.0011   0.0004   0.0006   0.0007   0.19    5.0
2017/07/23 10:04:30.200   2773768.7769   1652507.4800   5482142.4808   1  17   0.0005   0.0004   0.0011   0.0004   0.0006   0.0007   0.19    5.0
2017/07/23 10:04:30.400   2773768.7769   1652507.4800   5482142.4808   1  17   0.0005   0.0004   0.0011   0.0004   0.0006   0.0007   0.19    5.0
2017/07/23 10:04:30.600   2773768.7769   1652507.4800   5482142.4808   1  17   0.0005   0.0004   0.0011   0.0004   0.0006   0.0007   0.19    5.0
2017/07/23 10:04:30.800   2773768.7769   1652507.4800   5482142.4808   1  17   0.0005   0.0004   0.0011   0.0004   0.0006   0.0007   0.19    5.0
2017/07/23 10:04:31.000   2773768.7769   1652507.4800   5482142.4808   1  17   0.0005   0.0004   0.0011   0.0004   0.0006   0.0007   0.19    5.0
2017/07/23 10:04:31.200   2773768.7769   1652507.4800   5482142.4808   1  17   0.0005   0.0004   0.0011   0.0004   0.0006   0.0007   0.19    5.0
2017/07/23 10:04:31.400   2773768.7769   1652507.4800   5482142.4808   1  17   0.0005   0.0004   0.0011   0.0004   0.0006   0.0007   0.19    5.0
2017/07/23 10:04:31.600   2773768.7769   1652507.4800   5482142.4808   1  17   0.0005   0.0004   0.0011   0.0004   0.0006   0.0007   0.19    5.0
2017/07/23 10:04:31.800   2773768.7769   1652507.4800   5482142.4808   1  17   0.0005   0.0004   0.0011   0.0004   0.0006   0.0007   0.19    5.0
2017/07/23 10:04:32.000   2773768.7769   1652507.4800   5482142.4808   1  17   0.0005   0.0004   0.0011   0.0004   0.0006   0.0007   0.19    5.0
2017/07/23 10:04:32.200   2773768.7769   1652507.4800   5482142.4808   1  17   0.0005   0.0004   0.0011   0.0004   0.0006   0.0007   0.19    5.0
2017/07/23 10:04:32.400   2773768.7769   1652507.4800   5482142.4808   1  17   0.0005   0.0004   0.0011   0.0004   0.0006   0.0007   0.19    5.0
2017/07/23 10:04:32.600   2773768.7643   1652507.2890   5482142.3440   1  17   0.0005   0.0004   0.0010   0.0004   0.0005   0.0006  -0.01    3.0
2017/07/23 10:04:32.800   2773768.7642   1652507.2881   5482142.3432   1  17   0.0005   0.0004   0.0010   0.0004   0.0005   0.0006  -0.01    3.1
2017/07/23 10:04:33.000   2773768.7642   1652507.2873   5482142.3424   1  17   0.0005   0.0004   0.0010   0.0004   0.0005   0.0006  -0.01    3.1
2017/07/23 10:04:33.200   2773768.7642   1652507.2864   5482142.3416   1  17   0.0005   0.0004   0.0010   0.0004   0.0005   0.0006  -0.01    3.2
2017/07/23 10:04:33.400   2773768.7641   1652507.2856   5482142.3408   1  17   0.0005   0.0004   0.0010   0.0004   0.0005   0.0006  -0.01    3.2
2017/07/23 10:04:33.600   2773768.7641   1652507.2847   5482142.3400   1  17   0.0005   0.0004   0.0010   0.0004   0.0005   0.0006  -0.01    3.3
2017/07/23 10:04:33.800   2773768.7641   1652507.2839   5482142.3392   1  17   0.0005   0.0004   0.0010   0.0004   0.0005   0.0006  -0.01    3.3
2017/07/23 10:04:34.000   2773768.7640   1652507.2830   5482142.3384   1  17   0.0005   0.0004   0.0010   0.0004   0.0005   0.0006  -0.01    3.3
2017/07/23 10:04:34.200   2773768.7640   1652507.2822   5482142.3377   1  17   0.0005   0.0004   0.0010   0.0004   0.0005   0.0006  -0.01    3.4
2017/07/23 10:04:34.400   2773768.7640   1652507.2814   5482142.3369   1  17   0.0005   0.0004   0.0010   0.0004   0.0005   0.0006  -0.01    3.5
2017/07/23 10:04:34.600   2773768.7640   1652507.2805   5482142.3361   1  17   0.0005   0.0004   0.0010   0.0004   0.0005   0.0006  -0.01    3.5
2017/07/23 10:04:34.800   2773768.7639   1652507.2797   5482142.3353   1  17   0.0005   0.0004   0.0010   0.0004   0.0005   0.0006  -0.01    3.5
2017/07/23 10:04:35.000   2773768.7639   1652507.2789   5482142.3345   1  17   0.0005   0.0004   0.0010   0.0004   0.0005   0.0006  -0.01    3.6
2017/07/23 10:04:35.200   2773768.7639   1652507.2780   5482142.3337   1  17   0.0005   0.0004   0.0010   0.0004   0.0005   0.0006  -0.01    3.6
2017/07/23 10:04:35.400   2773768.7638   1652507.2772   5482142.3329   1  17   0.0005   0.0004   0.0010   0.0004   0.0005   0.0006  -0.01    3.6
2017/07/23 10:04:35.600   2773768.7638   1652507.2764   5482142.3322   1  17   0.0005   0.0004   0.0010   0.0004   0.0005   0.0006  -0.01    3.7
2017/07/23 10:04:35.800   2773768.7638   1652507.2756   5482142.3314   1  17   0.0005   0.0004   0.0010   0.0004   0.0005   0.0006  -0.01    3.7
2017/07/23 10:04:36.000   2773768.7638   1652507.2748   5482142.3306   1  17   0.0005   0.0004   0.0010   0.0004   0.0005   0.0006  -0.01    3.8
2017/07/23 10:04:36.200   2773768.7637   1652507.2740   5482142.3298   1  17   0.0005   0.0004   0.0010   0.0004   0.0005   0.0006  -0.01    3.8
2017/07/23 10:04:36.400   2773768.7637   1652507.2732   5482142.3291   1  17   0.0005   0.0004   0.0010   0.0004   0.0005   0.0006  -0.01    3.8
2017/07/23 10:04:36.600   2773768.7637   1652507.2724   5482142.3283   1  17   0.0005   0.0004   0.0010   0.0004   0.0005   0.0006  -0.01    3.9
2017/07/23 10:04:36.800   2773768.7637   1652507.2716   5482142.3275   1  17   0.0005   0.0004   0.0010   0.0004   0.0005   0.0006  -0.01    3.9
2017/07/23 10:04:37.000   2773768.7637   1652507.2708   5482142.3267   1  17   0.0005   0.0004   0.0010   0.0004   0.0005   0.0006  -0.01    3.9
2017/07/23 10:04:37.200   2773768.7636   1652507.2700   5482142.3260   1  17   0.0005   0.0004   0.0010   0.0004   0.0005   0.0006  -0.01    3.9
2017/07/23 10:04:37.400   2773768.7636   1652507.2692   5482142.3252   1  17   0.0005   0.0004   0.0010   0.0004   0.0005   0.0006  -0.01    3.9
2017/07/23 10:04:37.600   2773768.7636   1652507.2685   5482142.3244   1  17   0.0005   0.0004   0.0010   0.0004   0.0005   0.0006  -0.01    3.8
2017/07/23 10:04:37.800   2773768.7636   1652507.2677   5482142.3237   1  17   0.0005   0.0004   0.0010   0.0004   0.0005   0.0006  -0.01    3.8
2017/07/23 10:04:38.000   2773768.7635   1652507.2669   5482142.3229   1  17   0.0005   0.0004   0.0010   0.0004   0.0005   0.0006  -0.01    3.8
2017/07/23 10:04:38.200   2773768.7635   1652507.2661   5482142.3222   1  17   0.0005   0.0004   0.0010   0.0004   0.0005   0.0006  -0.01    3.8
2017/07/23 10:04:38.400   2773768.7635   1652507.2654   5482142.3214   1  17   0.0005   0.0004   0.0010   0.0004   0.0005   0.0006  -0.01    3.7
2017/07/23 10:04:38.600   2773768.7635   1652507.2646   5482142.3207   1  17   0.0005   0.0004   0.0010   0.0004   0.0005   0.0006  -0.01    3.7
2017/07/23 10:04:38.800   2773768.7635   1652507.2638   5482142.3199   1  17   0.0005   0.0004   0.0010   0.0004   0.0005   0.0006  -0.01    3.7
2017/07/23 10:04:39.000   2773768.7634   1652507.2631   5482142.3191   1  17   0.0005   0.0004   0.0010   0.0004   0.0005   0.0006  -0.01    3.7
2017/07/23 10:04:39.200   2773768.7634   1652507.2623   5482142.3184   1  17   0.0005   0.0004   0.0010   0.0004   0.0005   0.0006  -0.01    3.7
2017/07/23 10:04:39.400   2773768.7634   1652507.2616   5482142.3176   1  17   0.0005   0.0004   0.0010   0.0004   0.0005   0.0006  -0.01    3.7
2017/07/23 10:04:39.600   2773768.7634   1652507.2608   5482142.3169   1  17   0.0005   0.0004   0.0010   0.0004   0.0005   0.0006  -0.01    3.7
2017/07/23 10:04:39.800   2773768.7634   1652507.2601   5482142.3161   1  17   0.0005   0.0004   0.0010   0.0004   0.0005   0.0006  -0.01    3.6
2017/07/23 10:04:40.000   2773768.7633   1652507.2593   5482142.3154   1  17   0.0005   0.0004   0.0010   0.0004   0.0005   0.0006  -0.01    3.6
2017/07/23 10:04:40.200   2773768.7633   1652507.2586   5482142.3147   1  17   0.0005   0.0004   0.0010   0.0004   0.0005   0.0006  -0.01    3.6
2017/07/23 10:04:40.400   2773768.7633   1652507.2578   5482142.3139   1  17   0.0005   0.0004   0.0010   0.0004   0.0005   0.0006  -0.01    3.6
2017/07/23 10:04:40.600   2773768.7633   1652507.2571   5482142.3132   1  17   0.0005   0.0004   0.0010   0.0004   0.0005   0.0006  -0.01    3.6
2017/07/23 10:04:40.800   2773768.7633   1652507.2564   5482142.3124   1  17   0.0005   0.0004   0.0010   0.0004   0.0005   0.0006  -0.01    3.6
2017/07/23 10:04:41.000   2773768.7633   1652507.2556   5482142.3117   1  17   0.0005   0.0004   0.0010   0.0004   0.0005   0.0006  -0.01    3.6
2017/07/23 10:04:41.200   2773768.7632   1652507.2549   5482142.3110   1  17   0.0005   0.0004   0.0010   0.0004   0.0005   0.0006  -0.01    3.6
2017/07/23 10:04:41.400   2773768.7632   1652507.2542   5482142.3102   1  17   0.0005   0.0004   0.0010   0.0004   0.0005   0.0006  -0.01    3.5
2017/07/23 10:04:41.600   2773768.7632   1652507.2535   5482142.3095   1  17   0.0005   0.0004   0.0010   0.0004   0.0005   0.0006  -0.01    3.5
2017/07/23 10:04:41.800   2773768.7632   1652507.2527   5482142.3088   1  17   0.0005   0.0004   0.0010   0.0004   0.0005   0.0006  -0.01    3.5
2017/07/23 10:04:42.000   2773768.7632   1652507.2520   5482142.3080   1  17   0.0005   0.0004   0.0010   0.0004   0.0005   0.0006  -0.01    3.5
2017/07/23 10:04:42.200   2773768.7632   1652507.2513   5482142.3073   1  17   0.0005   0.0004   0.0010   0.0004   0.0005   0.0006  -0.01    3.5
2017/07/23 10:04:42.400   2773768.7632   1652507.2506   5482142.3066   1  17   0.0005   0.0004   0.0010   0.0004   0.0005   0.0006  -0.01    3.5
2017/07/23 10:04:42.600   2773768.7632   1652507.2499   5482142.3059   1  17   0.0005   0.0004   0.0010   0.0004   0.0005   0.0006  -0.01    3.5
2017/07/23 10:04:42.800   2773768.7631   1652507.2492   5482142.3052   1  17   0.0005   0.0004   0.0010   0.0004   0.0005   0.0006  -0.01    3.5
2017/07/23 10:04:43.000   2773768.7631   1652507.2485   5482142.3044   1  17   0.0005   0.0004   0.0010   0.0004   0.0005   0.0006  -0.01    3.5
2017/07/23 10:04:43.200   2773768.7631   1652507.2478   5482142.3037   1  17   0.0005   0.0004   0.0010   0.0004   0.0005   0.0006  -0.01    3.5
2017/07/23 10:04:43.400   2773768.7631   1652507.2471   5482142.3030   1  17   0.0005   0.0004   0.0010   0.0004   0.0005   0.0006  -0.01    3.5
2017/07/23 10:04:43.600   2773768.7631   1652507.2464   5482142.3023   1  17   0.0005   0.0004   0.0010   0.0004   0.0005   0.0006  -0.01    3.4
2017/07/23 10:04:43.800   2773768.7631   1652507.2457   5482142.3016   1  17   0.0005   0.0004   0.0010   0.0004   0.0005   0.0006  -0.01    3.4
2017/07/23 10:04:44.000   2773768.7631   1652507.2450   5482142.3008   1  17   0.0005   0.0004   0.0010   0.0004   0.0005   0.0006  -0.01    3.4
2017/07/23 10:04:44.200   2773768.7631   1652507.2443   5482142.3001   1  17   0.0005   0.0004   0.0010   0.0004   0.0005   0.0006  -0.01    3.4
2017/07/23 10:04:44.400   2773768.7630   1652507.2436   5482142.2994   1  17   0.0005   0.0004   0.0010   0.0004   0.0005   0.0006  -0.01    3.4
2017/07/23 10:04:44.600   2773768.7630   1652507.2429   5482142.2987   1  17   0.0005   0.0004   0.0010   0.0004   0.0005   0.0006  -0.01    3.4
2017/07/23 10:04:44.800   2773768.7630   1652507.2422   5482142.2980   1  17   0.0005   0.0004   0.0010   0.0004   0.0005   0.0006  -0.01    3.3
2017/07/23 10:04:45.000   2773768.7630   1652507.2416   5482142.2973   1  17   0.0005   0.0004   0.0010   0.0004   0.0005   0.0006  -0.01    3.3
2017/07/23 10:04:45.200   2773768.7630   1652507.2409   5482142.2966   1  17   0.0005   0.0004   0.0010   0.0004   0.0005   0.0006  -0.01    3.3
2017/07/23 10:04:45.400   2773768.7630   1652507.2402   5482142.2959   1  17   0.0005   0.0004   0.0010   0.0004   0.0005   0.0006  -0.01    3.2
2017/07/23 10:04:45.600   2773768.7630   1652507.2395   5482142.2952   1  17   0.0005   0.0004   0.0010   0.0004   0.0005   0.0006  -0.01    3.2
2017/07/23 10:04:45.800   2773768.7630   1652507.2389   5482142.2945   1  17   0.0005   0.0004   0.0010   0.0004   0.0005   0.0006  -0.01    3.2
2017/07/23 10:04:46.000   2773768.7630   1652507.2382   5482142.2938   1  17   0.0005   0.0004   0.0010   0.0004   0.0005   0.0006  -0.01    3.2
2017/07/23 10:04:46.200   2773768.7630   1652507.2375   5482142.2931   1  17   0.0005   0.0004   0.0010   0.0004   0.0005   0.0006  -0.01    3.1
2017/07/23 10:04:46.400   2773768.7630   1652507.2369   5482142.2924   1  17   0.0005   0.0004   0.0010   0.0004   0.0005   0.0006  -0.01    3.1
2017/07/23 10:04:46.600   2773768.7630   1652507.2362   5482142.2917   1  17   0.0005   0.0004   0.0010   0.0004   0.0005   0.0006  -0.01    3.1
2017/07/23 10:04:46.800   2773768.7630   1652507.2356   5482142.2910   1  17   0.0005   0.0004   0.0010   0.0004   0.0005   0.0006  -0.01    3.1
2017/07/23 10:04:47.000   2773768.7629   1652507.2349   5482142.2903   1  17   0.0005   0.0004   0.0010   0.0004   0.0005   0.0006  -0.01    3.1
2017/07/23 10:04:47.200   2773768.7629   1652507.2343   5482142.2896   1  17   0.0005   0.0004   0.0010   0.0004   0.0005   0.0006  -0.01    3.1
2017/07/23 10:04:47.400   2773768.7629   1652507.2336   5482142.2890   1  17   0.0005   0.0004   0.0010   0.0004   0.0005   0.0006  -0.01    3.0
2017/07/23 10:04:47.600   2773768.7629   1652507.2330   5482142.2883   1  17   0.0005   0.0004   0.0010   0.0004   0.0005   0.0006  -0.01    3.0
2017/07/23 10:04:47.800   2773768.7629   1652507.2323   5482142.2876   1  17   0.0005   0.0004   0.0010   0.0004   0.0005   0.0006  -0.01    3.1
2017/07/23 10:04:48.000   2773768.7629   1652507.2317   5482142.2869   1  17   0.0005   0.0004   0.0010   0.0004   0.0005   0.0006  -0.01    3.0
2017/07/23 10:04:48.200   2773768.7629   1652507.2310   5482142.2862   1  17   0.0005   0.0004   0.0010   0.0004   0.0005   0.0006  -0.01    3.0
2017/07/23 10:04:48.400   2773768.7770   1652507.4805   5482142.4812   1  17   0.0005   0.0004   0.0011   0.0004   0.0006   0.0007   0.19    4.8
2017/07/23 10:04:48.600   2773768.7770   1652507.4805   5482142.4812   1  17   0.0005   0.0004   0.0011   0.0004   0.0006   0.0007   0.19    4.8
2017/07/23 10:04:48.800   2773768.7770   1652507.4805   5482142.4812   1  17   0.0005   0.0004   0.0011   0.0004   0.0006   0.0007   0.19    4.8
2017/07/23 10:04:49.000   2773768.7770   1652507.4805   5482142.4812   1  17   0.0005   0.0004   0.0011   0.0004   0.0006   0.0007   0.19    4.8
2017/07/23 10:04:49.200   2773768.7770   1652507.4805   5482142.4812   1  17   0.0005   0.0004   0.0011   0.0004   0.0006   0.0007   0.19    4.7
2017/07/23 10:04:49.400   2773768.7769   1652507.4805   5482142.4812   1  17   0.0005   0.0004   0.0011   0.0004   0.0006   0.0007   0.19    4.7
2017/07/23 10:04:49.600   2773768.7769   1652507.4805   5482142.4812   1  17   0.0005   0.0004   0.0011   0.0004   0.0006   0.0007   0.19    4.7
2017/07/23 10:04:49.800   2773768.7769   1652507.4805   5482142.4812   1  17   0.0005   0.0004   0.0011   0.0004   0.0006   0.0007   0.19    4.7
2017/07/23 10:04:50.000   2773768.7769   1652507.4805   5482142.4812   1  17   0.0005   0.0004   0.0011   0.0004   0.0006   0.0007   0.19    4.7
2017/07/23 10:04:50.200   2773768.7769   1652507.4805   5482142.4812   1  17   0.0005   0.0004   0.0011   0.0004   0.0006   0.0007   0.19    4.7
2017/07/23 10:04:50.400   2773768.7769   1652507.4805   5482142.4812   1  17   0.0005   0.0004   0.0011   0.0004   0.0006   0.0007   0.19    4.7
2017/07/23 10:04:50.600   2773768.7769   1652507.4805   5482142.4812   1  17   0.0005   0.0004   0.0011   0.0004   0.0006   0.0007   0.19    4.7
2017/07/23 10:04:50.800   2773768.7769   1652507.4805   5482142.4812   1  17   0.0005   0.0004   0.0011   0.0004   0.0006   0.0007   0.19    4.7
2017/07/23 10:04:51.000   2773768.7769   1652507.4806   5482142.4813   1  17   0.0005   0.0004   0.0011   0.0004   0.0006   0.0007   0.19    4.7
2017/07/23 10:04:51.200   2773768.7769   1652507.4806   5482142.4813   1  17   0.0005   0.0004   0.0011   0.0004   0.0006   0.0007   0.19    4.7
2017/07/23 10:04:51.400   2773768.7769   1652507.4806   5482142.4813   1  17   0.0005   0.0004   0.0011   0.0004   0.0006   0.0007   0.19    4.7
2017/07/23 10:04:51.600   2773768.7769   1652507.4806   5482142.4813   1  17   0.0005   0.0004   0.0011   0.0004   0.0006   0.0007   0.19    4.7
2017/07/23 10:04:51.800   2773768.7769   1652507.4806   5482142.4813   1  17   0.0005   0.0004   0.0011   0.0004   0.0006   0.0007   0.19    4.7
2017/07/23 10:04:52.000   2773768.7769   1652507.4806   5482142.4813   1  17   0.0005   0.0004   0.0011   0.0004   0.0006   0.0007   0.19    4.7
2017/07/23 10:04:52.200   2773768.7769   1652507.4806   5482142.4813   1  17   0.0005   0.0004   0.0011   0.0004   0.0006   0.0007   0.19    4.7
2017/07/23 10:04:52.400   2773768.7769   1652507.4806   5482142.4813   1  17   0.0005   0.0004   0.0011   0.0004   0.0006   0.0007   0.19    4.7
2017/07/23 10:04:52.600   2773768.7769   1652507.4806   5482142.4813   1  17   0.0005   0.0004   0.0011   0.0004   0.0006   0.0007   0.19    4.7
2017/07/23 10:04:52.800   2773768.7769   1652507.4806   5482142.4813   1  17   0.0005   0.0004   0.0011   0.0004   0.0006   0.0007   0.19    4.7
2017/07/23 10:04:53.000   2773768.7769   1652507.4806   5482142.4813   1  17   0.0005   0.0004   0.0011   0.0004   0.0006   0.0007   0.19    4.7
2017/07/23 10:04:53.200   2773768.7769   1652507.4806   5482142.4813   1  17   0.0005   0.0004   0.0011   0.0004   0.0006   0.0007   0.19    4.7
2017/07/23 10:04:53.400   2773768.7769   1652507.4806   5482142.4813   1  17   0.0005   0.0004   0.0011   0.0004   0.0006   0.0007   0.19    4.7
2017/07/23 10:04:53.600   2773768.7769   1652507.4806   5482142.4813   1  17   0.0005   0.0004   0.0011   0.0004   0.0006   0.0007   0.19    4.7
2017/07/23 10:04:53.800   2773768.7769   1652507.4806   5482142.4813   1  17   0.0005   0.0004   0.0011   0.0004   0.0006   0.0007   0.19    4.7
2017/07/23 10:04:54.000   2773768.7769   1652507.4806   5482142.4813   1  17   0.0005   0.0004   0.0011   0.0004   0.0006   0.0007   0.19    4.7
2017/07/23 10:04:54.200   2773768.7769   1652507.4806   5482142.4812   1  17   0.0005   0.0004   0.0011   0.0004   0.0006   0.0007   0.19    4.7
2017/07/23 10:04:54.400   2773768.7769   1652507.4806   5482142.4812   1  17   0.0005   0.0004   0.0011   0.0004   0.0006   0.0007   0.19    4.7
2017/07/23 10:04:54.600   2773768.7769   1652507.4806   5482142.4812   1  17   0.0005   0.0004   0.0011   0.0004   0.0006   0.0007   0.19    4.7
2017/07/23 10:04:54.800   2773768.7769   1652507.4806   5482142.4812   1  17   0.0005   0.0004   0.0011   0.0004   0.0006   0.0007   0.19    4.7
2017/07/23 10:04:55.000   2773768.7769   1652507.4806   5482142.4812   1  17   0.0005   0.0004   0.0011   0.0004   0.0006   0.0007   0.19    4.7
2017/07/23 10:04:55.200   2773768.7769   1652507.4806   5482142.4812   1  17   0.0005   0.0004   0.0011   0.0004   0.0006   0.0007   0.19    4.7
2017/07/23 10:04:55.400   2773768.7769   1652507.4806   5482142.4812   1  17   0.0005   0.0004   0.0011   0.0004   0.0006   0.0007   0.19    4.7
2017/07/23 10:04:55.600   2773768.7769   1652507.4806   5482142.4812   1  17   0.0005   0.0004   0.0011   0.0004   0.0006   0.0007   0.19    4.7
2017/07/23 10:04:55.800   2773768.7769   1652507.4806   5482142.4813   1  17   0.0005   0.0004   0.0011   0.0004   0.0006   0.0007   0.19    4.7
2017/07/23 10:04:56.000   2773768.7769   1652507.4806   5482142.4813   1  17   0.0005   0.0004   0.0011   0.0004   0.0006   0.0007   0.19    4.7
2017/07/23 10:04:56.200   2773768.7769   1652507.4807   5482142.4813   1  17   0.0005   0.0004   0.0011   0.0004   0.0006   0.0007   0.19    4.7
2017/07/23 10:04:56.400   2773768.7769   1652507.4807   5482142.4813   1  17   0.0005   0.0004   0.0011   0.0004   0.0006   0.0007   0.19    4.6
2017/07/23 10:04:56.600   2773768.7769   1652507.4807   5482142.4813   1  17   0.0005   0.0004   0.0011   0.0004   0.0006   0.0007   0.19    4.6
2017/07/23 10:04:56.800   2773768.7769   1652507.4807   5482142.4813   1  17   0.0005   0.0004   0.0011   0.0004   0.0006   0.0007   0.19    4.6
2017/07/23 10:04:57.000   2773768.7769   1652507.4807   5482142.4813   1  17   0.0005   0.0004   0.0011   0.0004   0.0006   0.0007   0.19    4.6
2017/07/23 10:04:57.200   2773768.7769   1652507.4807   5482142.4814   1  17   0.0005   0.0004   0.0011   0.0004   0.0006   0.0007   0.19    4.6
2017/07/23 10:04:57.400   2773768.7769   1652507.4807   5482142.4814   1  17   0.0005   0.0004   0.0011   0.0004   0.0006   0.0007   0.19    4.6
2017/07/23 10:04:57.600   2773768.7769   1652507.4807   5482142.4814   1  17   0.0005   0.0004   0.0011   0.0004   0.0006   0.0007   0.19    4.6
2017/07/23 10:04:57.800   2773768.7769   1652507.4807   5482142.4814   1  17   0.0005   0.0004   0.0011   0.0004   0.0006   0.0007   0.19    4.6
2017/07/23 10:04:58.000   2773768.7769   1652507.4807   5482142.4814   1  17   0.0005   0.0004   0.0011   0.0004   0.0006   0.0007   0.19    4.6
2017/07/23 10:04:58.200   2773768.7769   1652507.4807   5482142.4814   1  17   0.0005   0.0004   0.0011   0.0004   0.0006   0.0007   0.19    4.6
2017/07/23 10:04:58.400   2773768.7769   1652507.4807   5482142.4814   1  17   0.0005   0.0004   0.0011   0.0004   0.0006   0.0007   0.19    4.6
2017/07/23 10:04:58.600   2773768.7769   1652507.4807   5482142.4814   1  17   0.0005   0.0004   0.0011   0.0004   0.0006   0.0007   0.19    4.6
2017/07/23 10:04:58.800   2773768.7769   1652507.4807   5482142.4815   1  17   0.0005   0.0004   0.0011   0.0004   0.0006   0.0007   0.19    4.6
2017/07/23 10:04:59.000   2773768.7769   1652507.4808   5482142.4815   1  17   0.0005   0.0004   0.0011   0.0004   0.0006   0.0007   0.19    4.6
2017/07/23 10:04:59.200   2773768.7769   1652507.4808   5482142.4815   1  17   0.0005   0.0004   0.0011   0.0004   0.0006   0.0007   0.19    4.6
2017/07/23 10:04:59.400   2773768.7769   1652507.4808   5482142.4815   1  17   0.0005   0.0004   0.0011   0.0004   0.0006   0.0007   0.19    4.6
2017/07/23 10:04:59.600   2773768.7769   1652507.4808   5482142.4815   1  17   0.0005   0.0004   0.0011   0.0004   0.0006   0.0007   0.19    4.6
2017/07/23 10:04:59.800   2773768.7769   1652507.4808   5482142.4816   1  17   0.0005   0.0004   0.0011   0.0004   0.0006   0.0007   0.19    4.6
2017/07/23 10:05:00.000   2773768.7769   1652507.4808   5482142.4816   1  17   0.0005   0.0004   0.0011   0.0004   0.0006   0.0007   0.19    4.6
2017/07/23 10:05:00.200   2773768.7770   1652507.4808   5482142.4816   1  17   0.0005   0.0004   0.0011   0.0004   0.0006   0.0007   0.19    4.6
2017/07/23 10:05:00.400   2773768.7769   1652507.4808   5482142.4816   1  17   0.0005   0.0004   0.0011   0.0004   0.0006   0.0007   0.19    4.6
2017/07/23 10:05:00.600   2773768.7769   1652507.4808   5482142.4816   1  17   0.0005   0.0004   0.0011   0.0004   0.0006   0.0007   0.19    4.6
2017/07/23 10:05:00.800   2773768.7769   1652507.4808   5482142.4816   1  17   0.0005   0.0004   0.0011   0.0004   0.0006   0.0007   0.19    4.6
2017/07/23 10:05:01.000   2773768.7769   1652507.4808   5482142.4816   1  17   0.0005   0.0004   0.0011   0.0004   0.0006   0.0007   0.19    4.6
2017/07/23 10:05:01.200   2773768.7769   1652507.4808   5482142.4816   1  17   0.0005   0.0004   0.0011   0.0004   0.0006   0.0007   0.19    4.6
2017/07/23 10:05:01.400   2773768.7769   1652507.4808   5482142.4816   1  17   0.0005   0.0004   0.0011   0.0004   0.0006   0.0007   0.19    4.6
2017/07/23 10:05:01.600   2773768.7769   1652507.4808   5482142.4816   1  17   0.0005   0.0004   0.0011   0.0004   0.0006   0.0007   0.19    4.6
2017/07/23 10:05:01.800   2773768.7769   1652507.4808   5482142.4816   1  17   0.0005   0.0004   0.0011   0.0004   0.0006   0.0007   0.19    4.6
2017/07/23 10:05:02.000   2773768.7769   1652507.4808   5482142.4816   1  17   0.0005   0.0004   0.0011   0.0004   0.0006   0.0007   0.19    4.6
2017/07/23 10:05:02.200   2773768.7769   1652507.4808   5482142.4816   1  17   0.0005   0.0004   0.0011   0.0004   0.0006   0.0007   0.19    4.6
2017/07/23 10:05:02.400   2773768.7769   1652507.4808   5482142.4816   1  17   0.0005   0.0004   0.0011   0.0004   0.0006   0.0007   0.19    4.6
2017/07/23 10:05:02.600   2773768.7769   1652507.4808   5482142.4816   1  17   0.0005   0.0004   0.0011   0.0004   0.0006   0.0007   0.19    4.6
2017/07/23 10:05:02.800   2773768.7769   1652507.4808   5482142.4816   1  17   0.0005   0.0004   0.0011   0.0004   0.0006   0.0007   0.19    4.6
2017/07/23 10:05:03.000   2773768.7769   1652507.4808   5482142.4815   1  17   0.0005   0.0004   0.0011   0.0004   0.0006   0.0007   0.19    4.6
2017/07/23 10:05:03.200   2773768.7769   1652507.4808   5482142.4815   1  17   0.0005   0.0004   0.0011   0.0004   0.0006   0.0007   0.19    4.6
2017/07/23 10:05:03.400   2773768.7769   1652507.4808   5482142.4815   1  17   0.0005   0.0004   0.0011   0.0004   0.0006   0.0007   0.19    4.6
2017/07/23 10:05:03.600   2773768.7769   1652507.4808   5482142.4815   1  17   0.0005   0.0004   0.0011   0.0004   0.0006   0.0007   0.19    4.5
2017/07/23 10:05:03.800   2773768.7769   1652507.4808   5482142.4815   1  17   0.0005   0.0004   0.0011   0.0004   0.0006   0.0007   0.19    4.5
2017/07/23 10:05:04.000   2773768.7769   1652507.4808   5482142.4815   1  17   0.0005   0.0004   0.0011   0.0004   0.0006   0.0007   0.19    4.5
2017/07/23 10:05:04.200   2773768.7769   1652507.4808   5482142.4815   1  17   0.0005   0.0004   0.0011   0.0004   0.0006   0.0007   0.19    4.5
2017/07/23 10:05:04.400   2773768.7769   1652507.4808   5482142.4815   1  17   0.0005   0.0004   0.0011   0.0004   0.0006   0.0007   0.19    4.5
2017/07/23 10:05:04.600   2773768.7769   1652507.4808   5482142.4815   1  17   0.0005   0.0004   0.0011   0.0004   0.0006   0.0007   0.19    4.5
2017/07/23 10:05:04.800   2773768.7768   1652507.4808   5482142.4815   1  17   0.0005   0.0004   0.0011   0.0004   0.0006   0.0007   0.19    4.5
2017/07/23 10:05:05.000   2773768.7768   1652507.4808   5482142.4814   1  17   0.0005   0.0004   0.0011   0.0004   0.0006   0.0007   0.19    4.5
2017/07/23 10:05:05.200   2773768.7768   1652507.4808   5482142.4814   1  17   0.0005   0.0004   0.0011   0.0004   0.0006   0.0007   0.19    4.5
2017/07/23 10:05:05.400   2773768.7768   1652507.4808   5482142.4814   1  17   0.0005   0.0004   0.0011   0.0004   0.0006   0.0007   0.19    4.5
2017/07/23 10:05:05.600   2773768.7768   1652507.4808   5482142.4814   1  17   0.0005   0.0004   0.0011   0.0004   0.0006   0.0007   0.19    4.5
2017/07/23 10:05:05.800   2773768.7768   1652507.4808   5482142.4814   1  17   0.0005   0.0004   0.0011   0.0004   0.0006   0.0007   0.19    4.5
2017/07/23 10:05:06.000   2773768.7768   1652507.4808   5482142.4814   1  17   0.0005   0.0004   0.0011   0.0004   0.0006   0.0007   0.19    4.5
2017/07/23 10:05:06.200   2773768.7768   1652507.4808   5482142.4814   1  17   0.0005   0.0004   0.0011   0.0004   0.0006   0.0007   0.19    4.5
2017/07/23 10:05:06.400   2773768.7768   1652507.4808   5482142.4813   1  17   0.0005   0.0004   0.0011   0.0004   0.0006   0.0007   0.19    4.5
2017/07/23 10:05:06.600   2773768.7768   1652507.4808   5482142.4813   1  17   0.0005   0.0004   0.0011   0.0004   0.0006   0.0007   0.19    4.5
2017/07/23 10:05:06.800   2773768.7768   1652507.4808   5482142.4813   1  17   0.0005   0.0004   0.0011   0.0004   0.0006   0.0007   0.19    4.5
2017/07/23 10:05:07.000   2773768.7767   1652507.4808   5482142.4813   1  17   0.0005   0.0004   0.0011   0.0004   0.0006   0.0007   0.19    4.5
2017/07/23 10:05:07.200   2773768.7767   1652507.4808   5482142.4813   1  17   0.0005   0.0004   0.0011   0.0004   0.0006   0.0007   0.19    4.5
2017/07/23 10:05:07.400   2773768.7767   1652507.4808   5482142.4812   1  17   0.0005   0.0004   0.0011   0.0004   0.0006   0.0007   0.19    4.5
2017/07/23 10:05:07.600   2773768.7767   1652507.4808   5482142.4812   1  17   0.0005   0.0004   0.0011   0.0004   0.0006   0.0007   0.19    4.5
2017/07/23 10:05:07.800   2773768.7767   1652507.4808   5482142.4812   1  17   0.0005   0.0004   0.0011   0.0004   0.0006   0.0007   0.19    4.5
2017/07/23 10:05:08.000   2773768.7767   1652507.4808   5482142.4812   1  17   0.0005   0.0004   0.0011   0.0004   0.0006   0.0007   0.19    4.5
2017/07/23 10:05:08.200   2773768.7767   1652507.4808   5482142.4812   1  17   0.0005   0.0004   0.0011   0.0004   0.0006   0.0007   0.19    4.5
2017/07/23 10:05:08.400   2773768.7767   1652507.4808   5482142.4812   1  17   0.0005   0.0004   0.0011   0.0004   0.0006   0.0007   0.19    4.5
2017/07/23 10:05:08.600   2773768.7767   1652507.4808   5482142.4812   1  17   0.0005   0.0004   0.0011   0.0004   0.0006   0.0007   0.19    4.5
2017/07/23 10:05:08.800   2773768.7767   1652507.4808   5482142.4811   1  17   0.0005   0.0004   0.0011   0.0004   0.0006   0.0007   0.19    4.5
2017/07/23 10:05:09.000   2773768.7767   1652507.4808   5482142.4811   1  17   0.0005   0.0004   0.0011   0.0004   0.0006   0.0007   0.19    4.5
2017/07/23 10:05:09.200   2773768.7767   1652507.4808   5482142.4811   1  17   0.0005   0.0004   0.0011   0.0004   0.0006   0.0007   0.19    4.5
2017/07/23 10:05:09.400   2773768.7767   1652507.4807   5482142.4811   1  17   0.0005   0.0004   0.0011   0.0004   0.0006   0.0007   0.19    4.5
2017/07/23 10:05:09.600   2773768.7766   1652507.4807   5482142.4811   1  17   0.0005   0.0004   0.0011   0.0004   0.0006   0.0007   0.19    4.5
2017/07/23 10:05:09.800   2773768.7766   1652507.4807   5482142.4811   1  17   0.0005   0.0004   0.0011   0.0004   0.0006   0.0007   0.19    4.5
2017/07/23 10:05:10.000   2773768.7766   1652507.4807   5482142.4810   1  17   0.0005   0.0004   0.0011   0.0004   0.0006   0.0007   0.19    4.4
2017/07/23 10:05:10.200   2773768.7766   1652507.4807   5482142.4810   1  17   0.0005   0.0004   0.0011   0.0004   0.0006   0.0007   0.19    4.4
2017/07/23 10:05:10.400   2773768.7766   1652507.4807   5482142.4810   1  17   0.0005   0.0004   0.0011   0.0004   0.0006   0.0007   0.19    4.4
2017/07/23 10:05:10.600   2773768.7766   1652507.4807   5482142.4810   1  17   0.0005   0.0004   0.0011   0.0004   0.0006   0.0007   0.19    4.4
2017/07/23 10:05:10.800   2773768.7766   1652507.4807   5482142.4809   1  17   0.0005   0.0004   0.0011   0.0004   0.0006   0.0007   0.19    4.4
2017/07/23 10:05:11.000   2773768.7766   1652507.4807   5482142.4809   1  17   0.0005   0.0004   0.0011   0.0004   0.0006   0.0007   0.19    4.4
