% program   : RTKLIB ver.2.4.3 Emlid
% inp file  : /home/artur/RTKLIB/test/test/static/0_21_obnajeniye/rover.obs
% inp file  : /home/artur/RTKLIB/test/test/static/0_21_obnajeniye/base.obs
% inp file  : /home/artur/RTKLIB/test/test/static/0_21_obnajeniye/rover.nav
% obs start : 2017/07/23 11:24:05.8 GPST (week1959  41045.8s)
% obs end   : 2017/07/23 11:36:12.6 GPST (week1959  41772.6s)
% pos mode  : static
% freqs     : L1
% solution  : combined
% elev mask : 15.0 deg
% dynamics  : on
% tidecorr  : off
% ionos opt : broadcast
% tropo opt : est ztd
% ephemeris : broadcast
% navi sys  : gps glonass galileo qzss beidou sbas
% amb res   : continuous
% amb glo   : off
% val thres : 3.0
% antenna1  :                       ( 0.0000  0.0000  0.0000)
% antenna2  :                       ( 0.0000  0.0000  0.0000)
% ref pos   :  2773909.8712  1654076.4507  5481627.6877
%
% (x/y/z-ecef=WGS84,Q=1:fix,2:float,3:sbas,4:dgps,5:single,6:ppp,ns=# of satellites)
%  GPST                      x-ecef(m)      y-ecef(m)      z-ecef(m)   Q  ns   sdx(m)   sdy(m)   sdz(m)  sdxy(m)  sdyz(m)  sdzx(m) age(s)  ratio
2017/07/23 11:24:05.800   2773889.7604   1652731.9345   5482037.8518   1  16   0.0012   0.0007   0.0021   0.0009   0.0012   0.0016   0.19    5.0
2017/07/23 11:24:06.000   2773889.7604   1652731.9344   5482037.8516   1  16   0.0012   0.0007   0.0021   0.0009   0.0012   0.0016   0.19    5.0
2017/07/23 11:24:06.200   2773889.7603   1652731.9344   5482037.8515   1  16   0.0012   0.0007   0.0021   0.0009   0.0012   0.0016   0.19    5.0
2017/07/23 11:24:06.400   2773889.7602   1652731.9343   5482037.8513   1  16   0.0012   0.0007   0.0021   0.0009   0.0012   0.0016   0.19    5.0
2017/07/23 11:24:06.599   2773889.7601   1652731.9343   5482037.8512   1  16   0.0012   0.0007   0.0021   0.0009   0.0012   0.0016   0.19    5.0
2017/07/23 11:24:06.799   2773889.7600   1652731.9343   5482037.8511   1  16   0.0012   0.0007   0.0021   0.0009   0.0012   0.0016   0.19    5.0
2017/07/23 11:24:07.000   2773889.7600   1652731.9343   5482037.8511   1  15   0.0012   0.0007   0.0021   0.0009   0.0012   0.0016   0.19    5.0
2017/07/23 11:24:07.200   2773889.7599   1652731.9342   5482037.8510   1  15   0.0012   0.0007   0.0021   0.0009   0.0012   0.0016   0.19    5.0
2017/07/23 11:24:07.400   2773889.7598   1652731.9342   5482037.8509   1  16   0.0012   0.0007   0.0021   0.0009   0.0012   0.0016   0.19    5.0
2017/07/23 11:24:07.600   2773889.7598   1652731.9342   5482037.8509   1  15   0.0012   0.0007   0.0021   0.0009   0.0012   0.0016   0.19    5.0
2017/07/23 11:24:07.800   2773889.7598   1652731.9342   5482037.8508   1  15   0.0012   0.0007   0.0021   0.0009   0.0012   0.0016   0.19    5.0
2017/07/23 11:24:08.000   2773889.7597   1652731.9342   5482037.8508   1  16   0.0012   0.0007   0.0021   0.0009   0.0012   0.0016   0.19    5.0
2017/07/23 11:24:08.200   2773889.7597   1652731.9342   5482037.8507   1  16   0.0012   0.0007   0.0021   0.0009   0.0012   0.0016   0.19    5.0
2017/07/23 11:24:08.400   2773889.7596   1652731.9341   5482037.8507   1  16   0.0012   0.0007   0.0021   0.0009   0.0012   0.0016   0.19    5.0
2017/07/23 11:24:08.600   2773889.7596   1652731.9341   5482037.8506   1  16   0.0012   0.0007   0.0021   0.0009   0.0012   0.0016   0.19    5.0
2017/07/23 11:24:08.800   2773889.7595   1652731.9341   5482037.8505   1  16   0.0012   0.0007   0.0021   0.0009   0.0012   0.0016   0.19    5.0
2017/07/23 11:24:09.000   2773889.7595   1652731.9341   5482037.8505   1  16   0.0012   0.0007   0.0021   0.0009   0.0012   0.0016   0.19    5.0
2017/07/23 11:24:09.200   2773889.7595   1652731.9341   5482037.8504   1  16   0.0012   0.0007   0.0021   0.0009   0.0012   0.0016   0.19    5.0
2017/07/23 11:24:09.400   2773889.7594   1652731.9341   5482037.8504   1  16   0.0012   0.0007   0.0021   0.0009   0.0012   0.0016   0.19    5.0
2017/07/23 11:24:09.600   2773889.7594   1652731.9341   5482037.8503   1  16   0.0012   0.0007   0.0021   0.0009   0.0012   0.0016   0.19    5.0
2017/07/23 11:24:09.800   2773889.7594   1652731.9341   5482037.8503   1  16   0.0012   0.0007   0.0021   0.0009   0.0012   0.0016   0.19    5.0
2017/07/23 11:24:10.000   2773889.7593   1652731.9340   5482037.8502   1  16   0.0012   0.0007   0.0021   0.0009   0.0012   0.0016   0.19    5.0
2017/07/23 11:24:10.200   2773889.7593   1652731.9340   5482037.8502   1  16   0.0012   0.0007   0.0021   0.0009   0.0012   0.0016   0.19    5.0
2017/07/23 11:24:10.400   2773889.7593   1652731.9340   5482037.8501   1  16   0.0012   0.0007   0.0021   0.0009   0.0012   0.0016   0.19    5.0
2017/07/23 11:24:10.600   2773889.7593   1652731.9340   5482037.8501   1  16   0.0012   0.0007   0.0021   0.0009   0.0012   0.0016   0.19    5.0
2017/07/23 11:24:10.800   2773889.7592   1652731.9340   5482037.8500   1  16   0.0012   0.0007   0.0021   0.0009   0.0012   0.0016   0.19    5.0
2017/07/23 11:24:11.000   2773889.7592   1652731.9340   5482037.8500   1  16   0.0012   0.0007   0.0021   0.0009   0.0012   0.0016   0.19    5.0
2017/07/23 11:24:11.200   2773889.7592   1652731.9340   5482037.8499   1  16   0.0012   0.0007   0.0021   0.0009   0.0012   0.0016   0.19    5.0
2017/07/23 11:24:11.400   2773889.7591   1652731.9339   5482037.8499   1  16   0.0012   0.0007   0.0021   0.0009   0.0012   0.0016   0.19    5.0
2017/07/23 11:24:11.600   2773889.7591   1652731.9339   5482037.8498   1  16   0.0012   0.0007   0.0021   0.0009   0.0012   0.0016   0.19    5.0
2017/07/23 11:24:11.800   2773889.7591   1652731.9339   5482037.8498   1  16   0.0012   0.0007   0.0021   0.0009   0.0012   0.0016   0.19    5.0
2017/07/23 11:24:12.000   2773889.7591   1652731.9339   5482037.8498   1  16   0.0012   0.0007   0.0021   0.0009   0.0012   0.0016   0.19    5.0
2017/07/23 11:24:12.200   2773889.7590   1652731.9339   5482037.8497   1  16   0.0012   0.0007   0.0021   0.0009   0.0012   0.0016   0.19    5.0
2017/07/23 11:24:12.400   2773889.7590   1652731.9339   5482037.8497   1  16   0.0012   0.0007   0.0021   0.0009   0.0012   0.0016   0.19    5.0
2017/07/23 11:24:12.600   2773889.7590   1652731.9339   5482037.8497   1  16   0.0012   0.0007   0.0021   0.0009   0.0012   0.0016   0.19    5.0
2017/07/23 11:24:12.800   2773889.7590   1652731.9339   5482037.8497   1  16   0.0012   0.0007   0.0021   0.0009   0.0012   0.0016   0.19    5.0
2017/07/23 11:24:13.000   2773889.7590   1652731.9339   5482037.8496   1  16   0.0012   0.0007   0.0021   0.0009   0.0012   0.0016   0.19    5.0
2017/07/23 11:24:13.200   2773889.7590   1652731.9339   5482037.8496   1  16   0.0012   0.0007   0.0021   0.0009   0.0012   0.0016   0.19    5.0
2017/07/23 11:24:13.400   2773889.7590   1652731.9339   5482037.8496   1  16   0.0012   0.0007   0.0021   0.0009   0.0012   0.0016   0.19    5.0
2017/07/23 11:24:13.600   2773889.7589   1652731.9338   5482037.8496   1  16   0.0012   0.0007   0.0021   0.0009   0.0012   0.0016   0.19    5.0
2017/07/23 11:24:13.800   2773889.7589   1652731.9338   5482037.8495   1  15   0.0012   0.0007   0.0021   0.0009   0.0012   0.0016   0.19    5.0
2017/07/23 11:24:14.000   2773889.7589   1652731.9338   5482037.8495   1  16   0.0012   0.0007   0.0021   0.0009   0.0012   0.0016   0.19    5.0
2017/07/23 11:24:14.200   2773889.7589   1652731.9338   5482037.8495   1  16   0.0012   0.0007   0.0021   0.0009   0.0012   0.0016   0.19    5.0
2017/07/23 11:24:14.400   2773889.7589   1652731.9338   5482037.8494   1  16   0.0012   0.0007   0.0021   0.0009   0.0012   0.0016   0.19    5.0
2017/07/23 11:24:14.600   2773889.7589   1652731.9338   5482037.8494   1  16   0.0012   0.0007   0.0021   0.0009   0.0012   0.0016   0.19    5.0
2017/07/23 11:24:14.800   2773889.7589   1652731.9338   5482037.8494   1  16   0.0012   0.0007   0.0021   0.0009   0.0012   0.0016   0.19    5.0
2017/07/23 11:24:15.000   2773889.7588   1652731.9338   5482037.8494   1  16   0.0012   0.0007   0.0021   0.0009   0.0012   0.0016   0.19    5.0
2017/07/23 11:24:15.200   2773889.7588   1652731.9338   5482037.8494   1  16   0.0012   0.0007   0.0021   0.0009   0.0012   0.0016   0.19    5.0
2017/07/23 11:24:15.400   2773889.7588   1652731.9338   5482037.8494   1  16   0.0012   0.0007   0.0021   0.0009   0.0012   0.0016   0.19    5.0
2017/07/23 11:24:15.600   2773889.7588   1652731.9338   5482037.8493   1  16   0.0012   0.0007   0.0021   0.0009   0.0012   0.0016   0.19    5.0
2017/07/23 11:24:15.800   2773889.7588   1652731.9338   5482037.8493   1  16   0.0012   0.0007   0.0021   0.0009   0.0012   0.0016   0.19    5.0
2017/07/23 11:24:16.000   2773889.7588   1652731.9338   5482037.8493   1  16   0.0012   0.0007   0.0021   0.0009   0.0012   0.0016   0.19    5.0
2017/07/23 11:24:16.200   2773889.7588   1652731.9338   5482037.8493   1  16   0.0012   0.0007   0.0021   0.0009   0.0012   0.0016   0.19    5.0
2017/07/23 11:24:16.400   2773889.7588   1652731.9338   5482037.8493   1  16   0.0012   0.0007   0.0021   0.0009   0.0012   0.0016   0.19    5.0
2017/07/23 11:24:16.600   2773889.7588   1652731.9338   5482037.8493   1  16   0.0012   0.0007   0.0021   0.0009   0.0012   0.0016   0.19    5.0
2017/07/23 11:24:16.800   2773889.7588   1652731.9338   5482037.8493   1  16   0.0012   0.0007   0.0021   0.0009   0.0012   0.0016   0.19    5.0
2017/07/23 11:24:17.000   2773889.7588   1652731.9337   5482037.8493   1  16   0.0012   0.0007   0.0021   0.0009   0.0012   0.0016   0.19    5.0
2017/07/23 11:24:17.200   2773889.7588   1652731.9337   5482037.8493   1  16   0.0012   0.0007   0.0021   0.0009   0.0012   0.0016   0.19    5.0
2017/07/23 11:24:17.400   2773889.7588   1652731.9337   5482037.8493   1  16   0.0012   0.0007   0.0021   0.0009   0.0012   0.0016   0.19    5.0
2017/07/23 11:24:17.600   2773889.7588   1652731.9337   5482037.8493   1  16   0.0012   0.0007   0.0021   0.0009   0.0012   0.0016   0.19    5.0
2017/07/23 11:24:17.800   2773889.7588   1652731.9337   5482037.8493   1  16   0.0012   0.0007   0.0021   0.0009   0.0012   0.0016   0.19    5.0
2017/07/23 11:24:18.000   2773889.7588   1652731.9337   5482037.8493   1  16   0.0012   0.0007   0.0021   0.0009   0.0012   0.0016   0.19    5.0
2017/07/23 11:24:18.200   2773889.7588   1652731.9337   5482037.8493   1  16   0.0012   0.0007   0.0021   0.0009   0.0012   0.0016   0.19    5.0
2017/07/23 11:24:18.400   2773889.7588   1652731.9337   5482037.8493   1  16   0.0012   0.0007   0.0021   0.0009   0.0012   0.0016   0.19    5.0
2017/07/23 11:24:18.600   2773889.7588   1652731.9337   5482037.8493   1  16   0.0012   0.0007   0.0021   0.0009   0.0012   0.0016   0.19    5.0
2017/07/23 11:24:18.800   2773889.7588   1652731.9337   5482037.8493   1  16   0.0012   0.0007   0.0021   0.0009   0.0012   0.0016   0.19    5.0
2017/07/23 11:24:19.000   2773889.7588   1652731.9337   5482037.8493   1  16   0.0012   0.0007   0.0021   0.0009   0.0012   0.0016   0.19    5.0
2017/07/23 11:24:19.200   2773889.7588   1652731.9337   5482037.8493   1  16   0.0012   0.0007   0.0021   0.0009   0.0012   0.0016   0.19    5.0
2017/07/23 11:24:19.400   2773889.7588   1652731.9337   5482037.8493   1  16   0.0012   0.0007   0.0021   0.0009   0.0012   0.0016   0.19    5.0
2017/07/23 11:24:19.600   2773889.7588   1652731.9337   5482037.8493   1  16   0.0012   0.0007   0.0021   0.0009   0.0012   0.0016   0.19    5.0
2017/07/23 11:24:19.800   2773889.7588   1652731.9337   5482037.8493   1  16   0.0012   0.0007   0.0021   0.0009   0.0012   0.0016   0.19    5.0
2017/07/23 11:24:20.000   2773889.7588   1652731.9337   5482037.8493   1  16   0.0012   0.0007   0.0021   0.0009   0.0012   0.0016   0.19    5.0
2017/07/23 11:24:20.200   2773889.7588   1652731.9337   5482037.8493   1  16   0.0012   0.0007   0.0021   0.0009   0.0012   0.0016   0.19    5.0
2017/07/23 11:24:20.400   2773889.7588   1652731.9337   5482037.8493   1  16   0.0012   0.0007   0.0021   0.0009   0.0012   0.0016   0.19    5.0
2017/07/23 11:24:20.600   2773889.7588   1652731.9337   5482037.8493   1  16   0.0012   0.0007   0.0021   0.0009   0.0012   0.0016   0.19    5.0
2017/07/23 11:24:20.800   2773889.7588   1652731.9337   5482037.8493   1  16   0.0012   0.0007   0.0021   0.0009   0.0012   0.0016   0.19    5.0
2017/07/23 11:24:21.000   2773889.7588   1652731.9337   5482037.8493   1  16   0.0012   0.0007   0.0021   0.0009   0.0012   0.0016   0.19    5.0
2017/07/23 11:24:21.200   2773889.7588   1652731.9337   5482037.8493   1  16   0.0012   0.0007   0.0021   0.0009   0.0012   0.0016   0.19    5.0
2017/07/23 11:24:21.400   2773889.7589   1652731.9338   5482037.8493   1  16   0.0012   0.0007   0.0021   0.0009   0.0012   0.0016   0.19    5.0
2017/07/23 11:24:21.600   2773889.7589   1652731.9338   5482037.8494   1  16   0.0012   0.0007   0.0021   0.0009   0.0012   0.0016   0.19    5.0
2017/07/23 11:24:21.800   2773889.7589   1652731.9338   5482037.8494   1  16   0.0012   0.0007   0.0021   0.0009   0.0012   0.0016   0.19    5.0
2017/07/23 11:24:22.000   2773889.7589   1652731.9338   5482037.8494   1  16   0.0012   0.0007   0.0021   0.0009   0.0012   0.0016   0.19    5.0
2017/07/23 11:24:22.200   2773889.7589   1652731.9338   5482037.8494   1  16   0.0012   0.0007   0.0021   0.0009   0.0012   0.0016   0.19    5.0
2017/07/23 11:24:22.400   2773889.7589   1652731.9338   5482037.8494   1  16   0.0012   0.0007   0.0021   0.0009   0.0012   0.0016   0.19    5.0
2017/07/23 11:24:22.600   2773889.7589   1652731.9338   5482037.8494   1  16   0.0012   0.0007   0.0021   0.0009   0.0012   0.0016   0.19    5.0
2017/07/23 11:24:22.800   2773889.7589   1652731.9338   5482037.8494   1  16   0.0012   0.0007   0.0021   0.0009   0.0012   0.0016   0.19    4.9
2017/07/23 11:24:23.000   2773889.7589   1652731.9338   5482037.8494   1  16   0.0012   0.0007   0.0021   0.0009   0.0012   0.0016   0.19    4.9
2017/07/23 11:24:23.200   2773889.7589   1652731.9338   5482037.8495   1  16   0.0012   0.0007   0.0021   0.0009   0.0012   0.0016   0.19    4.9
2017/07/23 11:24:23.400   2773889.7589   1652731.9338   5482037.8495   1  16   0.0012   0.0007   0.0021   0.0009   0.0012   0.0016   0.19    4.9
2017/07/23 11:24:23.600   2773889.7590   1652731.9338   5482037.8495   1  16   0.0012   0.0007   0.0021   0.0009   0.0012   0.0016   0.19    4.9
2017/07/23 11:24:23.800   2773889.7590   1652731.9338   5482037.8495   1  16   0.0012   0.0007   0.0021   0.0009   0.0012   0.0015   0.19    4.9
2017/07/23 11:24:24.000   2773889.7590   1652731.9338   5482037.8495   1  16   0.0012   0.0007   0.0021   0.0009   0.0012   0.0015   0.19    4.9
2017/07/23 11:24:24.200   2773889.7590   1652731.9338   5482037.8495   1  16   0.0012   0.0007   0.0021   0.0009   0.0012   0.0015   0.19    4.9
2017/07/23 11:24:24.400   2773889.7590   1652731.9338   5482037.8496   1  16   0.0012   0.0007   0.0021   0.0009   0.0012   0.0015   0.19    4.9
2017/07/23 11:24:24.600   2773889.7590   1652731.9338   5482037.8496   1  16   0.0012   0.0007   0.0021   0.0009   0.0012   0.0015   0.19    4.9
2017/07/23 11:24:24.800   2773889.7590   1652731.9338   5482037.8496   1  16   0.0012   0.0007   0.0021   0.0009   0.0012   0.0015   0.19    4.9
2017/07/23 11:24:25.000   2773889.7590   1652731.9338   5482037.8496   1  16   0.0012   0.0007   0.0021   0.0009   0.0012   0.0015   0.19    4.9
2017/07/23 11:24:25.200   2773889.7591   1652731.9338   5482037.8496   1  16   0.0012   0.0007   0.0021   0.0009   0.0012   0.0015   0.19    4.9
2017/07/23 11:24:25.400   2773889.7591   1652731.9338   5482037.8496   1  16   0.0012   0.0007   0.0021   0.0009   0.0012   0.0015   0.19    4.9
2017/07/23 11:24:25.600   2773889.7591   1652731.9338   5482037.8497   1  16   0.0012   0.0007   0.0021   0.0009   0.0012   0.0015   0.19    4.9
2017/07/23 11:24:25.800   2773889.7591   1652731.9338   5482037.8497   1  16   0.0012   0.0007   0.0021   0.0009   0.0012   0.0015   0.19    4.9
2017/07/23 11:24:26.000   2773889.7591   1652731.9338   5482037.8497   1  16   0.0012   0.0007   0.0021   0.0009   0.0012   0.0015   0.19    4.9
2017/07/23 11:24:26.200   2773889.7591   1652731.9338   5482037.8496   1  16   0.0012   0.0007   0.0021   0.0009   0.0012   0.0015   0.19    4.9
2017/07/23 11:24:26.400   2773889.7590   1652731.9338   5482037.8495   1  16   0.0012   0.0007   0.0021   0.0009   0.0012   0.0015   0.19    4.9
2017/07/23 11:24:26.600   2773889.7589   1652731.9338   5482037.8494   1  16   0.0012   0.0007   0.0021   0.0009   0.0012   0.0015   0.19    4.9
2017/07/23 11:24:26.800   2773889.7589   1652731.9337   5482037.8493   1  16   0.0012   0.0007   0.0021   0.0009   0.0012   0.0015   0.19    4.9
2017/07/23 11:24:27.000   2773889.7588   1652731.9337   5482037.8493   1  16   0.0012   0.0007   0.0021   0.0009   0.0012   0.0015   0.19    4.9
2017/07/23 11:24:27.200   2773889.7588   1652731.9337   5482037.8492   1  16   0.0012   0.0007   0.0021   0.0009   0.0012   0.0015   0.19    4.9
2017/07/23 11:24:27.400   2773889.7587   1652731.9337   5482037.8492   1  16   0.0012   0.0007   0.0021   0.0009   0.0012   0.0015   0.19    4.9
2017/07/23 11:24:27.600   2773889.7587   1652731.9337   5482037.8491   1  16   0.0012   0.0007   0.0021   0.0009   0.0012   0.0015   0.19    4.9
2017/07/23 11:24:27.800   2773889.7586   1652731.9336   5482037.8490   1  16   0.0012   0.0007   0.0021   0.0009   0.0012   0.0015   0.19    4.9
2017/07/23 11:24:28.000   2773889.7585   1652731.9336   5482037.8488   1  16   0.0012   0.0007   0.0021   0.0009   0.0012   0.0015   0.19    4.9
2017/07/23 11:24:28.200   2773889.7584   1652731.9336   5482037.8487   1  16   0.0012   0.0007   0.0021   0.0009   0.0012   0.0015   0.19    4.9
2017/07/23 11:24:28.400   2773889.7584   1652731.9335   5482037.8486   1  16   0.0012   0.0007   0.0021   0.0009   0.0012   0.0015   0.19    4.9
2017/07/23 11:24:28.600   2773889.7583   1652731.9335   5482037.8484   1  16   0.0012   0.0007   0.0021   0.0009   0.0012   0.0015   0.19    4.9
2017/07/23 11:24:28.800   2773889.7582   1652731.9334   5482037.8483   1  16   0.0012   0.0007   0.0021   0.0009   0.0012   0.0015   0.19    4.9
2017/07/23 11:24:29.000   2773889.7582   1652731.9334   5482037.8482   1  16   0.0012   0.0007   0.0021   0.0009   0.0012   0.0015   0.19    4.9
2017/07/23 11:24:29.200   2773889.7581   1652731.9334   5482037.8481   1  16   0.0012   0.0007   0.0021   0.0009   0.0012   0.0015   0.19    4.9
2017/07/23 11:24:29.400   2773889.7580   1652731.9333   5482037.8480   1  16   0.0012   0.0007   0.0021   0.0009   0.0012   0.0015   0.19    4.9
2017/07/23 11:24:29.600   2773889.7580   1652731.9333   5482037.8479   1  16   0.0012   0.0007   0.0021   0.0009   0.0012   0.0015   0.19    4.9
2017/07/23 11:24:29.800   2773889.7579   1652731.9333   5482037.8478   1  16   0.0012   0.0007   0.0021   0.0009   0.0012   0.0015   0.19    4.9
2017/07/23 11:24:30.000   2773889.7579   1652731.9333   5482037.8477   1  16   0.0012   0.0007   0.0021   0.0009   0.0012   0.0015   0.19    4.9
2017/07/23 11:24:30.200   2773889.7578   1652731.9332   5482037.8476   1  16   0.0012   0.0007   0.0021   0.0009   0.0012   0.0015   0.19    4.9
2017/07/23 11:24:30.400   2773889.7577   1652731.9332   5482037.8476   1  16   0.0012   0.0007   0.0021   0.0009   0.0012   0.0015   0.19    4.9
2017/07/23 11:24:30.600   2773889.7577   1652731.9332   5482037.8475   1  16   0.0012   0.0007   0.0021   0.0009   0.0012   0.0015   0.19    4.9
2017/07/23 11:24:30.800   2773889.7576   1652731.9332   5482037.8474   1  16   0.0012   0.0007   0.0021   0.0009   0.0012   0.0015   0.19    4.9
2017/07/23 11:24:31.000   2773889.7576   1652731.9332   5482037.8473   1  16   0.0012   0.0007   0.0021   0.0009   0.0012   0.0015   0.19    4.9
2017/07/23 11:24:31.200   2773889.7575   1652731.9331   5482037.8473   1  16   0.0012   0.0007   0.0021   0.0009   0.0012   0.0015   0.19    4.9
2017/07/23 11:24:31.400   2773889.7575   1652731.9331   5482037.8472   1  16   0.0012   0.0007   0.0021   0.0009   0.0012   0.0015   0.19    4.9
2017/07/23 11:24:31.600   2773889.7574   1652731.9331   5482037.8471   1  16   0.0012   0.0007   0.0021   0.0009   0.0012   0.0015   0.19    4.9
2017/07/23 11:24:31.800   2773889.7574   1652731.9331   5482037.8470   1  16   0.0012   0.0007   0.0021   0.0009   0.0012   0.0015   0.19    4.9
2017/07/23 11:24:32.000   2773889.7573   1652731.9330   5482037.8469   1  16   0.0012   0.0007   0.0021   0.0009   0.0012   0.0015   0.19    4.9
2017/07/23 11:24:32.200   2773889.7572   1652731.9330   5482037.8468   1  16   0.0012   0.0007   0.0021   0.0009   0.0012   0.0015   0.19    4.9
2017/07/23 11:24:32.400   2773889.7572   1652731.9330   5482037.8466   1  16   0.0012   0.0007   0.0021   0.0009   0.0012   0.0015   0.19    4.9
2017/07/23 11:24:32.600   2773889.7571   1652731.9329   5482037.8465   1  16   0.0012   0.0007   0.0021   0.0009   0.0012   0.0015   0.19    4.9
2017/07/23 11:24:32.800   2773889.7570   1652731.9329   5482037.8464   1  16   0.0012   0.0007   0.0021   0.0009   0.0012   0.0015   0.19    4.9
2017/07/23 11:24:33.000   2773889.7569   1652731.9329   5482037.8463   1  16   0.0012   0.0007   0.0021   0.0009   0.0012   0.0015   0.19    4.9
2017/07/23 11:24:33.200   2773889.7569   1652731.9328   5482037.8462   1  16   0.0012   0.0007   0.0021   0.0009   0.0012   0.0015   0.19    4.9
2017/07/23 11:24:33.400   2773889.7568   1652731.9328   5482037.8461   1  16   0.0012   0.0007   0.0021   0.0009   0.0012   0.0015   0.19    4.9
2017/07/23 11:24:33.600   2773889.7567   1652731.9328   5482037.8459   1  16   0.0012   0.0007   0.0021   0.0009   0.0012   0.0015   0.19    4.9
2017/07/23 11:24:33.800   2773889.7567   1652731.9327   5482037.8458   1  16   0.0012   0.0007   0.0021   0.0009   0.0012   0.0015   0.19    4.9
2017/07/23 11:24:34.000   2773889.7566   1652731.9327   5482037.8456   1  16   0.0012   0.0007   0.0021   0.0009   0.0012   0.0015   0.19    4.9
2017/07/23 11:24:34.200   2773889.7565   1652731.9327   5482037.8455   1  16   0.0012   0.0007   0.0021   0.0009   0.0012   0.0015   0.19    4.9
2017/07/23 11:24:34.400   2773889.7564   1652731.9326   5482037.8454   1  16   0.0012   0.0007   0.0021   0.0009   0.0012   0.0015   0.19    4.9
2017/07/23 11:24:34.600   2773889.7563   1652731.9326   5482037.8453   1  16   0.0012   0.0007   0.0021   0.0009   0.0012   0.0015   0.19    4.9
2017/07/23 11:24:34.800   2773889.7563   1652731.9325   5482037.8451   1  15   0.0012   0.0007   0.0021   0.0009   0.0012   0.0015   0.19    4.9
2017/07/23 11:24:35.000   2773889.7562   1652731.9325   5482037.8450   1  15   0.0012   0.0007   0.0021   0.0009   0.0012   0.0015   0.19    4.9
2017/07/23 11:24:35.200   2773889.7562   1652731.9325   5482037.8449   1  15   0.0012   0.0007   0.0021   0.0009   0.0012   0.0015   0.19    4.9
2017/07/23 11:24:35.400   2773889.7561   1652731.9325   5482037.8448   1  16   0.0012   0.0007   0.0021   0.0009   0.0012   0.0015   0.19    5.0
2017/07/23 11:24:35.600   2773889.7560   1652731.9324   5482037.8447   1  16   0.0012   0.0007   0.0021   0.0009   0.0012   0.0015   0.19    5.0
2017/07/23 11:24:35.800   2773889.7560   1652731.9324   5482037.8446   1  16   0.0012   0.0007   0.0021   0.0009   0.0012   0.0015   0.19    5.0
2017/07/23 11:24:36.000   2773889.7559   1652731.9324   5482037.8445   1  16   0.0012   0.0007   0.0021   0.0009   0.0012   0.0015   0.19    5.0
2017/07/23 11:24:36.200   2773889.7558   1652731.9323   5482037.8444   1  16   0.0012   0.0007   0.0021   0.0009   0.0012   0.0015   0.19    5.0
2017/07/23 11:24:36.400   2773889.7558   1652731.9323   5482037.8444   1  16   0.0012   0.0007   0.0021   0.0009   0.0012   0.0015   0.19    5.0
2017/07/23 11:24:36.600   2773889.7557   1652731.9323   5482037.8443   1  15   0.0012   0.0007   0.0021   0.0009   0.0012   0.0015   0.19    5.0
2017/07/23 11:24:36.800   2773889.7557   1652731.9323   5482037.8442   1  15   0.0012   0.0007   0.0021   0.0009   0.0012   0.0015   0.19    5.0
2017/07/23 11:24:37.000   2773889.7556   1652731.9323   5482037.8441   1  15   0.0012   0.0007   0.0021   0.0009   0.0012   0.0015   0.19    5.0
2017/07/23 11:24:37.200   2773889.7556   1652731.9322   5482037.8440   1  15   0.0012   0.0007   0.0021   0.0009   0.0012   0.0015   0.19    5.0
2017/07/23 11:24:37.400   2773889.7556   1652731.9322   5482037.8440   1  16   0.0012   0.0007   0.0021   0.0009   0.0012   0.0015   0.19    5.0
2017/07/23 11:24:37.600   2773889.7555   1652731.9322   5482037.8439   1  16   0.0012   0.0007   0.0021   0.0009   0.0012   0.0015   0.19    5.0
2017/07/23 11:24:37.800   2773889.7554   1652731.9322   5482037.8438   1  16   0.0012   0.0007   0.0021   0.0009   0.0012   0.0015   0.19    5.0
2017/07/23 11:24:38.000   2773889.7554   1652731.9322   5482037.8438   1  16   0.0012   0.0007   0.0021   0.0009   0.0012   0.0015   0.19    5.0
2017/07/23 11:24:38.200   2773889.7553   1652731.9322   5482037.8437   1  16   0.0012   0.0007   0.0021   0.0009   0.0012   0.0015   0.19    5.0
2017/07/23 11:24:38.400   2773889.7553   1652731.9321   5482037.8436   1  16   0.0012   0.0007   0.0021   0.0009   0.0012   0.0015   0.19    5.0
2017/07/23 11:24:38.600   2773889.7552   1652731.9321   5482037.8435   1  16   0.0012   0.0007   0.0021   0.0009   0.0012   0.0015   0.19    5.0
2017/07/23 11:24:38.800   2773889.7552   1652731.9321   5482037.8434   1  16   0.0012   0.0007   0.0021   0.0009   0.0012   0.0015   0.19    5.0
2017/07/23 11:24:39.000   2773889.7551   1652731.9321   5482037.8433   1  16   0.0012   0.0007   0.0021   0.0009   0.0012   0.0015   0.19    5.0
2017/07/23 11:24:39.200   2773889.7550   1652731.9320   5482037.8433   1  16   0.0012   0.0007   0.0021   0.0009   0.0012   0.0016   0.19    5.0
2017/07/23 11:24:39.400   2773889.7550   1652731.9320   5482037.8432   1  16   0.0012   0.0007   0.0021   0.0009   0.0012   0.0016   0.19    5.0
2017/07/23 11:24:39.600   2773889.7549   1652731.9320   5482037.8431   1  16   0.0012   0.0007   0.0021   0.0009   0.0012   0.0016   0.19    5.0
2017/07/23 11:24:39.800   2773889.7549   1652731.9320   5482037.8430   1  16   0.0012   0.0007   0.0021   0.0009   0.0012   0.0016   0.19    5.0
2017/07/23 11:24:40.000   2773889.7548   1652731.9320   5482037.8429   1  16   0.0012   0.0007   0.0021   0.0009   0.0012   0.0016   0.19    5.0
2017/07/23 11:24:40.200   2773889.7548   1652731.9319   5482037.8428   1  16   0.0012   0.0007   0.0021   0.0009   0.0012   0.0016   0.19    5.0
2017/07/23 11:24:40.400   2773889.7547   1652731.9319   5482037.8428   1  16   0.0012   0.0007   0.0021   0.0009   0.0012   0.0016   0.19    5.0
2017/07/23 11:24:40.600   2773889.7547   1652731.9319   5482037.8427   1  16   0.0012   0.0007   0.0021   0.0009   0.0012   0.0016   0.19    5.0
2017/07/23 11:24:40.800   2773889.7546   1652731.9319   5482037.8426   1  16   0.0012   0.0007   0.0021   0.0009   0.0012   0.0016   0.19    5.0
2017/07/23 11:24:41.000   2773889.7546   1652731.9318   5482037.8425   1  16   0.0012   0.0007   0.0021   0.0009   0.0012   0.0016   0.19    5.0
2017/07/23 11:24:41.200   2773889.7545   1652731.9318   5482037.8424   1  16   0.0012   0.0007   0.0021   0.0009   0.0012   0.0016   0.19    5.0
2017/07/23 11:24:41.400   2773889.7545   1652731.9318   5482037.8424   1  16   0.0012   0.0007   0.0021   0.0009   0.0012   0.0016   0.19    5.0
2017/07/23 11:24:41.600   2773889.7544   1652731.9318   5482037.8423   1  16   0.0012   0.0007   0.0021   0.0009   0.0012   0.0016   0.19    5.0
2017/07/23 11:24:41.800   2773889.7544   1652731.9318   5482037.8422   1  16   0.0012   0.0007   0.0021   0.0009   0.0012   0.0016   0.19    5.0
2017/07/23 11:24:42.000   2773889.7543   1652731.9317   5482037.8421   1  16   0.0012   0.0007   0.0021   0.0009   0.0012   0.0016   0.19    5.0
2017/07/23 11:24:42.200   2773889.7543   1652731.9317   5482037.8420   1  16   0.0012   0.0007   0.0021   0.0009   0.0012   0.0016   0.19    5.0
2017/07/23 11:24:42.400   2773889.7542   1652731.9317   5482037.8420   1  16   0.0012   0.0007   0.0021   0.0009   0.0012   0.0016   0.19    5.0
2017/07/23 11:24:42.600   2773889.7542   1652731.9317   5482037.8419   1  16   0.0012   0.0007   0.0021   0.0009   0.0012   0.0016   0.19    5.0
2017/07/23 11:24:42.800   2773889.7541   1652731.9317   5482037.8418   1  16   0.0012   0.0007   0.0021   0.0009   0.0012   0.0016   0.19    5.0
2017/07/23 11:24:43.000   2773889.7541   1652731.9316   5482037.8417   1  16   0.0012   0.0007   0.0021   0.0009   0.0012   0.0016   0.19    5.0
2017/07/23 11:24:43.200   2773889.7541   1652731.9316   5482037.8417   1  16   0.0012   0.0007   0.0021   0.0009   0.0012   0.0016   0.19    5.0
2017/07/23 11:24:43.400   2773889.7540   1652731.9316   5482037.8416   1  16   0.0012   0.0007   0.0021   0.0009   0.0012   0.0016   0.19    5.0
2017/07/23 11:24:43.600   2773889.7540   1652731.9316   5482037.8415   1  16   0.0012   0.0007   0.0021   0.0009   0.0012   0.0016   0.19    5.0
2017/07/23 11:24:43.800   2773889.7539   1652731.9316   5482037.8414   1  16   0.0012   0.0007   0.0021   0.0009   0.0012   0.0016   0.19    5.0
2017/07/23 11:24:44.000   2773889.7539   1652731.9316   5482037.8413   1  16   0.0012   0.0007   0.0021   0.0009   0.0012   0.0016   0.19    5.0
2017/07/23 11:24:44.200   2773889.7538   1652731.9315   5482037.8412   1  16   0.0012   0.0007   0.0021   0.0009   0.0012   0.0016   0.19    5.0
2017/07/23 11:24:44.400   2773889.7538   1652731.9315   5482037.8412   1  16   0.0012   0.0007   0.0021   0.0009   0.0012   0.0016   0.19    5.0
2017/07/23 11:24:44.600   2773889.7538   1652731.9315   5482037.8411   1  15   0.0012   0.0007   0.0021   0.0009   0.0012   0.0016   0.19    5.0
2017/07/23 11:24:44.800   2773889.7537   1652731.9315   5482037.8410   1  15   0.0012   0.0007   0.0021   0.0009   0.0012   0.0016   0.19    5.0
2017/07/23 11:24:45.000   2773889.7537   1652731.9315   5482037.8409   1  15   0.0012   0.0007   0.0021   0.0009   0.0012   0.0016   0.19    5.0
2017/07/23 11:24:45.200   2773889.7536   1652731.9315   5482037.8408   1  15   0.0012   0.0007   0.0021   0.0009   0.0012   0.0016   0.19    5.0
2017/07/23 11:24:45.400   2773889.7536   1652731.9315   5482037.8408   1  15   0.0012   0.0007   0.0021   0.0009   0.0012   0.0016   0.19    5.0
2017/07/23 11:24:45.600   2773889.7536   1652731.9315   5482037.8407   1  15   0.0012   0.0007   0.0021   0.0009   0.0012   0.0016   0.19    5.0
2017/07/23 11:24:45.800   2773889.7535   1652731.9314   5482037.8406   1  15   0.0012   0.0007   0.0021   0.0009   0.0012   0.0016   0.19    5.0
2017/07/23 11:24:46.000   2773889.7535   1652731.9314   5482037.8406   1  15   0.0012   0.0007   0.0021   0.0009   0.0012   0.0016   0.19    5.0
2017/07/23 11:24:46.200   2773889.7535   1652731.9314   5482037.8406   1  16   0.0012   0.0007   0.0021   0.0009   0.0012   0.0016   0.19    5.0
2017/07/23 11:24:46.400   2773889.7534   1652731.9314   5482037.8405   1  16   0.0012   0.0007   0.0021   0.0009   0.0012   0.0016   0.19    5.0
2017/07/23 11:24:46.600   2773889.7534   1652731.9314   5482037.8404   1  16   0.0012   0.0007   0.0021   0.0009   0.0012   0.0016   0.19    5.0
2017/07/23 11:24:46.800   2773889.7534   1652731.9314   5482037.8404   1  16   0.0012   0.0007   0.0021   0.0009   0.0012   0.0016   0.19    5.0
2017/07/23 11:24:47.000   2773889.7533   1652731.9314   5482037.8403   1  16   0.0012   0.0007   0.0021   0.0009   0.0012   0.0016   0.19    5.0
2017/07/23 11:24:47.200   2773889.7533   1652731.9314   5482037.8403   1  16   0.0012   0.0007   0.0021   0.0009   0.0012   0.0016   0.19    5.0
2017/07/23 11:24:47.400   2773889.7533   1652731.9314   5482037.8403   1  16   0.0012   0.0007   0.0021   0.0009   0.0012   0.0016   0.19    5.0
2017/07/23 11:24:47.600   2773889.7532   1652731.9313   5482037.8402   1  16   0.0012   0.0007   0.0021   0.0009   0.0012   0.0016   0.19    5.0
2017/07/23 11:24:47.800   2773889.7532   1652731.9313   5482037.8402   1  16   0.0012   0.0007   0.0021   0.0009   0.0012   0.0016   0.19    5.0
2017/07/23 11:24:48.000   2773889.7532   1652731.9313   5482037.8401   1  16   0.0012   0.0007   0.0021   0.0009   0.0012   0.0016   0.19    5.0
2017/07/23 11:24:48.200   2773889.7531   1652731.9313   5482037.8400   1  16   0.0012   0.0007   0.0021   0.0009   0.0012   0.0016   0.19    5.0
2017/07/23 11:24:48.400   2773889.7531   1652731.9313   5482037.8400   1  16   0.0012   0.0007   0.0021   0.0009   0.0012   0.0016   0.19    5.0
2017/07/23 11:24:48.600   2773889.7530   1652731.9313   5482037.8399   1  16   0.0012   0.0007   0.0021   0.0009   0.0012   0.0016   0.19    5.0
2017/07/23 11:24:48.800   2773889.7530   1652731.9312   5482037.8398   1  16   0.0012   0.0007   0.0021   0.0009   0.0012   0.0016   0.19    5.0
2017/07/23 11:24:49.000   2773889.7529   1652731.9312   5482037.8397   1  16   0.0012   0.0007   0.0021   0.0009   0.0012   0.0016   0.19    5.0
2017/07/23 11:24:49.200   2773889.7529   1652731.9312   5482037.8396   1  16   0.0012   0.0007   0.0021   0.0009   0.0012   0.0016   0.19    5.0
2017/07/23 11:24:49.400   2773889.7528   1652731.9311   5482037.8395   1  16   0.0012   0.0007   0.0021   0.0009   0.0012   0.0016   0.19    5.0
2017/07/23 11:24:49.600   2773889.7528   1652731.9311   5482037.8394   1  16   0.0012   0.0007   0.0021   0.0009   0.0012   0.0016   0.19    5.0
2017/07/23 11:24:49.800   2773889.7527   1652731.9311   5482037.8393   1  16   0.0012   0.0007   0.0021   0.0009   0.0012   0.0016   0.19    5.0
2017/07/23 11:24:50.000   2773889.7527   1652731.9311   5482037.8392   1  16   0.0012   0.0007   0.0021   0.0009   0.0012   0.0016   0.19    5.0
2017/07/23 11:24:50.200   2773889.7526   1652731.9310   5482037.8391   1  16   0.0012   0.0007   0.0021   0.0009   0.0012   0.0016   0.19    5.0
2017/07/23 11:24:50.400   2773889.7525   1652731.9310   5482037.8390   1  16   0.0012   0.0007   0.0021   0.0009   0.0012   0.0016   0.19    5.0
2017/07/23 11:24:50.600   2773889.7525   1652731.9310   5482037.8389   1  16   0.0012   0.0007   0.0021   0.0009   0.0012   0.0016   0.19    5.0
2017/07/23 11:24:50.800   2773889.7524   1652731.9310   5482037.8388   1  16   0.0012   0.0007   0.0021   0.0009   0.0012   0.0016   0.19    5.0
2017/07/23 11:24:51.000   2773889.7524   1652731.9309   5482037.8387   1  16   0.0012   0.0007   0.0021   0.0009   0.0012   0.0016   0.19    5.0
2017/07/23 11:24:51.200   2773889.7523   1652731.9309   5482037.8387   1  16   0.0012   0.0007   0.0021   0.0009   0.0012   0.0016   0.19    5.0
2017/07/23 11:24:51.400   2773889.7523   1652731.9309   5482037.8386   1  16   0.0012   0.0007   0.0021   0.0009   0.0012   0.0016   0.19    5.0
2017/07/23 11:24:51.600   2773889.7522   1652731.9309   5482037.8385   1  16   0.0012   0.0007   0.0021   0.0009   0.0012   0.0016   0.19    5.0
2017/07/23 11:24:51.800   2773889.7522   1652731.9309   5482037.8384   1  16   0.0012   0.0007   0.0021   0.0009   0.0012   0.0016   0.19    5.0
2017/07/23 11:24:52.000   2773889.7521   1652731.9308   5482037.8383   1  16   0.0012   0.0007   0.0021   0.0009   0.0012   0.0016   0.19    5.0
2017/07/23 11:24:52.200   2773889.7521   1652731.9308   5482037.8382   1  16   0.0012   0.0007   0.0021   0.0009   0.0012   0.0016   0.19    5.0
2017/07/23 11:24:52.400   2773889.7520   1652731.9308   5482037.8381   1  16   0.0012   0.0007   0.0021   0.0009   0.0012   0.0016   0.19    5.0
2017/07/23 11:24:52.600   2773889.7519   1652731.9308   5482037.8380   1  16   0.0012   0.0007   0.0021   0.0009   0.0012   0.0016   0.19    5.0
2017/07/23 11:24:52.800   2773889.7519   1652731.9307   5482037.8379   1  16   0.0012   0.0007   0.0021   0.0009   0.0012   0.0016   0.19    5.0
2017/07/23 11:24:53.000   2773889.7518   1652731.9307   5482037.8378   1  16   0.0012   0.0007   0.0021   0.0009   0.0012   0.0016   0.19    5.0
2017/07/23 11:24:53.200   2773889.7518   1652731.9307   5482037.8377   1  16   0.0012   0.0007   0.0021   0.0009   0.0012   0.0016   0.19    5.0
2017/07/23 11:24:53.400   2773889.7517   1652731.9306   5482037.8376   1  16   0.0012   0.0007   0.0021   0.0009   0.0012   0.0016   0.19    5.0
2017/07/23 11:24:53.600   2773889.7516   1652731.9306   5482037.8375   1  16   0.0012   0.0007   0.0021   0.0009   0.0012   0.0016   0.19    5.0
2017/07/23 11:24:53.800   2773889.7516   1652731.9306   5482037.8374   1  16   0.0012   0.0007   0.0021   0.0009   0.0012   0.0016   0.19    5.0
2017/07/23 11:24:54.000   2773889.7515   1652731.9306   5482037.8373   1  16   0.0012   0.0007   0.0021   0.0009   0.0012   0.0016   0.19    5.0
2017/07/23 11:24:54.200   2773889.7515   1652731.9306   5482037.8372   1  16   0.0012   0.0007   0.0021   0.0009   0.0012   0.0016   0.19    5.0
2017/07/23 11:24:54.400   2773889.7514   1652731.9305   5482037.8371   1  16   0.0012   0.0007   0.0021   0.0009   0.0012   0.0016   0.19    5.0
2017/07/23 11:24:54.600   2773889.7514   1652731.9305   5482037.8370   1  16   0.0012   0.0007   0.0021   0.0009   0.0012   0.0016   0.19    5.0
2017/07/23 11:24:54.800   2773889.7513   1652731.9305   5482037.8369   1  16   0.0012   0.0007   0.0021   0.0009   0.0012   0.0016   0.19    5.0
2017/07/23 11:24:55.000   2773889.7513   1652731.9305   5482037.8368   1  16   0.0012   0.0007   0.0021   0.0009   0.0012   0.0016   0.19    5.0
2017/07/23 11:24:55.200   2773889.7512   1652731.9304   5482037.8367   1  16   0.0012   0.0007   0.0021   0.0009   0.0012   0.0016   0.19    5.0
2017/07/23 11:24:55.400   2773889.7512   1652731.9304   5482037.8366   1  16   0.0012   0.0007   0.0021   0.0009   0.0012   0.0016   0.19    5.0
2017/07/23 11:24:55.600   2773889.7511   1652731.9304   5482037.8365   1  16   0.0012   0.0007   0.0021   0.0009   0.0012   0.0016   0.19    5.0
2017/07/23 11:24:55.800   2773889.7511   1652731.9304   5482037.8365   1  16   0.0012   0.0007   0.0021   0.0009   0.0012   0.0016   0.19    5.0
2017/07/23 11:24:56.000   2773889.7510   1652731.9304   5482037.8364   1  16   0.0012   0.0007   0.0021   0.0009   0.0012   0.0016   0.19    5.0
2017/07/23 11:24:56.200   2773889.7510   1652731.9304   5482037.8364   1  16   0.0012   0.0007   0.0021   0.0009   0.0012   0.0016   0.19    5.0
2017/07/23 11:24:56.400   2773889.7509   1652731.9303   5482037.8363   1  16   0.0012   0.0007   0.0021   0.0009   0.0012   0.0016   0.19    5.0
2017/07/23 11:24:56.600   2773889.7509   1652731.9303   5482037.8362   1  16   0.0012   0.0007   0.0021   0.0009   0.0012   0.0016   0.19    5.0
2017/07/23 11:24:56.800   2773889.7509   1652731.9303   5482037.8362   1  16   0.0012   0.0007   0.0021   0.0009   0.0012   0.0016   0.19    5.0
2017/07/23 11:24:57.000   2773889.7509   1652731.9303   5482037.8361   1  16   0.0012   0.0007   0.0021   0.0009   0.0012   0.0016   0.19    5.0
2017/07/23 11:24:57.200   2773889.7508   1652731.9303   5482037.8361   1  16   0.0012   0.0007   0.0021   0.0009   0.0012   0.0016   0.19    5.0
2017/07/23 11:24:57.400   2773889.7508   1652731.9303   5482037.8360   1  16   0.0012   0.0007   0.0021   0.0009   0.0012   0.0016   0.19    5.0
2017/07/23 11:24:57.600   2773889.7508   1652731.9303   5482037.8359   1  16   0.0012   0.0007   0.0021   0.0009   0.0012   0.0016   0.19    5.0
2017/07/23 11:24:57.800   2773889.7507   1652731.9302   5482037.8359   1  16   0.0012   0.0007   0.0021   0.0009   0.0012   0.0016   0.19    5.0
2017/07/23 11:24:58.000   2773889.7507   1652731.9302   5482037.8358   1  16   0.0012   0.0007   0.0021   0.0009   0.0012   0.0016   0.19    5.0
2017/07/23 11:24:58.200   2773889.7506   1652731.9302   5482037.8357   1  16   0.0012   0.0007   0.0021   0.0009   0.0012   0.0016   0.19    5.0
2017/07/23 11:24:58.400   2773889.7506   1652731.9302   5482037.8356   1  16   0.0012   0.0007   0.0021   0.0009   0.0012   0.0016   0.19    5.0
2017/07/23 11:24:58.600   2773889.7505   1652731.9301   5482037.8355   1  16   0.0012   0.0007   0.0021   0.0009   0.0012   0.0016   0.19    5.0
2017/07/23 11:24:58.800   2773889.7505   1652731.9301   5482037.8355   1  15   0.0012   0.0007   0.0021   0.0009   0.0012   0.0016   0.19    5.0
2017/07/23 11:24:59.000   2773889.7505   1652731.9301   5482037.8355   1  15   0.0012   0.0007   0.0021   0.0009   0.0012   0.0016   0.19    5.0
2017/07/23 11:24:59.200   2773889.7504   1652731.9301   5482037.8354   1  15   0.0012   0.0007   0.0021   0.0009   0.0012   0.0016   0.19    5.0
2017/07/23 11:24:59.400   2773889.7504   1652731.9301   5482037.8354   1  15   0.0012   0.0007   0.0021   0.0009   0.0012   0.0016   0.19    5.0
2017/07/23 11:24:59.600   2773889.7504   1652731.9301   5482037.8353   1  15   0.0012   0.0007   0.0021   0.0009   0.0012   0.0016   0.19    5.0
2017/07/23 11:24:59.800   2773889.7503   1652731.9301   5482037.8353   1  15   0.0012   0.0007   0.0021   0.0009   0.0012   0.0016   0.19    5.0
2017/07/23 11:25:00.000   2773889.7503   1652731.9301   5482037.8352   1  15   0.0012   0.0007   0.0021   0.0009   0.0012   0.0016   0.19    5.0
2017/07/23 11:25:00.200   2773889.7503   1652731.9301   5482037.8352   1  15   0.0012   0.0007   0.0021   0.0009   0.0012   0.0016   0.19    5.0
2017/07/23 11:25:00.400   2773889.7503   1652731.9301   5482037.8352   1  16   0.0012   0.0007   0.0021   0.0009   0.0012   0.0016   0.19    5.0
2017/07/23 11:25:00.600   2773889.7502   1652731.9300   5482037.8351   1  16   0.0012   0.0007   0.0021   0.0009   0.0012   0.0016   0.19    5.0
2017/07/23 11:25:00.800   2773889.7502   1652731.9300   5482037.8350   1  16   0.0012   0.0007   0.0021   0.0009   0.0012   0.0016   0.19    5.0
2017/07/23 11:25:01.000   2773889.7501   1652731.9300   5482037.8349   1  16   0.0012   0.0007   0.0021   0.0009   0.0012   0.0016   0.19    5.0
2017/07/23 11:25:01.200   2773889.7501   1652731.9300   5482037.8349   1  16   0.0012   0.0007   0.0021   0.0009   0.0012   0.0016   0.19    5.0
2017/07/23 11:25:01.400   2773889.7500   1652731.9300   5482037.8348   1  16   0.0012   0.0007   0.0021   0.0009   0.0012   0.0016   0.19    5.0
2017/07/23 11:25:01.600   2773889.7500   1652731.9299   5482037.8347   1  16   0.0012   0.0007   0.0021   0.0009   0.0012   0.0016   0.19    5.0
2017/07/23 11:25:01.800   2773889.7499   1652731.9299   5482037.8346   1  16   0.0012   0.0007   0.0021   0.0009   0.0012   0.0016   0.19    5.0
2017/07/23 11:25:02.000   2773889.7499   1652731.9299   5482037.8346   1  16   0.0012   0.0007   0.0021   0.0009   0.0012   0.0016   0.19    5.0
2017/07/23 11:25:02.200   2773889.7499   1652731.9299   5482037.8345   1  16   0.0012   0.0007   0.0021   0.0009   0.0012   0.0016   0.19    5.0
2017/07/23 11:25:02.400   2773889.7498   1652731.9299   5482037.8345   1  16   0.0012   0.0007   0.0021   0.0009   0.0012   0.0016   0.19    5.0
2017/07/23 11:25:02.600   2773889.7498   1652731.9299   5482037.8345   1  16   0.0012   0.0007   0.0021   0.0009   0.0012   0.0016   0.19    5.0
2017/07/23 11:25:02.800   2773889.7498   1652731.9299   5482037.8345   1  16   0.0012   0.0007   0.0021   0.0009   0.0012   0.0016   0.19    5.0
2017/07/23 11:25:03.000   2773889.7498   1652731.9299   5482037.8344   1  16   0.0012   0.0007   0.0021   0.0009   0.0012   0.0016   0.19    5.0
2017/07/23 11:25:03.200   2773889.7497   1652731.9299   5482037.8344   1  16   0.0012   0.0007   0.0021   0.0009   0.0012   0.0016   0.19    5.0
2017/07/23 11:25:03.400   2773889.7497   1652731.9299   5482037.8344   1  16   0.0012   0.0007   0.0021   0.0009   0.0012   0.0016   0.19    5.0
2017/07/23 11:25:03.600   2773889.7497   1652731.9298   5482037.8343   1  16   0.0012   0.0007   0.0021   0.0009   0.0012   0.0016   0.19    5.0
2017/07/23 11:25:03.800   2773889.7496   1652731.9298   5482037.8343   1  16   0.0012   0.0007   0.0021   0.0009   0.0012   0.0016   0.19    5.0
2017/07/23 11:25:04.000   2773889.7496   1652731.9298   5482037.8342   1  16   0.0012   0.0007   0.0021   0.0009   0.0012   0.0016   0.19    5.0
2017/07/23 11:25:04.200   2773889.7495   1652731.9298   5482037.8341   1  16   0.0012   0.0007   0.0021   0.0009   0.0012   0.0016   0.19    5.0
2017/07/23 11:25:04.400   2773889.7495   1652731.9298   5482037.8341   1  16   0.0012   0.0007   0.0021   0.0009   0.0012   0.0016   0.19    5.0
2017/07/23 11:25:04.600   2773889.7495   1652731.9298   5482037.8340   1  16   0.0012   0.0007   0.0021   0.0009   0.0012   0.0016   0.19    5.0
2017/07/23 11:25:04.800   2773889.7494   1652731.9298   5482037.8340   1  16   0.0012   0.0007   0.0021   0.0009   0.0012   0.0016   0.19    5.0
2017/07/23 11:25:05.000   2773889.7494   1652731.9297   5482037.8339   1  16   0.0012   0.0007   0.0021   0.0009   0.0012   0.0016   0.19    5.0
2017/07/23 11:25:05.200   2773889.7493   1652731.9297   5482037.8338   1  16   0.0012   0.0007   0.0021   0.0009   0.0012   0.0016   0.19    5.0
2017/07/23 11:25:05.400   2773889.7493   1652731.9297   5482037.8337   1  16   0.0012   0.0007   0.0021   0.0009   0.0012   0.0016   0.19    5.0
2017/07/23 11:25:05.600   2773889.7492   1652731.9297   5482037.8336   1  16   0.0012   0.0007   0.0021   0.0009   0.0012   0.0016   0.19    5.0
2017/07/23 11:25:05.800   2773889.7491   1652731.9297   5482037.8335   1  16   0.0012   0.0007   0.0021   0.0009   0.0012   0.0016   0.19    5.0
2017/07/23 11:25:06.000   2773889.7491   1652731.9296   5482037.8334   1  16   0.0012   0.0007   0.0021   0.0009   0.0012   0.0016   0.19    5.0
2017/07/23 11:25:06.200   2773889.7491   1652731.9296   5482037.8333   1  16   0.0012   0.0007   0.0021   0.0009   0.0012   0.0016   0.19    5.0
2017/07/23 11:25:06.400   2773889.7490   1652731.9296   5482037.8333   1  16   0.0012   0.0007   0.0021   0.0009   0.0012   0.0016   0.19    5.0
2017/07/23 11:25:06.600   2773889.7490   1652731.9296   5482037.8332   1  16   0.0012   0.0007   0.0021   0.0009   0.0012   0.0016   0.19    5.0
2017/07/23 11:25:06.800   2773889.7489   1652731.9296   5482037.8332   1  16   0.0012   0.0007   0.0021   0.0009   0.0012   0.0016   0.19    5.0
2017/07/23 11:25:07.000   2773889.7489   1652731.9296   5482037.8331   1  16   0.0012   0.0007   0.0021   0.0009   0.0012   0.0016   0.19    5.0
2017/07/23 11:25:07.200   2773889.7489   1652731.9295   5482037.8330   1  16   0.0012   0.0007   0.0021   0.0009   0.0012   0.0016   0.19    5.0
2017/07/23 11:25:07.400   2773889.7488   1652731.9295   5482037.8329   1  16   0.0012   0.0007   0.0021   0.0009   0.0012   0.0016   0.19    5.0
2017/07/23 11:25:07.600   2773889.7488   1652731.9295   5482037.8329   1  16   0.0012   0.0007   0.0021   0.0009   0.0012   0.0016   0.19    5.0
2017/07/23 11:25:07.800   2773889.7487   1652731.9295   5482037.8328   1  16   0.0012   0.0007   0.0021   0.0009   0.0012   0.0016   0.19    5.0
2017/07/23 11:25:08.000   2773889.7487   1652731.9295   5482037.8327   1  16   0.0012   0.0007   0.0021   0.0009   0.0012   0.0016   0.19    5.0
2017/07/23 11:25:08.200   2773889.7487   1652731.9295   5482037.8326   1  16   0.0012   0.0007   0.0021   0.0009   0.0012   0.0016   0.19    5.0
2017/07/23 11:25:08.400   2773889.7486   1652731.9294   5482037.8325   1  16   0.0012   0.0007   0.0021   0.0009   0.0012   0.0016   0.19    5.0
2017/07/23 11:25:08.600   2773889.7486   1652731.9294   5482037.8325   1  16   0.0012   0.0007   0.0021   0.0009   0.0012   0.0016   0.19    5.0
2017/07/23 11:25:08.800   2773889.7486   1652731.9294   5482037.8324   1  16   0.0012   0.0007   0.0021   0.0009   0.0012   0.0016   0.19    5.0
2017/07/23 11:25:09.000   2773889.7485   1652731.9294   5482037.8323   1  16   0.0012   0.0007   0.0021   0.0009   0.0012   0.0016   0.19    5.0
2017/07/23 11:25:09.200   2773889.7484   1652731.9293   5482037.8322   1  16   0.0012   0.0007   0.0021   0.0009   0.0012   0.0016   0.19    5.0
2017/07/23 11:25:09.400   2773889.7484   1652731.9293   5482037.8321   1  16   0.0012   0.0007   0.0021   0.0009   0.0012   0.0016   0.19    5.0
2017/07/23 11:25:09.600   2773889.7484   1652731.9293   5482037.8320   1  16   0.0012   0.0007   0.0021   0.0009   0.0012   0.0016   0.19    5.0
2017/07/23 11:25:09.800   2773889.7483   1652731.9293   5482037.8320   1  16   0.0012   0.0007   0.0021   0.0009   0.0012   0.0016   0.19    5.0
2017/07/23 11:25:10.000   2773889.7483   1652731.9293   5482037.8319   1  16   0.0012   0.0007   0.0021   0.0009   0.0012   0.0016   0.19    5.0
2017/07/23 11:25:10.200   2773889.7482   1652731.9293   5482037.8318   1  16   0.0012   0.0007   0.0021   0.0009   0.0012   0.0016   0.19    5.0
2017/07/23 11:25:10.400   2773889.7482   1652731.9292   5482037.8318   1  16   0.0012   0.0007   0.0021   0.0009   0.0012   0.0016   0.19    5.0
2017/07/23 11:25:10.600   2773889.7482   1652731.9292   5482037.8318   1  16   0.0012   0.0007   0.0021   0.0009   0.0012   0.0016   0.19    5.0
2017/07/23 11:25:10.800   2773889.7482   1652731.9292   5482037.8317   1  16   0.0012   0.0007   0.0021   0.0009   0.0012   0.0016   0.19    5.0
2017/07/23 11:25:11.000   2773889.7481   1652731.9292   5482037.8316   1  16   0.0012   0.0007   0.0021   0.0009   0.0012   0.0016   0.19    5.0
2017/07/23 11:25:11.200   2773889.7481   1652731.9292   5482037.8316   1  16   0.0012   0.0007   0.0021   0.0009   0.0012   0.0016   0.19    5.0
2017/07/23 11:25:11.400   2773889.7481   1652731.9292   5482037.8315   1  16   0.0012   0.0007   0.0021   0.0009   0.0012   0.0016   0.19    5.0
2017/07/23 11:25:11.600   2773889.7480   1652731.9292   5482037.8315   1  16   0.0012   0.0007   0.0021   0.0009   0.0012   0.0016   0.19    5.0
2017/07/23 11:25:11.800   2773889.7480   1652731.9292   5482037.8314   1  16   0.0012   0.0007   0.0021   0.0009   0.0012   0.0016   0.19    5.0
2017/07/23 11:25:12.000   2773889.7480   1652731.9292   5482037.8314   1  16   0.0012   0.0007   0.0021   0.0009   0.0012   0.0016   0.19    5.0
2017/07/23 11:25:12.200   2773889.7479   1652731.9291   5482037.8313   1  16   0.0012   0.0007   0.0021   0.0009   0.0012   0.0016   0.19    5.0
2017/07/23 11:25:12.400   2773889.7479   1652731.9291   5482037.8312   1  16   0.0012   0.0007   0.0021   0.0009   0.0012   0.0016   0.19    5.0
2017/07/23 11:25:12.600   2773889.7479   1652731.9291   5482037.8312   1  16   0.0012   0.0007   0.0021   0.0009   0.0012   0.0016   0.19    5.0
2017/07/23 11:25:12.800   2773889.7479   1652731.9291   5482037.8311   1  16   0.0012   0.0007   0.0021   0.0009   0.0012   0.0016   0.19    5.0
2017/07/23 11:25:13.000   2773889.7478   1652731.9291   5482037.8311   1  16   0.0012   0.0007   0.0021   0.0009   0.0012   0.0016   0.19    5.0
2017/07/23 11:25:13.200   2773889.7478   1652731.9291   5482037.8311   1  16   0.0012   0.0007   0.0021   0.0009   0.0012   0.0016   0.19    5.0
2017/07/23 11:25:13.400   2773889.7478   1652731.9291   5482037.8310   1  16   0.0012   0.0007   0.0021   0.0009   0.0012   0.0016   0.19    5.0
2017/07/23 11:25:13.600   2773889.7478   1652731.9291   5482037.8310   1  16   0.0012   0.0007   0.0021   0.0009   0.0012   0.0016   0.19    5.0
2017/07/23 11:25:13.800   2773889.7477   1652731.9291   5482037.8309   1  16   0.0012   0.0007   0.0021   0.0009   0.0012   0.0016   0.19    5.0
2017/07/23 11:25:14.000   2773889.7477   1652731.9291   5482037.8308   1  16   0.0012   0.0007   0.0021   0.0009   0.0012   0.0016   0.19    5.0
2017/07/23 11:25:14.200   2773889.7477   1652731.9291   5482037.8308   1  16   0.0012   0.0007   0.0021   0.0009   0.0012   0.0016   0.19    5.0
2017/07/23 11:25:14.400   2773889.7476   1652731.9291   5482037.8307   1  16   0.0012   0.0007   0.0021   0.0009   0.0012   0.0016   0.19    5.0
2017/07/23 11:25:14.600   2773889.7476   1652731.9291   5482037.8307   1  16   0.0012   0.0007   0.0021   0.0009   0.0012   0.0016   0.19    5.0
2017/07/23 11:25:14.800   2773889.7476   1652731.9290   5482037.8307   1  16   0.0012   0.0007   0.0021   0.0009   0.0012   0.0016   0.19    5.0
2017/07/23 11:25:15.000   2773889.7476   1652731.9290   5482037.8306   1  16   0.0012   0.0007   0.0021   0.0009   0.0012   0.0016   0.19    5.0
2017/07/23 11:25:15.200   2773889.7475   1652731.9290   5482037.8306   1  16   0.0012   0.0007   0.0021   0.0009   0.0012   0.0016   0.19    5.0
2017/07/23 11:25:15.400   2773889.7475   1652731.9290   5482037.8305   1  16   0.0012   0.0007   0.0021   0.0009   0.0012   0.0016   0.19    5.0
2017/07/23 11:25:15.600   2773889.7475   1652731.9290   5482037.8305   1  16   0.0012   0.0007   0.0021   0.0009   0.0012   0.0016   0.19    5.0
2017/07/23 11:25:15.800   2773889.7474   1652731.9290   5482037.8305   1  16   0.0012   0.0007   0.0021   0.0009   0.0012   0.0016   0.19    5.0
2017/07/23 11:25:16.000   2773889.7474   1652731.9290   5482037.8304   1  16   0.0012   0.0007   0.0021   0.0009   0.0012   0.0016   0.19    5.0
2017/07/23 11:25:16.200   2773889.7474   1652731.9290   5482037.8304   1  16   0.0012   0.0007   0.0021   0.0009   0.0012   0.0016   0.19    5.0
2017/07/23 11:25:16.400   2773889.7474   1652731.9290   5482037.8303   1  16   0.0012   0.0007   0.0021   0.0009   0.0012   0.0016   0.19    5.0
2017/07/23 11:25:16.600   2773889.7473   1652731.9290   5482037.8303   1  16   0.0012   0.0007   0.0021   0.0009   0.0012   0.0016   0.19    5.0
2017/07/23 11:25:16.800   2773889.7473   1652731.9290   5482037.8302   1  16   0.0012   0.0007   0.0021   0.0009   0.0012   0.0016   0.19    5.0
2017/07/23 11:25:17.000   2773889.7473   1652731.9290   5482037.8302   1  16   0.0012   0.0007   0.0021   0.0009   0.0012   0.0016   0.19    5.0
2017/07/23 11:25:17.200   2773889.7472   1652731.9290   5482037.8301   1  16   0.0012   0.0007   0.0021   0.0009   0.0012   0.0016   0.19    5.0
2017/07/23 11:25:17.400   2773889.7472   1652731.9290   5482037.8301   1  16   0.0012   0.0007   0.0021   0.0009   0.0012   0.0016   0.19    5.0
2017/07/23 11:25:17.600   2773889.7472   1652731.9290   5482037.8300   1  16   0.0012   0.0007   0.0021   0.0009   0.0012   0.0016   0.19    5.0
2017/07/23 11:25:17.800   2773889.7471   1652731.9289   5482037.8299   1  16   0.0012   0.0007   0.0021   0.0009   0.0012   0.0016   0.19    5.0
2017/07/23 11:25:18.000   2773889.7471   1652731.9289   5482037.8299   1  16   0.0012   0.0007   0.0021   0.0009   0.0012   0.0016   0.19    5.0
2017/07/23 11:25:18.200   2773889.7471   1652731.9289   5482037.8298   1  15   0.0012   0.0007   0.0021   0.0009   0.0012   0.0016   0.19    5.0
2017/07/23 11:25:18.400   2773889.7471   1652731.9289   5482037.8298   1  15   0.0012   0.0007   0.0021   0.0009   0.0012   0.0016   0.19    5.0
2017/07/23 11:25:18.600   2773889.7470   1652731.9289   5482037.8297   1  16   0.0012   0.0007   0.0021   0.0009   0.0012   0.0016   0.19    5.0
2017/07/23 11:25:18.800   2773889.7470   1652731.9289   5482037.8297   1  15   0.0012   0.0007   0.0021   0.0009   0.0012   0.0016   0.19    5.0
2017/07/23 11:25:19.000   2773889.7470   1652731.9289   5482037.8296   1  15   0.0012   0.0007   0.0021   0.0009   0.0012   0.0016   0.19    5.0
2017/07/23 11:25:19.200   2773889.7469   1652731.9289   5482037.8296   1  15   0.0012   0.0007   0.0021   0.0009   0.0012   0.0016   0.19    5.0
2017/07/23 11:25:19.400   2773889.7469   1652731.9289   5482037.8296   1  16   0.0012   0.0007   0.0021   0.0009   0.0012   0.0016   0.19    5.0
2017/07/23 11:25:19.600   2773889.7469   1652731.9289   5482037.8296   1  16   0.0012   0.0007   0.0021   0.0009   0.0012   0.0016   0.19    5.0
2017/07/23 11:25:19.800   2773889.7470   1652731.9289   5482037.8296   1  16   0.0012   0.0007   0.0021   0.0009   0.0012   0.0016   0.19    5.0
2017/07/23 11:25:20.000   2773889.7469   1652731.9289   5482037.8296   1  15   0.0012   0.0007   0.0021   0.0009   0.0012   0.0016   0.19    5.0
2017/07/23 11:25:20.200   2773889.7469   1652731.9289   5482037.8295   1  15   0.0012   0.0007   0.0021   0.0009   0.0012   0.0016   0.19    5.0
2017/07/23 11:25:20.400   2773889.7469   1652731.9289   5482037.8295   1  15   0.0012   0.0007   0.0021   0.0009   0.0012   0.0016   0.19    5.0
2017/07/23 11:25:20.600   2773889.7469   1652731.9289   5482037.8295   1  15   0.0012   0.0007   0.0021   0.0009   0.0012   0.0016   0.19    5.0
2017/07/23 11:25:20.800   2773889.7469   1652731.9289   5482037.8295   1  16   0.0012   0.0007   0.0021   0.0009   0.0012   0.0016   0.19    5.0
2017/07/23 11:25:21.000   2773889.7469   1652731.9289   5482037.8295   1  16   0.0012   0.0007   0.0021   0.0009   0.0012   0.0016   0.19    5.0
2017/07/23 11:25:21.200   2773889.7469   1652731.9289   5482037.8294   1  16   0.0012   0.0007   0.0021   0.0009   0.0012   0.0016   0.19    5.0
2017/07/23 11:25:21.400   2773889.7468   1652731.9289   5482037.8294   1  16   0.0012   0.0007   0.0021   0.0009   0.0012   0.0016   0.19    5.0
2017/07/23 11:25:21.600   2773889.7468   1652731.9289   5482037.8293   1  16   0.0012   0.0007   0.0021   0.0009   0.0012   0.0016   0.19    5.0
2017/07/23 11:25:21.800   2773889.7468   1652731.9289   5482037.8293   1  16   0.0012   0.0007   0.0021   0.0009   0.0012   0.0016   0.19    5.0
2017/07/23 11:25:22.000   2773889.7467   1652731.9289   5482037.8292   1  16   0.0012   0.0007   0.0021   0.0009   0.0012   0.0016   0.19    5.1
2017/07/23 11:25:22.200   2773889.7467   1652731.9288   5482037.8291   1  16   0.0012   0.0007   0.0021   0.0009   0.0012   0.0016   0.19    5.1
2017/07/23 11:25:22.400   2773889.7466   1652731.9288   5482037.8290   1  16   0.0012   0.0007   0.0021   0.0009   0.0012   0.0016   0.19    5.1
2017/07/23 11:25:22.600   2773889.7466   1652731.9288   5482037.8290   1  16   0.0012   0.0007   0.0021   0.0009   0.0012   0.0016   0.19    5.1
2017/07/23 11:25:22.800   2773889.7466   1652731.9288   5482037.8289   1  16   0.0012   0.0007   0.0021   0.0009   0.0012   0.0016   0.19    5.1
2017/07/23 11:25:23.000   2773889.7465   1652731.9288   5482037.8288   1  16   0.0012   0.0007   0.0021   0.0009   0.0012   0.0016   0.19    5.1
2017/07/23 11:25:23.200   2773889.7465   1652731.9288   5482037.8287   1  16   0.0012   0.0007   0.0021   0.0009   0.0012   0.0016   0.19    5.1
2017/07/23 11:25:23.400   2773889.7464   1652731.9287   5482037.8286   1  16   0.0012   0.0007   0.0021   0.0009   0.0012   0.0016   0.19    5.1
2017/07/23 11:25:23.600   2773889.7464   1652731.9287   5482037.8285   1  16   0.0012   0.0007   0.0021   0.0009   0.0012   0.0016   0.19    5.1
2017/07/23 11:25:23.800   2773889.7463   1652731.9287   5482037.8285   1  16   0.0012   0.0007   0.0021   0.0009   0.0012   0.0016   0.19    5.1
2017/07/23 11:25:24.000   2773889.7463   1652731.9287   5482037.8283   1  16   0.0012   0.0007   0.0021   0.0009   0.0012   0.0016   0.19    5.1
2017/07/23 11:25:24.200   2773889.7462   1652731.9286   5482037.8282   1  16   0.0012   0.0007   0.0021   0.0009   0.0012   0.0016   0.19    5.1
2017/07/23 11:25:24.400   2773889.7462   1652731.9286   5482037.8281   1  16   0.0012   0.0007   0.0021   0.0009   0.0012   0.0016   0.19    5.1
2017/07/23 11:25:24.600   2773889.7461   1652731.9286   5482037.8280   1  16   0.0012   0.0007   0.0021   0.0009   0.0012   0.0016   0.19    5.1
2017/07/23 11:25:24.800   2773889.7461   1652731.9285   5482037.8278   1  16   0.0012   0.0007   0.0021   0.0009   0.0012   0.0016   0.19    5.1
2017/07/23 11:25:25.000   2773889.7460   1652731.9285   5482037.8277   1  16   0.0012   0.0007   0.0021   0.0009   0.0012   0.0016   0.19    5.1
2017/07/23 11:25:25.200   2773889.7459   1652731.9285   5482037.8276   1  16   0.0012   0.0007   0.0021   0.0009   0.0012   0.0016   0.19    5.1
2017/07/23 11:25:25.400   2773889.7459   1652731.9284   5482037.8275   1  16   0.0012   0.0007   0.0021   0.0009   0.0012   0.0016   0.19    5.1
2017/07/23 11:25:25.600   2773889.7458   1652731.9284   5482037.8273   1  16   0.0012   0.0007   0.0021   0.0009   0.0012   0.0016   0.19    5.1
2017/07/23 11:25:25.800   2773889.7458   1652731.9284   5482037.8273   1  16   0.0012   0.0007   0.0021   0.0009   0.0012   0.0016   0.19    5.1
2017/07/23 11:25:26.000   2773889.7457   1652731.9284   5482037.8272   1  16   0.0012   0.0007   0.0021   0.0009   0.0012   0.0016   0.19    5.1
2017/07/23 11:25:26.200   2773889.7457   1652731.9284   5482037.8271   1  16   0.0012   0.0007   0.0021   0.0009   0.0012   0.0016   0.19    5.0
2017/07/23 11:25:26.400   2773889.7456   1652731.9283   5482037.8270   1  16   0.0012   0.0007   0.0021   0.0009   0.0012   0.0016   0.19    5.0
2017/07/23 11:25:26.600   2773889.7456   1652731.9283   5482037.8269   1  16   0.0012   0.0007   0.0021   0.0009   0.0012   0.0016   0.19    5.0
2017/07/23 11:25:26.800   2773889.7455   1652731.9283   5482037.8268   1  16   0.0012   0.0007   0.0021   0.0009   0.0012   0.0016   0.19    5.0
