% program   : RTKLIB ver.2.4.3 Emlid
% inp file  : /home/artur/RTKLIB/test/test/static/7_working_village/rover.obs
% inp file  : /home/artur/RTKLIB/test/test/static/7_working_village/base.obs
% inp file  : /home/artur/RTKLIB/test/test/static/7_working_village/rover.nav
% obs start : 2017/07/23 10:35:17.8 GPST (week1959  38117.8s)
% obs end   : 2017/07/23 10:45:29.6 GPST (week1959  38729.6s)
% pos mode  : static
% freqs     : L1
% solution  : combined
% elev mask : 15.0 deg
% dynamics  : on
% tidecorr  : off
% ionos opt : broadcast
% tropo opt : est ztd
% ephemeris : broadcast
% navi sys  : gps glonass galileo qzss beidou sbas
% amb res   : continuous
% amb glo   : off
% val thres : 3.0
% antenna1  :                       ( 0.0000  0.0000  0.0000)
% antenna2  :                       ( 0.0000  0.0000  0.0000)
% ref pos   :  2773909.8712  1654076.4507  5481627.6877
%
% (x/y/z-ecef=WGS84,Q=1:fix,2:float,3:sbas,4:dgps,5:single,6:ppp,ns=# of satellites)
%  GPST                      x-ecef(m)      y-ecef(m)      z-ecef(m)   Q  ns   sdx(m)   sdy(m)   sdz(m)  sdxy(m)  sdyz(m)  sdzx(m) age(s)  ratio
2017/07/23 10:35:17.800   2774440.2885   1653823.9694   5481438.3579   1  10   0.0009   0.0005   0.0017   0.0006   0.0009   0.0012   0.19   10.1
2017/07/23 10:35:18.000   2774440.2885   1653823.9694   5481438.3579   1  10   0.0009   0.0005   0.0017   0.0006   0.0009   0.0012   0.19   10.1
2017/07/23 10:35:18.200   2774440.2885   1653823.9694   5481438.3579   1  10   0.0009   0.0005   0.0017   0.0006   0.0009   0.0012   0.19   10.1
2017/07/23 10:35:18.400   2774440.2885   1653823.9694   5481438.3578   1  10   0.0009   0.0005   0.0017   0.0006   0.0009   0.0012   0.19   10.0
2017/07/23 10:35:18.600   2774440.2885   1653823.9694   5481438.3578   1  10   0.0009   0.0005   0.0017   0.0006   0.0009   0.0012   0.19   10.0
2017/07/23 10:35:18.800   2774440.2885   1653823.9694   5481438.3578   1  10   0.0009   0.0005   0.0017   0.0006   0.0009   0.0012   0.19   10.0
2017/07/23 10:35:19.000   2774440.2885   1653823.9693   5481438.3578   1  10   0.0009   0.0005   0.0017   0.0006   0.0009   0.0012   0.19   10.0
2017/07/23 10:35:19.200   2774440.2884   1653823.9693   5481438.3577   1  10   0.0009   0.0005   0.0017   0.0006   0.0009   0.0012   0.19   10.0
2017/07/23 10:35:19.400   2774440.2884   1653823.9693   5481438.3577   1  10   0.0009   0.0005   0.0017   0.0006   0.0009   0.0012   0.19   10.0
2017/07/23 10:35:19.600   2774440.2884   1653823.9693   5481438.3577   1  10   0.0009   0.0005   0.0017   0.0006   0.0009   0.0012   0.19   10.0
2017/07/23 10:35:19.800   2774440.2884   1653823.9693   5481438.3577   1  10   0.0009   0.0005   0.0017   0.0006   0.0009   0.0012   0.19   10.0
2017/07/23 10:35:20.000   2774440.2884   1653823.9693   5481438.3577   1  10   0.0009   0.0005   0.0017   0.0006   0.0009   0.0012   0.19   10.0
2017/07/23 10:35:20.200   2774440.2884   1653823.9693   5481438.3576   1  10   0.0009   0.0005   0.0017   0.0006   0.0009   0.0012   0.19   10.0
2017/07/23 10:35:20.400   2774440.2884   1653823.9693   5481438.3576   1  10   0.0009   0.0005   0.0017   0.0006   0.0009   0.0012   0.19   10.0
2017/07/23 10:35:20.600   2774440.2883   1653823.9693   5481438.3576   1  10   0.0009   0.0005   0.0017   0.0006   0.0009   0.0012   0.19   10.0
2017/07/23 10:35:20.800   2774440.2883   1653823.9692   5481438.3576   1  10   0.0009   0.0005   0.0017   0.0006   0.0009   0.0012   0.19   10.0
2017/07/23 10:35:21.000   2774440.2883   1653823.9692   5481438.3576   1  10   0.0009   0.0005   0.0017   0.0006   0.0009   0.0012   0.19   10.0
2017/07/23 10:35:21.200   2774440.2883   1653823.9692   5481438.3575   1  10   0.0009   0.0005   0.0017   0.0006   0.0009   0.0012   0.19   10.0
2017/07/23 10:35:21.400   2774440.2883   1653823.9692   5481438.3575   1  10   0.0009   0.0005   0.0017   0.0006   0.0009   0.0012   0.19   10.0
2017/07/23 10:35:21.600   2774440.2883   1653823.9692   5481438.3575   1  10   0.0009   0.0005   0.0017   0.0006   0.0009   0.0012   0.19   10.0
2017/07/23 10:35:21.800   2774440.2883   1653823.9692   5481438.3575   1  10   0.0009   0.0005   0.0017   0.0006   0.0009   0.0012   0.19   10.0
2017/07/23 10:35:22.000   2774440.2883   1653823.9692   5481438.3575   1  10   0.0009   0.0005   0.0017   0.0006   0.0009   0.0012   0.19   10.0
2017/07/23 10:35:22.200   2774440.2883   1653823.9692   5481438.3575   1  10   0.0009   0.0005   0.0017   0.0006   0.0009   0.0012   0.19   10.0
2017/07/23 10:35:22.400   2774440.2883   1653823.9692   5481438.3575   1  10   0.0009   0.0005   0.0017   0.0006   0.0009   0.0012   0.19   10.0
2017/07/23 10:35:22.600   2774440.2883   1653823.9692   5481438.3575   1  10   0.0009   0.0005   0.0017   0.0006   0.0009   0.0012   0.19   10.0
2017/07/23 10:35:22.800   2774440.2883   1653823.9692   5481438.3575   1  10   0.0009   0.0005   0.0017   0.0006   0.0009   0.0012   0.19   10.0
2017/07/23 10:35:23.000   2774440.2883   1653823.9692   5481438.3575   1  10   0.0009   0.0005   0.0017   0.0006   0.0009   0.0012   0.19   10.0
2017/07/23 10:35:23.200   2774440.2883   1653823.9692   5481438.3575   1  10   0.0009   0.0005   0.0017   0.0006   0.0009   0.0012   0.19   10.0
2017/07/23 10:35:23.400   2774440.2883   1653823.9692   5481438.3575   1  10   0.0009   0.0005   0.0016   0.0006   0.0009   0.0012   0.19   10.0
2017/07/23 10:35:23.600   2774440.2883   1653823.9692   5481438.3575   1  10   0.0009   0.0005   0.0016   0.0006   0.0009   0.0012   0.19   10.0
2017/07/23 10:35:23.800   2774440.2883   1653823.9692   5481438.3575   1  10   0.0009   0.0005   0.0016   0.0006   0.0009   0.0012   0.19   10.0
2017/07/23 10:35:24.000   2774440.2883   1653823.9692   5481438.3574   1  10   0.0009   0.0005   0.0016   0.0006   0.0009   0.0012   0.19   10.0
2017/07/23 10:35:24.200   2774440.2882   1653823.9692   5481438.3574   1  10   0.0009   0.0005   0.0016   0.0006   0.0009   0.0012   0.19    9.9
2017/07/23 10:35:24.400   2774440.2882   1653823.9691   5481438.3574   1  10   0.0009   0.0005   0.0016   0.0006   0.0009   0.0012   0.19    9.9
2017/07/23 10:35:24.600   2774440.2882   1653823.9691   5481438.3574   1  10   0.0009   0.0005   0.0016   0.0006   0.0009   0.0012   0.19    9.9
2017/07/23 10:35:24.800   2774440.2882   1653823.9691   5481438.3574   1  10   0.0009   0.0005   0.0016   0.0006   0.0009   0.0012   0.19    9.9
2017/07/23 10:35:25.000   2774440.2882   1653823.9691   5481438.3574   1  10   0.0009   0.0005   0.0016   0.0006   0.0009   0.0012   0.19    9.9
2017/07/23 10:35:25.200   2774440.2882   1653823.9691   5481438.3574   1  10   0.0009   0.0005   0.0016   0.0006   0.0009   0.0012   0.19    9.9
2017/07/23 10:35:25.400   2774440.2882   1653823.9691   5481438.3574   1  10   0.0009   0.0005   0.0016   0.0006   0.0009   0.0012   0.19    9.9
2017/07/23 10:35:25.600   2774440.2882   1653823.9691   5481438.3574   1  10   0.0009   0.0005   0.0016   0.0006   0.0009   0.0012   0.19    9.9
2017/07/23 10:35:25.800   2774440.2882   1653823.9691   5481438.3574   1  10   0.0009   0.0005   0.0016   0.0006   0.0009   0.0012   0.19    9.9
2017/07/23 10:35:26.000   2774440.2882   1653823.9691   5481438.3574   1  10   0.0009   0.0005   0.0016   0.0006   0.0009   0.0012   0.19    9.9
2017/07/23 10:35:26.200   2774440.2882   1653823.9691   5481438.3573   1  10   0.0009   0.0005   0.0016   0.0006   0.0009   0.0012   0.19    9.9
2017/07/23 10:35:26.400   2774440.2882   1653823.9691   5481438.3573   1  10   0.0009   0.0005   0.0016   0.0006   0.0009   0.0012   0.19    9.9
2017/07/23 10:35:26.600   2774440.2882   1653823.9691   5481438.3573   1  10   0.0009   0.0005   0.0016   0.0006   0.0009   0.0012   0.19    9.9
2017/07/23 10:35:26.800   2774440.2882   1653823.9691   5481438.3573   1  10   0.0009   0.0005   0.0016   0.0006   0.0009   0.0012   0.19    9.9
2017/07/23 10:35:27.000   2774440.2882   1653823.9691   5481438.3573   1  10   0.0009   0.0005   0.0016   0.0006   0.0009   0.0012   0.19    9.9
2017/07/23 10:35:27.200   2774440.2882   1653823.9691   5481438.3573   1  10   0.0009   0.0005   0.0016   0.0006   0.0009   0.0012   0.19    9.9
2017/07/23 10:35:27.400   2774440.2882   1653823.9691   5481438.3573   1  10   0.0009   0.0005   0.0016   0.0006   0.0009   0.0012   0.19    9.9
2017/07/23 10:35:27.600   2774440.2882   1653823.9691   5481438.3573   1  10   0.0009   0.0005   0.0016   0.0006   0.0009   0.0012   0.19    9.9
2017/07/23 10:35:27.800   2774440.2882   1653823.9691   5481438.3573   1  10   0.0009   0.0005   0.0016   0.0006   0.0009   0.0012   0.19    9.9
2017/07/23 10:35:28.000   2774440.2882   1653823.9691   5481438.3573   1  10   0.0009   0.0005   0.0016   0.0006   0.0009   0.0012   0.19    9.9
2017/07/23 10:35:28.200   2774440.2882   1653823.9691   5481438.3573   1  10   0.0009   0.0005   0.0016   0.0006   0.0009   0.0012   0.19    9.9
2017/07/23 10:35:28.400   2774440.2882   1653823.9691   5481438.3573   1  10   0.0009   0.0005   0.0016   0.0006   0.0009   0.0012   0.19    9.9
2017/07/23 10:35:28.600   2774440.2881   1653823.9691   5481438.3573   1  10   0.0009   0.0005   0.0016   0.0006   0.0009   0.0012   0.19    9.9
2017/07/23 10:35:28.800   2774440.2881   1653823.9691   5481438.3573   1  10   0.0009   0.0005   0.0016   0.0006   0.0008   0.0012   0.19    9.9
2017/07/23 10:35:29.000   2774440.2881   1653823.9691   5481438.3573   1  10   0.0009   0.0005   0.0016   0.0006   0.0008   0.0012   0.19    9.9
2017/07/23 10:35:29.200   2774440.2881   1653823.9691   5481438.3573   1  10   0.0009   0.0005   0.0016   0.0006   0.0008   0.0012   0.19    9.9
2017/07/23 10:35:29.400   2774440.2881   1653823.9691   5481438.3573   1  10   0.0009   0.0005   0.0016   0.0006   0.0008   0.0012   0.19    9.9
2017/07/23 10:35:29.600   2774440.2881   1653823.9691   5481438.3573   1  10   0.0009   0.0005   0.0016   0.0006   0.0008   0.0012   0.19    9.9
2017/07/23 10:35:29.800   2774440.2881   1653823.9691   5481438.3573   1  10   0.0009   0.0005   0.0016   0.0006   0.0008   0.0012   0.19    9.9
2017/07/23 10:35:30.000   2774440.2881   1653823.9691   5481438.3573   1  10   0.0009   0.0005   0.0016   0.0006   0.0008   0.0012   0.19    9.9
2017/07/23 10:35:30.200   2774440.2881   1653823.9691   5481438.3572   1  10   0.0009   0.0005   0.0016   0.0006   0.0008   0.0012   0.19    9.9
2017/07/23 10:35:30.400   2774440.2881   1653823.9691   5481438.3572   1  10   0.0009   0.0005   0.0016   0.0006   0.0008   0.0012   0.19    9.9
2017/07/23 10:35:30.600   2774440.2881   1653823.9691   5481438.3572   1  10   0.0009   0.0005   0.0016   0.0006   0.0008   0.0012   0.19    9.9
2017/07/23 10:35:30.800   2774440.2881   1653823.9691   5481438.3572   1  10   0.0009   0.0005   0.0016   0.0006   0.0008   0.0012   0.19    9.9
2017/07/23 10:35:31.000   2774440.2881   1653823.9691   5481438.3572   1  10   0.0009   0.0005   0.0016   0.0006   0.0008   0.0012   0.19    9.9
2017/07/23 10:35:31.200   2774440.2881   1653823.9691   5481438.3572   1  10   0.0009   0.0005   0.0016   0.0006   0.0008   0.0012   0.19    9.9
2017/07/23 10:35:31.400   2774440.2881   1653823.9691   5481438.3572   1  10   0.0009   0.0005   0.0016   0.0006   0.0008   0.0012   0.19    9.9
2017/07/23 10:35:31.600   2774440.2881   1653823.9691   5481438.3572   1  10   0.0009   0.0005   0.0016   0.0006   0.0008   0.0012   0.19    9.9
2017/07/23 10:35:31.800   2774440.2881   1653823.9691   5481438.3572   1  10   0.0009   0.0005   0.0016   0.0006   0.0008   0.0012   0.19    9.9
2017/07/23 10:35:32.000   2774440.2881   1653823.9691   5481438.3572   1  10   0.0009   0.0005   0.0016   0.0006   0.0008   0.0012   0.19    9.9
2017/07/23 10:35:32.200   2774440.2881   1653823.9691   5481438.3572   1  10   0.0009   0.0005   0.0016   0.0006   0.0008   0.0012   0.19    9.9
2017/07/23 10:35:32.400   2774440.2881   1653823.9691   5481438.3572   1  10   0.0009   0.0005   0.0016   0.0006   0.0008   0.0012   0.19    9.9
2017/07/23 10:35:32.600   2774440.2881   1653823.9691   5481438.3572   1  10   0.0009   0.0005   0.0016   0.0006   0.0008   0.0012   0.19    9.9
2017/07/23 10:35:32.800   2774440.2881   1653823.9691   5481438.3572   1  10   0.0009   0.0005   0.0016   0.0006   0.0008   0.0012   0.19    9.9
2017/07/23 10:35:33.000   2774440.2881   1653823.9691   5481438.3572   1  10   0.0009   0.0005   0.0016   0.0006   0.0008   0.0012   0.19    9.9
2017/07/23 10:35:33.200   2774440.2881   1653823.9691   5481438.3572   1  10   0.0009   0.0005   0.0016   0.0006   0.0008   0.0012   0.19    9.9
2017/07/23 10:35:33.400   2774440.2881   1653823.9691   5481438.3572   1  10   0.0009   0.0005   0.0016   0.0006   0.0008   0.0012   0.19    9.9
2017/07/23 10:35:33.600   2774440.2881   1653823.9691   5481438.3572   1  10   0.0009   0.0005   0.0016   0.0006   0.0008   0.0012   0.19    9.9
2017/07/23 10:35:33.800   2774440.2881   1653823.9691   5481438.3572   1  10   0.0009   0.0005   0.0016   0.0006   0.0008   0.0012   0.19    9.9
2017/07/23 10:35:34.000   2774440.2881   1653823.9691   5481438.3572   1  10   0.0009   0.0005   0.0016   0.0006   0.0008   0.0012   0.19    9.9
2017/07/23 10:35:34.200   2774440.2881   1653823.9691   5481438.3572   1  10   0.0009   0.0005   0.0016   0.0006   0.0008   0.0012   0.19    9.9
2017/07/23 10:35:34.400   2774440.2881   1653823.9691   5481438.3572   1  10   0.0009   0.0005   0.0016   0.0006   0.0008   0.0012   0.19    9.9
2017/07/23 10:35:34.600   2774440.2881   1653823.9691   5481438.3573   1  10   0.0009   0.0005   0.0016   0.0006   0.0008   0.0012   0.19    9.9
2017/07/23 10:35:34.800   2774440.2881   1653823.9691   5481438.3573   1  10   0.0009   0.0005   0.0016   0.0006   0.0008   0.0012   0.19    9.9
2017/07/23 10:35:35.000   2774440.2881   1653823.9691   5481438.3573   1  10   0.0009   0.0005   0.0016   0.0006   0.0008   0.0012   0.19    9.9
2017/07/23 10:35:35.200   2774440.2881   1653823.9691   5481438.3573   1  10   0.0009   0.0005   0.0016   0.0006   0.0008   0.0012   0.19    9.9
2017/07/23 10:35:35.400   2774440.2881   1653823.9691   5481438.3573   1  10   0.0009   0.0005   0.0016   0.0006   0.0008   0.0012   0.19    9.9
2017/07/23 10:35:35.600   2774440.2881   1653823.9691   5481438.3573   1  10   0.0009   0.0005   0.0016   0.0006   0.0008   0.0012   0.19    9.9
2017/07/23 10:35:35.800   2774440.2881   1653823.9691   5481438.3573   1  10   0.0009   0.0005   0.0016   0.0006   0.0008   0.0012   0.19    9.9
2017/07/23 10:35:36.000   2774440.2881   1653823.9691   5481438.3573   1  10   0.0009   0.0005   0.0016   0.0006   0.0008   0.0012   0.19    9.9
2017/07/23 10:35:36.200   2774440.2881   1653823.9691   5481438.3573   1  10   0.0009   0.0005   0.0016   0.0006   0.0008   0.0012   0.19    9.9
2017/07/23 10:35:36.400   2774440.2881   1653823.9691   5481438.3573   1  10   0.0009   0.0005   0.0016   0.0006   0.0008   0.0012   0.19    9.9
2017/07/23 10:35:36.600   2774440.2881   1653823.9691   5481438.3573   1  10   0.0009   0.0005   0.0016   0.0006   0.0008   0.0012   0.19    9.9
2017/07/23 10:35:36.800   2774440.2881   1653823.9691   5481438.3573   1  10   0.0009   0.0005   0.0016   0.0006   0.0008   0.0012   0.19    9.9
2017/07/23 10:35:37.000   2774440.2882   1653823.9691   5481438.3573   1  10   0.0009   0.0005   0.0016   0.0006   0.0008   0.0012   0.19    9.9
2017/07/23 10:35:37.200   2774440.2882   1653823.9691   5481438.3573   1  10   0.0009   0.0005   0.0016   0.0006   0.0008   0.0012   0.19    9.8
2017/07/23 10:35:37.400   2774440.2882   1653823.9691   5481438.3573   1  10   0.0009   0.0005   0.0016   0.0006   0.0008   0.0012   0.19    9.8
2017/07/23 10:35:37.600   2774440.2882   1653823.9691   5481438.3573   1  10   0.0009   0.0005   0.0016   0.0006   0.0008   0.0012   0.19    9.8
2017/07/23 10:35:37.800   2774440.2882   1653823.9691   5481438.3573   1  10   0.0009   0.0005   0.0016   0.0006   0.0008   0.0012   0.19    9.8
2017/07/23 10:35:38.000   2774440.2882   1653823.9691   5481438.3573   1  10   0.0009   0.0005   0.0016   0.0006   0.0008   0.0012   0.19    9.8
2017/07/23 10:35:38.200   2774440.2881   1653823.9691   5481438.3573   1  10   0.0009   0.0005   0.0016   0.0006   0.0008   0.0012   0.19    9.8
2017/07/23 10:35:38.400   2774440.2881   1653823.9691   5481438.3572   1  10   0.0009   0.0005   0.0016   0.0006   0.0008   0.0012   0.19    9.8
2017/07/23 10:35:38.600   2774440.2881   1653823.9690   5481438.3572   1  10   0.0009   0.0005   0.0016   0.0006   0.0008   0.0012   0.19    9.8
2017/07/23 10:35:38.800   2774440.2881   1653823.9690   5481438.3572   1  10   0.0009   0.0005   0.0016   0.0006   0.0008   0.0012   0.19    9.8
2017/07/23 10:35:39.000   2774440.2881   1653823.9690   5481438.3571   1  10   0.0009   0.0005   0.0016   0.0006   0.0008   0.0012   0.19    9.8
2017/07/23 10:35:39.200   2774440.2881   1653823.9690   5481438.3571   1  10   0.0009   0.0005   0.0016   0.0006   0.0008   0.0012   0.19    9.8
2017/07/23 10:35:39.400   2774440.2880   1653823.9690   5481438.3571   1  10   0.0009   0.0005   0.0016   0.0006   0.0008   0.0012   0.19    9.8
2017/07/23 10:35:39.600   2774440.2880   1653823.9690   5481438.3571   1  10   0.0009   0.0005   0.0016   0.0006   0.0008   0.0012   0.19    9.9
2017/07/23 10:35:39.800   2774440.2880   1653823.9690   5481438.3570   1  10   0.0009   0.0005   0.0016   0.0006   0.0008   0.0012   0.19    9.9
2017/07/23 10:35:40.000   2774440.2880   1653823.9690   5481438.3570   1  10   0.0009   0.0005   0.0016   0.0006   0.0008   0.0012   0.19    9.9
2017/07/23 10:35:40.200   2774440.2880   1653823.9690   5481438.3570   1  10   0.0009   0.0005   0.0016   0.0006   0.0008   0.0012   0.19    9.9
2017/07/23 10:35:40.400   2774440.2880   1653823.9689   5481438.3569   1  10   0.0009   0.0005   0.0016   0.0006   0.0008   0.0012   0.19    9.9
2017/07/23 10:35:40.600   2774440.2879   1653823.9689   5481438.3569   1  10   0.0009   0.0005   0.0016   0.0006   0.0008   0.0012   0.19    9.9
2017/07/23 10:35:40.800   2774440.2879   1653823.9689   5481438.3569   1  10   0.0009   0.0005   0.0016   0.0006   0.0008   0.0012   0.19    9.9
2017/07/23 10:35:41.000   2774440.2879   1653823.9689   5481438.3568   1  10   0.0009   0.0005   0.0016   0.0006   0.0008   0.0012   0.19    9.9
2017/07/23 10:35:41.200   2774440.2879   1653823.9689   5481438.3568   1  10   0.0009   0.0005   0.0016   0.0006   0.0008   0.0012   0.19    9.9
2017/07/23 10:35:41.400   2774440.2879   1653823.9689   5481438.3568   1  10   0.0009   0.0005   0.0016   0.0006   0.0008   0.0012   0.19    9.9
2017/07/23 10:35:41.600   2774440.2879   1653823.9689   5481438.3568   1  10   0.0009   0.0005   0.0016   0.0006   0.0008   0.0012   0.19    9.9
2017/07/23 10:35:41.800   2774440.2878   1653823.9689   5481438.3567   1  10   0.0009   0.0005   0.0016   0.0006   0.0008   0.0012   0.19    9.9
2017/07/23 10:35:42.000   2774440.2878   1653823.9688   5481438.3567   1  10   0.0009   0.0005   0.0016   0.0006   0.0008   0.0012   0.19    9.9
2017/07/23 10:35:42.200   2774440.2878   1653823.9688   5481438.3567   1  10   0.0009   0.0005   0.0016   0.0006   0.0008   0.0012   0.19    9.9
2017/07/23 10:35:42.400   2774440.2878   1653823.9688   5481438.3566   1  10   0.0009   0.0005   0.0016   0.0006   0.0008   0.0012   0.19    9.9
2017/07/23 10:35:42.600   2774440.2878   1653823.9688   5481438.3566   1  10   0.0009   0.0005   0.0016   0.0006   0.0008   0.0012   0.19    9.9
2017/07/23 10:35:42.800   2774440.2878   1653823.9688   5481438.3566   1  10   0.0009   0.0005   0.0016   0.0006   0.0008   0.0012   0.19    9.9
2017/07/23 10:35:43.000   2774440.2877   1653823.9688   5481438.3565   1  10   0.0009   0.0005   0.0016   0.0006   0.0008   0.0012   0.19    9.9
2017/07/23 10:35:43.200   2774440.2877   1653823.9688   5481438.3565   1  10   0.0009   0.0005   0.0016   0.0006   0.0008   0.0012   0.19   10.0
2017/07/23 10:35:43.400   2774440.2877   1653823.9688   5481438.3565   1  10   0.0009   0.0005   0.0016   0.0006   0.0008   0.0012   0.19   10.0
2017/07/23 10:35:43.600   2774440.2877   1653823.9688   5481438.3564   1  10   0.0009   0.0005   0.0016   0.0006   0.0008   0.0012   0.19   10.0
2017/07/23 10:35:43.800   2774440.2877   1653823.9687   5481438.3564   1  10   0.0009   0.0005   0.0016   0.0006   0.0008   0.0012   0.19   10.0
2017/07/23 10:35:44.000   2774440.2877   1653823.9687   5481438.3564   1  10   0.0009   0.0005   0.0016   0.0006   0.0008   0.0012   0.19   10.0
2017/07/23 10:35:44.200   2774440.2876   1653823.9687   5481438.3564   1  10   0.0009   0.0005   0.0016   0.0006   0.0008   0.0012   0.19   10.0
2017/07/23 10:35:44.400   2774440.2876   1653823.9687   5481438.3563   1  10   0.0009   0.0005   0.0016   0.0006   0.0008   0.0012   0.19   10.0
2017/07/23 10:35:44.600   2774440.2876   1653823.9687   5481438.3563   1  10   0.0009   0.0005   0.0016   0.0006   0.0008   0.0012   0.19   10.0
2017/07/23 10:35:44.800   2774440.2876   1653823.9687   5481438.3563   1  10   0.0009   0.0005   0.0016   0.0006   0.0008   0.0012   0.19   10.0
2017/07/23 10:35:45.000   2774440.2876   1653823.9687   5481438.3563   1  10   0.0009   0.0005   0.0016   0.0006   0.0008   0.0012   0.19   10.0
2017/07/23 10:35:45.200   2774440.2876   1653823.9687   5481438.3562   1  10   0.0009   0.0005   0.0016   0.0006   0.0008   0.0012   0.19   10.0
2017/07/23 10:35:45.400   2774440.2876   1653823.9687   5481438.3562   1  10   0.0009   0.0005   0.0016   0.0006   0.0008   0.0012   0.19   10.0
2017/07/23 10:35:45.600   2774440.2876   1653823.9687   5481438.3562   1  10   0.0009   0.0005   0.0016   0.0006   0.0008   0.0012   0.19   10.0
2017/07/23 10:35:45.800   2774440.2875   1653823.9687   5481438.3561   1  10   0.0009   0.0005   0.0016   0.0006   0.0008   0.0012   0.19   10.0
2017/07/23 10:35:46.000   2774440.2875   1653823.9686   5481438.3561   1  10   0.0009   0.0005   0.0016   0.0006   0.0008   0.0012   0.19   10.0
2017/07/23 10:35:46.200   2774440.2875   1653823.9686   5481438.3561   1  10   0.0009   0.0005   0.0016   0.0006   0.0008   0.0012   0.19   10.0
2017/07/23 10:35:46.400   2774440.2875   1653823.9686   5481438.3561   1  10   0.0009   0.0005   0.0016   0.0006   0.0008   0.0012   0.19   10.0
2017/07/23 10:35:46.600   2774440.2875   1653823.9686   5481438.3560   1  10   0.0009   0.0005   0.0016   0.0006   0.0008   0.0012   0.19   10.0
2017/07/23 10:35:46.800   2774440.2875   1653823.9686   5481438.3560   1  10   0.0009   0.0005   0.0016   0.0006   0.0008   0.0012   0.19   10.0
2017/07/23 10:35:47.000   2774440.2875   1653823.9686   5481438.3560   1  10   0.0009   0.0005   0.0016   0.0006   0.0008   0.0012   0.19   10.1
2017/07/23 10:35:47.200   2774440.2874   1653823.9686   5481438.3560   1  10   0.0009   0.0005   0.0016   0.0006   0.0008   0.0012   0.19   10.1
2017/07/23 10:35:47.400   2774440.2874   1653823.9686   5481438.3559   1  10   0.0009   0.0005   0.0016   0.0006   0.0008   0.0012   0.19   10.1
2017/07/23 10:35:47.600   2774440.2874   1653823.9686   5481438.3559   1  10   0.0009   0.0005   0.0016   0.0006   0.0008   0.0012   0.19   10.1
2017/07/23 10:35:47.800   2774440.2874   1653823.9686   5481438.3559   1  10   0.0009   0.0005   0.0016   0.0006   0.0008   0.0012   0.19   10.1
2017/07/23 10:35:48.000   2774440.2874   1653823.9685   5481438.3558   1  10   0.0009   0.0005   0.0016   0.0006   0.0008   0.0012   0.19   10.1
2017/07/23 10:35:48.200   2774440.2874   1653823.9685   5481438.3558   1  10   0.0009   0.0005   0.0016   0.0006   0.0008   0.0012   0.19   10.1
2017/07/23 10:35:48.400   2774440.2874   1653823.9685   5481438.3558   1  10   0.0009   0.0005   0.0016   0.0006   0.0008   0.0012   0.19   10.1
2017/07/23 10:35:48.600   2774440.2873   1653823.9685   5481438.3557   1  10   0.0009   0.0005   0.0016   0.0006   0.0008   0.0012   0.19   10.1
2017/07/23 10:35:48.800   2774440.2873   1653823.9685   5481438.3557   1  10   0.0009   0.0005   0.0016   0.0006   0.0008   0.0012   0.19   10.1
2017/07/23 10:35:49.000   2774440.2873   1653823.9685   5481438.3557   1  10   0.0009   0.0005   0.0016   0.0006   0.0008   0.0012   0.19   10.1
2017/07/23 10:35:49.200   2774440.2873   1653823.9685   5481438.3557   1  10   0.0009   0.0005   0.0016   0.0006   0.0008   0.0012   0.19   10.1
2017/07/23 10:35:49.400   2774440.2873   1653823.9685   5481438.3556   1  10   0.0009   0.0005   0.0016   0.0006   0.0008   0.0012   0.19   10.1
2017/07/23 10:35:49.600   2774440.2873   1653823.9685   5481438.3556   1  10   0.0009   0.0005   0.0016   0.0006   0.0008   0.0012   0.19   10.1
2017/07/23 10:35:49.800   2774440.2873   1653823.9684   5481438.3556   1  10   0.0009   0.0005   0.0016   0.0006   0.0008   0.0012   0.19   10.1
2017/07/23 10:35:50.000   2774440.2872   1653823.9684   5481438.3555   1  10   0.0009   0.0005   0.0016   0.0006   0.0008   0.0012   0.19   10.1
2017/07/23 10:35:50.200   2774440.2872   1653823.9684   5481438.3555   1  10   0.0009   0.0005   0.0016   0.0006   0.0008   0.0012   0.19   10.1
2017/07/23 10:35:50.400   2774440.2872   1653823.9684   5481438.3555   1  10   0.0009   0.0005   0.0016   0.0006   0.0008   0.0012   0.19   10.1
2017/07/23 10:35:50.600   2774440.2872   1653823.9684   5481438.3554   1  10   0.0009   0.0005   0.0016   0.0006   0.0008   0.0012   0.19   10.1
2017/07/23 10:35:50.800   2774440.2872   1653823.9684   5481438.3554   1  10   0.0009   0.0005   0.0016   0.0006   0.0008   0.0012   0.19   10.1
2017/07/23 10:35:51.000   2774440.2872   1653823.9684   5481438.3554   1  10   0.0009   0.0005   0.0016   0.0006   0.0008   0.0012   0.19   10.1
2017/07/23 10:35:51.200   2774440.2871   1653823.9684   5481438.3553   1  10   0.0009   0.0005   0.0016   0.0006   0.0008   0.0012   0.19   10.1
2017/07/23 10:35:51.400   2774440.2871   1653823.9684   5481438.3553   1  10   0.0009   0.0005   0.0016   0.0006   0.0008   0.0012   0.19   10.1
2017/07/23 10:35:51.600   2774440.2871   1653823.9684   5481438.3553   1  10   0.0009   0.0005   0.0016   0.0006   0.0008   0.0012   0.19   10.2
2017/07/23 10:35:51.800   2774440.2871   1653823.9683   5481438.3552   1  10   0.0009   0.0005   0.0016   0.0006   0.0008   0.0012   0.19   10.2
2017/07/23 10:35:52.000   2774440.2871   1653823.9683   5481438.3552   1  10   0.0009   0.0005   0.0016   0.0006   0.0008   0.0012   0.19   10.2
2017/07/23 10:35:52.200   2774440.2871   1653823.9683   5481438.3552   1  10   0.0009   0.0005   0.0016   0.0006   0.0008   0.0012   0.19   10.2
2017/07/23 10:35:52.400   2774440.2870   1653823.9683   5481438.3551   1  10   0.0009   0.0005   0.0016   0.0006   0.0008   0.0012   0.19   10.2
2017/07/23 10:35:52.600   2774440.2870   1653823.9683   5481438.3551   1  10   0.0009   0.0005   0.0016   0.0006   0.0008   0.0012   0.19   10.2
2017/07/23 10:35:52.800   2774440.2870   1653823.9683   5481438.3551   1  10   0.0009   0.0005   0.0016   0.0006   0.0008   0.0012   0.19   10.2
2017/07/23 10:35:53.000   2774440.2870   1653823.9683   5481438.3550   1  10   0.0009   0.0005   0.0016   0.0006   0.0008   0.0012   0.19   10.2
2017/07/23 10:35:53.200   2774440.2870   1653823.9683   5481438.3550   1  10   0.0009   0.0005   0.0016   0.0006   0.0008   0.0012   0.19   10.2
2017/07/23 10:35:53.400   2774440.2869   1653823.9682   5481438.3550   1  10   0.0009   0.0005   0.0016   0.0006   0.0008   0.0012   0.19   10.2
2017/07/23 10:35:53.600   2774440.2869   1653823.9682   5481438.3549   1  10   0.0009   0.0005   0.0016   0.0006   0.0008   0.0012   0.19   10.2
2017/07/23 10:35:53.800   2774440.2869   1653823.9682   5481438.3549   1  10   0.0009   0.0005   0.0016   0.0006   0.0008   0.0012   0.19   10.2
2017/07/23 10:35:54.000   2774440.2869   1653823.9682   5481438.3549   1  10   0.0009   0.0005   0.0016   0.0006   0.0008   0.0012   0.19   10.2
2017/07/23 10:35:54.200   2774440.2869   1653823.9682   5481438.3548   1  10   0.0009   0.0005   0.0016   0.0006   0.0008   0.0012   0.19   10.2
2017/07/23 10:35:54.400   2774440.2868   1653823.9682   5481438.3548   1  10   0.0009   0.0005   0.0016   0.0006   0.0008   0.0012   0.19   10.2
2017/07/23 10:35:54.600   2774440.2868   1653823.9682   5481438.3547   1  10   0.0009   0.0005   0.0016   0.0006   0.0008   0.0012   0.19   10.2
2017/07/23 10:35:54.800   2774440.2868   1653823.9681   5481438.3547   1  10   0.0009   0.0005   0.0016   0.0006   0.0008   0.0012   0.19   10.2
2017/07/23 10:35:55.000   2774440.2868   1653823.9681   5481438.3546   1  10   0.0009   0.0005   0.0016   0.0006   0.0008   0.0012   0.19   10.2
2017/07/23 10:35:55.200   2774440.2868   1653823.9681   5481438.3546   1  10   0.0009   0.0005   0.0016   0.0006   0.0008   0.0012   0.19   10.2
2017/07/23 10:35:55.400   2774440.2867   1653823.9681   5481438.3546   1  10   0.0009   0.0005   0.0016   0.0006   0.0008   0.0012   0.19   10.2
2017/07/23 10:35:55.600   2774440.2867   1653823.9681   5481438.3545   1  10   0.0009   0.0005   0.0016   0.0006   0.0008   0.0012   0.19   10.2
2017/07/23 10:35:55.800   2774440.2867   1653823.9681   5481438.3545   1  10   0.0009   0.0005   0.0016   0.0006   0.0008   0.0012   0.19   10.2
2017/07/23 10:35:56.000   2774440.2867   1653823.9681   5481438.3545   1  10   0.0009   0.0005   0.0016   0.0006   0.0008   0.0012   0.19   10.2
2017/07/23 10:35:56.200   2774440.2866   1653823.9680   5481438.3544   1  10   0.0009   0.0005   0.0016   0.0006   0.0008   0.0012   0.19   10.2
2017/07/23 10:35:56.400   2774440.2866   1653823.9680   5481438.3544   1  10   0.0009   0.0005   0.0016   0.0006   0.0008   0.0012   0.19   10.2
2017/07/23 10:35:56.600   2774440.2866   1653823.9680   5481438.3544   1  10   0.0009   0.0005   0.0016   0.0006   0.0008   0.0012   0.19   10.2
2017/07/23 10:35:56.800   2774440.2866   1653823.9680   5481438.3543   1  10   0.0009   0.0005   0.0016   0.0006   0.0008   0.0012   0.19   10.2
2017/07/23 10:35:57.000   2774440.2866   1653823.9680   5481438.3543   1  10   0.0009   0.0005   0.0016   0.0006   0.0008   0.0012   0.19   10.2
2017/07/23 10:35:57.200   2774440.2865   1653823.9680   5481438.3542   1  10   0.0009   0.0005   0.0016   0.0006   0.0008   0.0012   0.19   10.2
2017/07/23 10:35:57.400   2774440.2865   1653823.9680   5481438.3542   1  10   0.0009   0.0005   0.0016   0.0006   0.0008   0.0012   0.19   10.2
2017/07/23 10:35:57.600   2774440.2865   1653823.9679   5481438.3541   1  10   0.0009   0.0005   0.0016   0.0006   0.0008   0.0012   0.19   10.2
2017/07/23 10:35:57.800   2774440.2865   1653823.9679   5481438.3541   1  10   0.0009   0.0005   0.0016   0.0006   0.0008   0.0012   0.19   10.2
2017/07/23 10:35:58.000   2774440.2864   1653823.9679   5481438.3540   1  10   0.0009   0.0005   0.0016   0.0006   0.0008   0.0012   0.19   10.2
2017/07/23 10:35:58.200   2774440.2864   1653823.9679   5481438.3540   1  10   0.0009   0.0005   0.0016   0.0006   0.0008   0.0012   0.19   10.3
2017/07/23 10:35:58.400   2774440.2864   1653823.9679   5481438.3540   1  10   0.0009   0.0005   0.0016   0.0006   0.0008   0.0012   0.19   10.3
2017/07/23 10:35:58.600   2774440.2864   1653823.9679   5481438.3539   1  10   0.0009   0.0005   0.0016   0.0006   0.0008   0.0012   0.19   10.3
2017/07/23 10:35:58.800   2774440.2864   1653823.9679   5481438.3539   1  10   0.0009   0.0005   0.0016   0.0006   0.0008   0.0012   0.19   10.3
2017/07/23 10:35:59.000   2774440.2863   1653823.9678   5481438.3538   1  10   0.0009   0.0005   0.0016   0.0006   0.0008   0.0012   0.19   10.3
2017/07/23 10:35:59.200   2774440.2863   1653823.9678   5481438.3538   1  10   0.0009   0.0005   0.0016   0.0006   0.0008   0.0012   0.19   10.3
2017/07/23 10:35:59.400   2774440.2863   1653823.9678   5481438.3537   1  10   0.0009   0.0005   0.0016   0.0006   0.0008   0.0012   0.19   10.3
2017/07/23 10:35:59.600   2774440.2863   1653823.9678   5481438.3537   1  10   0.0009   0.0005   0.0016   0.0006   0.0008   0.0012   0.19   10.3
2017/07/23 10:35:59.800   2774440.2863   1653823.9678   5481438.3537   1  10   0.0009   0.0005   0.0016   0.0006   0.0008   0.0012   0.19   10.3
2017/07/23 10:36:00.000   2774440.2862   1653823.9678   5481438.3536   1  10   0.0009   0.0005   0.0016   0.0006   0.0008   0.0012   0.19   10.3
2017/07/23 10:36:00.200   2774440.2862   1653823.9678   5481438.3536   1  10   0.0009   0.0005   0.0016   0.0006   0.0008   0.0012   0.19   10.3
2017/07/23 10:36:00.400   2774440.2862   1653823.9677   5481438.3535   1  10   0.0009   0.0005   0.0016   0.0006   0.0008   0.0012   0.19   10.3
2017/07/23 10:36:00.600   2774440.2862   1653823.9677   5481438.3535   1  10   0.0009   0.0005   0.0016   0.0006   0.0008   0.0012   0.19   10.3
2017/07/23 10:36:00.800   2774440.2862   1653823.9677   5481438.3535   1  10   0.0009   0.0005   0.0016   0.0006   0.0008   0.0012   0.19   10.3
2017/07/23 10:36:01.000   2774440.2861   1653823.9677   5481438.3534   1  10   0.0009   0.0005   0.0016   0.0006   0.0008   0.0012   0.19   10.3
2017/07/23 10:36:01.200   2774440.2861   1653823.9677   5481438.3534   1  10   0.0009   0.0005   0.0016   0.0006   0.0008   0.0012   0.19   10.3
2017/07/23 10:36:01.400   2774440.2861   1653823.9677   5481438.3533   1  10   0.0009   0.0005   0.0016   0.0006   0.0008   0.0012   0.19   10.4
2017/07/23 10:36:01.600   2774440.2861   1653823.9677   5481438.3533   1  10   0.0009   0.0005   0.0016   0.0006   0.0008   0.0012   0.19   10.4
2017/07/23 10:36:01.800   2774440.2861   1653823.9676   5481438.3532   1  10   0.0009   0.0005   0.0016   0.0006   0.0008   0.0012   0.19   10.4
2017/07/23 10:36:02.000   2774440.2860   1653823.9676   5481438.3532   1  10   0.0009   0.0005   0.0016   0.0006   0.0008   0.0012   0.19   10.4
2017/07/23 10:36:02.200   2774440.2860   1653823.9676   5481438.3532   1  10   0.0009   0.0005   0.0016   0.0006   0.0008   0.0012   0.19   10.4
2017/07/23 10:36:02.400   2774440.2860   1653823.9676   5481438.3531   1  10   0.0009   0.0005   0.0016   0.0006   0.0008   0.0012   0.19   10.4
2017/07/23 10:36:02.600   2774440.2860   1653823.9676   5481438.3531   1  10   0.0009   0.0005   0.0016   0.0006   0.0008   0.0012   0.19   10.4
2017/07/23 10:36:02.800   2774440.2860   1653823.9676   5481438.3531   1  10   0.0009   0.0005   0.0016   0.0006   0.0008   0.0012   0.19   10.4
2017/07/23 10:36:03.000   2774440.2859   1653823.9676   5481438.3530   1  10   0.0009   0.0005   0.0016   0.0006   0.0008   0.0012   0.19   10.4
2017/07/23 10:36:03.200   2774440.2859   1653823.9676   5481438.3530   1  10   0.0009   0.0005   0.0016   0.0006   0.0008   0.0012   0.19   10.4
2017/07/23 10:36:03.400   2774440.2859   1653823.9675   5481438.3530   1  10   0.0009   0.0005   0.0016   0.0006   0.0008   0.0012   0.19   10.4
2017/07/23 10:36:03.600   2774440.2859   1653823.9675   5481438.3529   1  10   0.0009   0.0005   0.0016   0.0006   0.0008   0.0012   0.19   10.4
2017/07/23 10:36:03.800   2774440.2859   1653823.9675   5481438.3529   1  10   0.0009   0.0005   0.0016   0.0006   0.0008   0.0012   0.19   10.4
2017/07/23 10:36:04.000   2774440.2858   1653823.9675   5481438.3528   1  10   0.0009   0.0005   0.0016   0.0006   0.0008   0.0012   0.19   10.4
2017/07/23 10:36:04.200   2774440.2858   1653823.9675   5481438.3528   1  10   0.0009   0.0005   0.0016   0.0006   0.0008   0.0012   0.19   10.4
2017/07/23 10:36:04.400   2774440.2858   1653823.9675   5481438.3528   1  10   0.0009   0.0005   0.0016   0.0006   0.0008   0.0012   0.19   10.4
2017/07/23 10:36:04.600   2774440.2858   1653823.9675   5481438.3527   1  10   0.0009   0.0005   0.0016   0.0006   0.0008   0.0012   0.19   10.4
2017/07/23 10:36:04.800   2774440.2858   1653823.9675   5481438.3527   1  10   0.0009   0.0005   0.0016   0.0006   0.0008   0.0012   0.19   10.4
2017/07/23 10:36:05.000   2774440.2857   1653823.9674   5481438.3527   1  10   0.0009   0.0005   0.0016   0.0006   0.0008   0.0012   0.19   10.4
2017/07/23 10:36:05.200   2774440.2857   1653823.9674   5481438.3526   1  10   0.0009   0.0005   0.0016   0.0006   0.0008   0.0012   0.19   10.4
2017/07/23 10:36:05.400   2774440.2857   1653823.9674   5481438.3526   1  10   0.0009   0.0005   0.0016   0.0006   0.0008   0.0012   0.19   10.4
2017/07/23 10:36:05.600   2774440.2857   1653823.9674   5481438.3525   1  10   0.0009   0.0005   0.0016   0.0006   0.0008   0.0012   0.19   10.4
2017/07/23 10:36:05.800   2774440.2857   1653823.9674   5481438.3525   1  10   0.0009   0.0005   0.0016   0.0006   0.0008   0.0012   0.19   10.4
2017/07/23 10:36:06.000   2774440.2856   1653823.9674   5481438.3525   1  10   0.0009   0.0005   0.0016   0.0006   0.0008   0.0012   0.19   10.4
2017/07/23 10:36:06.200   2774440.2856   1653823.9674   5481438.3524   1  10   0.0009   0.0005   0.0016   0.0006   0.0008   0.0012   0.19   10.5
2017/07/23 10:36:06.400   2774440.2856   1653823.9674   5481438.3524   1  10   0.0009   0.0005   0.0016   0.0006   0.0008   0.0012   0.19   10.5
2017/07/23 10:36:06.600   2774440.2856   1653823.9673   5481438.3524   1  10   0.0009   0.0005   0.0016   0.0006   0.0008   0.0012   0.19   10.5
2017/07/23 10:36:06.800   2774440.2856   1653823.9673   5481438.3523   1  10   0.0009   0.0005   0.0016   0.0006   0.0008   0.0012   0.19   10.5
2017/07/23 10:36:07.000   2774440.2856   1653823.9673   5481438.3523   1  10   0.0009   0.0005   0.0016   0.0006   0.0008   0.0012   0.19   10.5
2017/07/23 10:36:07.200   2774440.2856   1653823.9673   5481438.3523   1  10   0.0009   0.0005   0.0016   0.0006   0.0008   0.0012   0.19   10.5
2017/07/23 10:36:07.400   2774440.2855   1653823.9673   5481438.3522   1  10   0.0009   0.0005   0.0016   0.0006   0.0008   0.0012   0.19   10.5
2017/07/23 10:36:07.600   2774440.2855   1653823.9673   5481438.3522   1  10   0.0009   0.0005   0.0016   0.0006   0.0008   0.0012   0.19   10.5
2017/07/23 10:36:07.800   2774440.2855   1653823.9673   5481438.3522   1  10   0.0009   0.0005   0.0016   0.0006   0.0008   0.0012   0.19   10.5
2017/07/23 10:36:08.000   2774440.2855   1653823.9673   5481438.3522   1  10   0.0009   0.0005   0.0016   0.0006   0.0008   0.0012   0.19   10.5
2017/07/23 10:36:08.200   2774440.2855   1653823.9673   5481438.3521   1  10   0.0009   0.0005   0.0016   0.0006   0.0008   0.0012   0.19   10.5
2017/07/23 10:36:08.400   2774440.2855   1653823.9672   5481438.3521   1  10   0.0009   0.0005   0.0016   0.0006   0.0008   0.0012   0.19   10.5
2017/07/23 10:36:08.600   2774440.2854   1653823.9672   5481438.3521   1  10   0.0009   0.0005   0.0016   0.0006   0.0008   0.0012   0.19   10.5
2017/07/23 10:36:08.800   2774440.2854   1653823.9672   5481438.3520   1  10   0.0009   0.0005   0.0016   0.0006   0.0008   0.0012   0.19   10.5
2017/07/23 10:36:09.000   2774440.2854   1653823.9672   5481438.3520   1  10   0.0009   0.0005   0.0016   0.0006   0.0008   0.0012   0.19   10.5
2017/07/23 10:36:09.200   2774440.2854   1653823.9672   5481438.3520   1  10   0.0009   0.0005   0.0016   0.0006   0.0008   0.0012   0.19   10.5
2017/07/23 10:36:09.400   2774440.2854   1653823.9672   5481438.3520   1  10   0.0009   0.0005   0.0016   0.0006   0.0008   0.0012   0.19   10.5
2017/07/23 10:36:09.600   2774440.2854   1653823.9672   5481438.3519   1  10   0.0009   0.0005   0.0016   0.0006   0.0008   0.0012   0.19   10.5
2017/07/23 10:36:09.800   2774440.2854   1653823.9672   5481438.3519   1  10   0.0009   0.0005   0.0016   0.0006   0.0008   0.0012   0.19   10.5
2017/07/23 10:36:10.000   2774440.2854   1653823.9672   5481438.3519   1  10   0.0009   0.0005   0.0016   0.0006   0.0008   0.0012   0.19   10.5
2017/07/23 10:36:10.200   2774440.2853   1653823.9672   5481438.3519   1  10   0.0009   0.0005   0.0016   0.0006   0.0008   0.0012   0.19   10.5
2017/07/23 10:36:10.400   2774440.2853   1653823.9671   5481438.3518   1  10   0.0009   0.0005   0.0016   0.0006   0.0008   0.0012   0.19   10.5
2017/07/23 10:36:10.600   2774440.2853   1653823.9671   5481438.3518   1  10   0.0009   0.0005   0.0016   0.0006   0.0008   0.0012   0.19   10.5
2017/07/23 10:36:10.800   2774440.2853   1653823.9671   5481438.3518   1  10   0.0009   0.0005   0.0016   0.0006   0.0008   0.0012   0.19   10.5
2017/07/23 10:36:11.000   2774440.2853   1653823.9671   5481438.3518   1  10   0.0009   0.0005   0.0016   0.0006   0.0008   0.0012   0.19   10.6
2017/07/23 10:36:11.200   2774440.2853   1653823.9671   5481438.3517   1  10   0.0009   0.0005   0.0016   0.0006   0.0008   0.0012   0.19   10.6
2017/07/23 10:36:11.400   2774440.2853   1653823.9671   5481438.3517   1  10   0.0009   0.0005   0.0016   0.0006   0.0008   0.0012   0.19   10.6
2017/07/23 10:36:11.600   2774440.2853   1653823.9671   5481438.3517   1  10   0.0009   0.0005   0.0016   0.0006   0.0008   0.0012   0.19   10.6
2017/07/23 10:36:11.800   2774440.2852   1653823.9671   5481438.3517   1  10   0.0009   0.0005   0.0016   0.0006   0.0008   0.0012   0.19   10.6
2017/07/23 10:36:12.000   2774440.2852   1653823.9671   5481438.3516   1  10   0.0009   0.0005   0.0016   0.0006   0.0008   0.0012   0.19   10.6
2017/07/23 10:36:12.200   2774440.2852   1653823.9671   5481438.3516   1  10   0.0009   0.0005   0.0016   0.0006   0.0008   0.0012   0.19   10.6
2017/07/23 10:36:12.400   2774440.2852   1653823.9671   5481438.3516   1  10   0.0009   0.0005   0.0016   0.0006   0.0008   0.0012   0.19   10.6
2017/07/23 10:36:12.600   2774440.2852   1653823.9671   5481438.3516   1  10   0.0009   0.0005   0.0016   0.0006   0.0008   0.0012   0.19   10.6
2017/07/23 10:36:12.800   2774440.2852   1653823.9670   5481438.3515   1  10   0.0009   0.0005   0.0016   0.0006   0.0008   0.0012   0.19   10.6
2017/07/23 10:36:13.000   2774440.2852   1653823.9670   5481438.3515   1  10   0.0009   0.0005   0.0016   0.0006   0.0008   0.0012   0.19   10.6
2017/07/23 10:36:13.200   2774440.2852   1653823.9670   5481438.3515   1  10   0.0009   0.0005   0.0016   0.0006   0.0008   0.0012   0.19   10.6
2017/07/23 10:36:13.400   2774440.2852   1653823.9670   5481438.3515   1  10   0.0009   0.0005   0.0016   0.0006   0.0008   0.0012   0.19   10.6
2017/07/23 10:36:13.600   2774440.2852   1653823.9670   5481438.3515   1  10   0.0009   0.0005   0.0016   0.0006   0.0008   0.0012   0.19   10.6
2017/07/23 10:36:13.800   2774440.2852   1653823.9670   5481438.3515   1  10   0.0009   0.0005   0.0016   0.0006   0.0008   0.0012   0.19   10.6
2017/07/23 10:36:14.000   2774440.2851   1653823.9670   5481438.3514   1  10   0.0009   0.0005   0.0016   0.0006   0.0008   0.0012   0.19   10.6
2017/07/23 10:36:14.200   2774440.2851   1653823.9670   5481438.3514   1  10   0.0009   0.0005   0.0016   0.0006   0.0008   0.0012   0.19   10.6
2017/07/23 10:36:14.400   2774440.2851   1653823.9670   5481438.3514   1  10   0.0009   0.0005   0.0016   0.0006   0.0008   0.0012   0.19   10.6
2017/07/23 10:36:14.600   2774440.2851   1653823.9670   5481438.3514   1  10   0.0009   0.0005   0.0016   0.0006   0.0008   0.0012   0.19   10.6
2017/07/23 10:36:14.800   2774440.2851   1653823.9670   5481438.3514   1  10   0.0009   0.0005   0.0016   0.0006   0.0008   0.0012   0.19   10.6
2017/07/23 10:36:15.000   2774440.2851   1653823.9670   5481438.3513   1  10   0.0009   0.0005   0.0016   0.0006   0.0008   0.0012   0.19   10.6
2017/07/23 10:36:15.200   2774440.2851   1653823.9670   5481438.3513   1  10   0.0009   0.0005   0.0016   0.0006   0.0008   0.0012   0.19   10.6
2017/07/23 10:36:15.400   2774440.2851   1653823.9669   5481438.3513   1  10   0.0009   0.0005   0.0016   0.0006   0.0008   0.0012   0.19   10.6
2017/07/23 10:36:15.600   2774440.2851   1653823.9669   5481438.3513   1  10   0.0009   0.0005   0.0016   0.0006   0.0008   0.0012   0.19   10.7
2017/07/23 10:36:15.800   2774440.2851   1653823.9669   5481438.3513   1  10   0.0009   0.0005   0.0016   0.0006   0.0008   0.0012   0.19   10.7
2017/07/23 10:36:16.000   2774440.2851   1653823.9669   5481438.3513   1  10   0.0009   0.0005   0.0016   0.0006   0.0008   0.0012   0.19   10.7
2017/07/23 10:36:16.200   2774440.2851   1653823.9669   5481438.3512   1  10   0.0009   0.0005   0.0016   0.0006   0.0008   0.0012   0.19   10.7
2017/07/23 10:36:16.400   2774440.2851   1653823.9669   5481438.3512   1  10   0.0009   0.0005   0.0016   0.0006   0.0008   0.0012   0.19   10.7
2017/07/23 10:36:16.600   2774440.2851   1653823.9669   5481438.3512   1  10   0.0009   0.0005   0.0016   0.0006   0.0008   0.0012   0.19   10.7
2017/07/23 10:36:16.800   2774440.2850   1653823.9669   5481438.3512   1  10   0.0009   0.0005   0.0016   0.0006   0.0008   0.0012   0.19   10.7
2017/07/23 10:36:17.000   2774440.2850   1653823.9669   5481438.3512   1  10   0.0009   0.0005   0.0016   0.0006   0.0008   0.0012   0.19   10.7
2017/07/23 10:36:17.200   2774440.2850   1653823.9669   5481438.3512   1  10   0.0009   0.0005   0.0016   0.0006   0.0008   0.0012   0.19   10.7
2017/07/23 10:36:17.400   2774440.2850   1653823.9669   5481438.3511   1  10   0.0009   0.0005   0.0016   0.0006   0.0008   0.0012   0.19   10.8
2017/07/23 10:36:17.600   2774440.2850   1653823.9669   5481438.3511   1  10   0.0009   0.0005   0.0016   0.0006   0.0008   0.0012   0.19   10.8
2017/07/23 10:36:17.800   2774440.2850   1653823.9669   5481438.3511   1  10   0.0009   0.0005   0.0016   0.0006   0.0008   0.0012   0.19   10.8
2017/07/23 10:36:18.000   2774440.2850   1653823.9669   5481438.3511   1  10   0.0009   0.0005   0.0016   0.0006   0.0008   0.0012   0.19   10.8
2017/07/23 10:36:18.200   2774440.2850   1653823.9668   5481438.3511   1  10   0.0009   0.0005   0.0016   0.0006   0.0008   0.0012   0.19   10.8
2017/07/23 10:36:18.400   2774440.2850   1653823.9668   5481438.3510   1  10   0.0009   0.0005   0.0016   0.0006   0.0008   0.0012   0.19   10.8
2017/07/23 10:36:18.600   2774440.2850   1653823.9668   5481438.3510   1  10   0.0009   0.0005   0.0016   0.0006   0.0008   0.0012   0.19   10.8
2017/07/23 10:36:18.800   2774440.2850   1653823.9668   5481438.3510   1  10   0.0009   0.0005   0.0016   0.0006   0.0008   0.0012   0.19   10.8
2017/07/23 10:36:19.000   2774440.2849   1653823.9668   5481438.3510   1  10   0.0009   0.0005   0.0016   0.0006   0.0008   0.0012   0.19   10.8
2017/07/23 10:36:19.200   2774440.2849   1653823.9668   5481438.3509   1  10   0.0009   0.0005   0.0016   0.0006   0.0008   0.0012   0.19   10.8
2017/07/23 10:36:19.400   2774440.2849   1653823.9668   5481438.3509   1  10   0.0009   0.0005   0.0016   0.0006   0.0008   0.0012   0.19   10.8
2017/07/23 10:36:19.600   2774440.2849   1653823.9668   5481438.3509   1  10   0.0009   0.0005   0.0016   0.0006   0.0008   0.0012   0.19   10.9
2017/07/23 10:36:19.800   2774440.2849   1653823.9668   5481438.3509   1  10   0.0009   0.0005   0.0016   0.0006   0.0008   0.0012   0.19   10.9
2017/07/23 10:36:20.000   2774440.2849   1653823.9668   5481438.3509   1  10   0.0009   0.0005   0.0016   0.0006   0.0008   0.0012   0.19   10.9
2017/07/23 10:36:20.200   2774440.2849   1653823.9667   5481438.3508   1  10   0.0009   0.0005   0.0016   0.0006   0.0008   0.0012   0.19   10.9
2017/07/23 10:36:20.400   2774440.2849   1653823.9667   5481438.3508   1  10   0.0009   0.0005   0.0016   0.0006   0.0008   0.0012   0.19   10.9
2017/07/23 10:36:20.600   2774440.2849   1653823.9667   5481438.3508   1  10   0.0009   0.0005   0.0016   0.0006   0.0008   0.0012   0.19   10.9
2017/07/23 10:36:20.800   2774440.2849   1653823.9667   5481438.3508   1  10   0.0009   0.0005   0.0016   0.0006   0.0008   0.0012   0.19   10.9
2017/07/23 10:36:21.000   2774440.2849   1653823.9667   5481438.3508   1  10   0.0009   0.0005   0.0016   0.0006   0.0008   0.0012   0.19   10.9
2017/07/23 10:36:21.200   2774440.2849   1653823.9667   5481438.3507   1  10   0.0009   0.0005   0.0016   0.0006   0.0008   0.0012   0.19   10.9
2017/07/23 10:36:21.400   2774440.2848   1653823.9667   5481438.3507   1  10   0.0009   0.0005   0.0016   0.0006   0.0008   0.0012   0.19   10.9
2017/07/23 10:36:21.600   2774440.2848   1653823.9667   5481438.3507   1  10   0.0009   0.0005   0.0016   0.0006   0.0008   0.0012   0.19   10.9
2017/07/23 10:36:21.800   2774440.2848   1653823.9667   5481438.3507   1  10   0.0009   0.0005   0.0016   0.0006   0.0008   0.0012   0.19   10.9
2017/07/23 10:36:22.000   2774440.2848   1653823.9667   5481438.3507   1  10   0.0009   0.0005   0.0016   0.0006   0.0008   0.0012   0.19   11.0
2017/07/23 10:36:22.200   2774440.2848   1653823.9667   5481438.3506   1  10   0.0009   0.0005   0.0016   0.0006   0.0008   0.0012   0.19   11.0
2017/07/23 10:36:22.400   2774440.2848   1653823.9667   5481438.3506   1  10   0.0009   0.0005   0.0016   0.0006   0.0008   0.0012   0.19   11.0
2017/07/23 10:36:22.600   2774440.2848   1653823.9667   5481438.3506   1  10   0.0009   0.0005   0.0016   0.0006   0.0008   0.0012   0.19   11.0
2017/07/23 10:36:22.800   2774440.2848   1653823.9666   5481438.3506   1  10   0.0009   0.0005   0.0016   0.0006   0.0008   0.0012   0.19   11.0
2017/07/23 10:36:23.000   2774440.2848   1653823.9666   5481438.3505   1  10   0.0009   0.0005   0.0016   0.0006   0.0008   0.0012   0.19   11.0
2017/07/23 10:36:23.200   2774440.2847   1653823.9666   5481438.3505   1  10   0.0009   0.0005   0.0016   0.0006   0.0008   0.0012   0.19   11.0
2017/07/23 10:36:23.400   2774440.2847   1653823.9666   5481438.3505   1  10   0.0009   0.0005   0.0016   0.0006   0.0008   0.0012   0.19   11.0
2017/07/23 10:36:23.600   2774440.2847   1653823.9666   5481438.3504   1  10   0.0009   0.0005   0.0016   0.0006   0.0008   0.0012   0.19   11.0
2017/07/23 10:36:23.800   2774440.2847   1653823.9666   5481438.3504   1  10   0.0009   0.0005   0.0016   0.0006   0.0008   0.0012   0.19   11.0
2017/07/23 10:36:24.000   2774440.2847   1653823.9666   5481438.3504   1  10   0.0009   0.0005   0.0016   0.0006   0.0008   0.0012   0.19   11.0
2017/07/23 10:36:24.200   2774440.2847   1653823.9666   5481438.3503   1  10   0.0009   0.0005   0.0016   0.0006   0.0008   0.0012   0.19   11.1
2017/07/23 10:36:24.400   2774440.2846   1653823.9665   5481438.3503   1  10   0.0009   0.0005   0.0016   0.0006   0.0008   0.0012   0.19   11.1
2017/07/23 10:36:24.600   2774440.2846   1653823.9665   5481438.3503   1  10   0.0009   0.0005   0.0016   0.0006   0.0008   0.0012   0.19   11.1
2017/07/23 10:36:24.800   2774440.2846   1653823.9665   5481438.3502   1  10   0.0009   0.0005   0.0016   0.0006   0.0008   0.0012   0.19   11.1
2017/07/23 10:36:25.000   2774440.2846   1653823.9665   5481438.3502   1  10   0.0009   0.0005   0.0016   0.0006   0.0008   0.0012   0.19   11.1
2017/07/23 10:36:25.200   2774440.2846   1653823.9665   5481438.3502   1  10   0.0009   0.0005   0.0016   0.0006   0.0008   0.0012   0.19   11.1
2017/07/23 10:36:25.400   2774440.2846   1653823.9665   5481438.3501   1  10   0.0009   0.0005   0.0016   0.0006   0.0008   0.0012   0.19   11.1
2017/07/23 10:36:25.600   2774440.2846   1653823.9665   5481438.3501   1  10   0.0009   0.0005   0.0016   0.0006   0.0008   0.0012   0.19   11.1
2017/07/23 10:36:25.800   2774440.2845   1653823.9665   5481438.3501   1  10   0.0009   0.0005   0.0016   0.0006   0.0008   0.0012   0.19   11.1
2017/07/23 10:36:26.000   2774440.2845   1653823.9665   5481438.3500   1  10   0.0009   0.0005   0.0016   0.0006   0.0008   0.0012   0.19   11.1
2017/07/23 10:36:26.200   2774440.2845   1653823.9664   5481438.3500   1  10   0.0009   0.0005   0.0016   0.0006   0.0008   0.0012   0.19   11.1
2017/07/23 10:36:26.400   2774440.2845   1653823.9664   5481438.3500   1  10   0.0009   0.0005   0.0016   0.0006   0.0008   0.0012   0.19   11.1
2017/07/23 10:36:26.600   2774440.2845   1653823.9664   5481438.3500   1  10   0.0009   0.0005   0.0016   0.0006   0.0008   0.0012   0.19   11.2
2017/07/23 10:36:26.800   2774440.2845   1653823.9664   5481438.3499   1  10   0.0009   0.0005   0.0016   0.0006   0.0008   0.0012   0.19   11.2
2017/07/23 10:36:27.000   2774440.2845   1653823.9664   5481438.3499   1  10   0.0009   0.0005   0.0016   0.0006   0.0008   0.0012   0.19   11.2
2017/07/23 10:36:27.200   2774440.2844   1653823.9664   5481438.3499   1  10   0.0009   0.0005   0.0016   0.0006   0.0008   0.0012   0.19   11.2
2017/07/23 10:36:27.400   2774440.2844   1653823.9664   5481438.3499   1  10   0.0009   0.0005   0.0016   0.0006   0.0008   0.0012   0.19   11.2
2017/07/23 10:36:27.600   2774440.2844   1653823.9664   5481438.3498   1  10   0.0009   0.0005   0.0016   0.0006   0.0008   0.0012   0.19   11.2
2017/07/23 10:36:27.800   2774440.2844   1653823.9664   5481438.3498   1  10   0.0009   0.0005   0.0016   0.0006   0.0008   0.0012   0.19   11.2
2017/07/23 10:36:28.000   2774440.2844   1653823.9664   5481438.3498   1  10   0.0009   0.0005   0.0016   0.0006   0.0008   0.0012   0.19   11.2
2017/07/23 10:36:28.200   2774440.2844   1653823.9663   5481438.3497   1  10   0.0009   0.0005   0.0016   0.0006   0.0008   0.0012   0.19   11.2
2017/07/23 10:36:28.400   2774440.2844   1653823.9663   5481438.3497   1  10   0.0009   0.0005   0.0016   0.0006   0.0008   0.0012   0.19   11.2
2017/07/23 10:36:28.600   2774440.2843   1653823.9663   5481438.3497   1  10   0.0009   0.0005   0.0016   0.0006   0.0008   0.0012   0.19   11.2
2017/07/23 10:36:28.800   2774440.2843   1653823.9663   5481438.3496   1  10   0.0009   0.0005   0.0016   0.0006   0.0008   0.0012   0.19   11.2
2017/07/23 10:36:29.000   2774440.2843   1653823.9663   5481438.3496   1  10   0.0009   0.0005   0.0016   0.0006   0.0008   0.0012   0.19   11.3
2017/07/23 10:36:29.200   2774440.2843   1653823.9663   5481438.3496   1  10   0.0009   0.0005   0.0016   0.0006   0.0008   0.0012   0.19   11.3
2017/07/23 10:36:29.400   2774440.2843   1653823.9663   5481438.3496   1  10   0.0009   0.0005   0.0016   0.0006   0.0008   0.0012   0.19   11.3
2017/07/23 10:36:29.600   2774440.2843   1653823.9663   5481438.3495   1  10   0.0009   0.0005   0.0016   0.0006   0.0008   0.0012   0.19   11.3
2017/07/23 10:36:29.800   2774440.2843   1653823.9663   5481438.3495   1  10   0.0009   0.0005   0.0016   0.0006   0.0008   0.0012   0.19   11.3
2017/07/23 10:36:30.000   2774440.2842   1653823.9663   5481438.3495   1  10   0.0009   0.0005   0.0016   0.0006   0.0008   0.0012   0.19   11.3
2017/07/23 10:36:30.200   2774440.2842   1653823.9662   5481438.3494   1  10   0.0009   0.0005   0.0016   0.0006   0.0008   0.0012   0.19   11.3
2017/07/23 10:36:30.400   2774440.2842   1653823.9662   5481438.3494   1  10   0.0009   0.0005   0.0016   0.0006   0.0008   0.0012   0.19   11.3
2017/07/23 10:36:30.600   2774440.2842   1653823.9662   5481438.3494   1  10   0.0009   0.0005   0.0016   0.0006   0.0008   0.0012   0.19   11.3
2017/07/23 10:36:30.800   2774440.2842   1653823.9662   5481438.3494   1  10   0.0009   0.0005   0.0016   0.0006   0.0008   0.0012   0.19   11.3
2017/07/23 10:36:31.000   2774440.2842   1653823.9662   5481438.3493   1  10   0.0009   0.0005   0.0016   0.0006   0.0008   0.0012   0.19   11.3
2017/07/23 10:36:31.200   2774440.2842   1653823.9662   5481438.3493   1  10   0.0009   0.0005   0.0016   0.0006   0.0008   0.0012   0.19   11.4
2017/07/23 10:36:31.400   2774440.2842   1653823.9662   5481438.3493   1  10   0.0009   0.0005   0.0016   0.0006   0.0008   0.0012   0.19   11.4
2017/07/23 10:36:31.600   2774440.2841   1653823.9662   5481438.3493   1  10   0.0009   0.0005   0.0016   0.0006   0.0008   0.0012   0.19   11.4
2017/07/23 10:36:31.800   2774440.2841   1653823.9662   5481438.3492   1  10   0.0009   0.0005   0.0016   0.0006   0.0008   0.0012   0.19   11.4
2017/07/23 10:36:32.000   2774440.2841   1653823.9661   5481438.3492   1  10   0.0009   0.0005   0.0016   0.0006   0.0008   0.0012   0.19   11.4
2017/07/23 10:36:32.200   2774440.2841   1653823.9661   5481438.3492   1  10   0.0009   0.0005   0.0016   0.0006   0.0008   0.0012   0.19   11.4
2017/07/23 10:36:32.400   2774440.2841   1653823.9661   5481438.3491   1  10   0.0009   0.0005   0.0016   0.0006   0.0008   0.0012   0.19   11.4
2017/07/23 10:36:32.600   2774440.2841   1653823.9661   5481438.3491   1  10   0.0009   0.0005   0.0016   0.0006   0.0008   0.0012   0.19   11.4
2017/07/23 10:36:32.800   2774440.2841   1653823.9661   5481438.3491   1  10   0.0009   0.0005   0.0016   0.0006   0.0008   0.0012   0.19   11.4
2017/07/23 10:36:33.000   2774440.2841   1653823.9661   5481438.3491   1  10   0.0009   0.0005   0.0016   0.0006   0.0008   0.0012   0.19   11.5
2017/07/23 10:36:33.200   2774440.2841   1653823.9661   5481438.3490   1  10   0.0009   0.0005   0.0016   0.0006   0.0008   0.0012   0.19   11.5
2017/07/23 10:36:33.400   2774440.2840   1653823.9661   5481438.3490   1  10   0.0009   0.0005   0.0016   0.0006   0.0008   0.0012   0.19   11.5
2017/07/23 10:36:33.600   2774440.2840   1653823.9661   5481438.3490   1  10   0.0009   0.0005   0.0016   0.0006   0.0008   0.0012   0.19   11.5
2017/07/23 10:36:33.800   2774440.2840   1653823.9660   5481438.3489   1  10   0.0009   0.0005   0.0016   0.0006   0.0008   0.0012   0.19   11.5
2017/07/23 10:36:34.000   2774440.2840   1653823.9660   5481438.3489   1  10   0.0009   0.0005   0.0016   0.0006   0.0008   0.0012   0.19   11.5
2017/07/23 10:36:34.200   2774440.2840   1653823.9660   5481438.3489   1  10   0.0009   0.0005   0.0016   0.0006   0.0008   0.0012   0.19   11.5
2017/07/23 10:36:34.400   2774440.2840   1653823.9660   5481438.3489   1  10   0.0009   0.0005   0.0016   0.0006   0.0008   0.0012   0.19   11.5
2017/07/23 10:36:34.600   2774440.2840   1653823.9660   5481438.3488   1  10   0.0009   0.0005   0.0016   0.0006   0.0008   0.0012   0.19   11.5
2017/07/23 10:36:34.800   2774440.2839   1653823.9660   5481438.3488   1  10   0.0009   0.0005   0.0016   0.0006   0.0008   0.0012   0.19   11.6
2017/07/23 10:36:35.000   2774440.2839   1653823.9660   5481438.3488   1  10   0.0009   0.0005   0.0016   0.0006   0.0008   0.0012   0.19   11.6
2017/07/23 10:36:35.200   2774440.2839   1653823.9660   5481438.3488   1  10   0.0009   0.0005   0.0016   0.0006   0.0008   0.0012   0.19   11.6
2017/07/23 10:36:35.400   2774440.2839   1653823.9660   5481438.3487   1  10   0.0009   0.0005   0.0016   0.0006   0.0008   0.0012   0.19   11.6
2017/07/23 10:36:35.600   2774440.2839   1653823.9660   5481438.3487   1  10   0.0009   0.0005   0.0016   0.0006   0.0008   0.0012   0.19   11.6
2017/07/23 10:36:35.800   2774440.2839   1653823.9659   5481438.3487   1  10   0.0009   0.0005   0.0016   0.0006   0.0008   0.0012   0.19   11.6
2017/07/23 10:36:36.000   2774440.2839   1653823.9659   5481438.3487   1  10   0.0009   0.0005   0.0016   0.0006   0.0008   0.0012   0.19   11.6
2017/07/23 10:36:36.200   2774440.2839   1653823.9659   5481438.3487   1  10   0.0009   0.0005   0.0016   0.0006   0.0008   0.0012   0.19   11.6
2017/07/23 10:36:36.400   2774440.2839   1653823.9659   5481438.3487   1  10   0.0009   0.0005   0.0016   0.0006   0.0008   0.0012   0.19   11.7
2017/07/23 10:36:36.600   2774440.2839   1653823.9659   5481438.3487   1  10   0.0009   0.0005   0.0016   0.0006   0.0008   0.0012   0.19   11.7
2017/07/23 10:36:36.800   2774440.2839   1653823.9659   5481438.3486   1  10   0.0009   0.0005   0.0016   0.0006   0.0008   0.0012   0.19   11.7
2017/07/23 10:36:37.000   2774440.2839   1653823.9659   5481438.3486   1  10   0.0009   0.0005   0.0016   0.0006   0.0008   0.0012   0.19   11.7
2017/07/23 10:36:37.200   2774440.2839   1653823.9659   5481438.3486   1  10   0.0009   0.0005   0.0016   0.0006   0.0008   0.0012   0.19   11.7
2017/07/23 10:36:37.400   2774440.2839   1653823.9659   5481438.3486   1  10   0.0009   0.0005   0.0016   0.0006   0.0008   0.0012   0.19   11.7
2017/07/23 10:36:37.600   2774440.2839   1653823.9659   5481438.3486   1  10   0.0009   0.0005   0.0016   0.0006   0.0008   0.0012   0.19   11.7
2017/07/23 10:36:37.800   2774440.2839   1653823.9659   5481438.3486   1  10   0.0009   0.0005   0.0016   0.0006   0.0008   0.0012   0.19   11.7
2017/07/23 10:36:38.000   2774440.2839   1653823.9659   5481438.3485   1  10   0.0009   0.0005   0.0016   0.0006   0.0008   0.0012   0.19   11.8
2017/07/23 10:36:38.200   2774440.2839   1653823.9659   5481438.3485   1  10   0.0009   0.0005   0.0016   0.0006   0.0008   0.0012   0.19   11.8
2017/07/23 10:36:38.400   2774440.2838   1653823.9659   5481438.3485   1  10   0.0009   0.0005   0.0016   0.0006   0.0008   0.0012   0.19   11.8
2017/07/23 10:36:38.600   2774440.2838   1653823.9658   5481438.3485   1  10   0.0009   0.0005   0.0016   0.0006   0.0008   0.0012   0.19   11.8
2017/07/23 10:36:38.800   2774440.2838   1653823.9658   5481438.3485   1  10   0.0009   0.0005   0.0016   0.0006   0.0008   0.0012   0.19   11.8
