     3.03           OBSERVATION DATA    M: Mixed            RINEX VERSION / TYPE
CONVBIN 2.4.3 Emlid                     20170817 145639 UTC PGM / RUN BY / DATE 
log: ../../../kalinino.UBX                                  COMMENT             
format: u-blox                                              COMMENT             
                                                            MARKER NAME         
                                                            MARKER NUMBER       
                                                            MARKER TYPE         
                                                            OBSERVER / AGENCY   
                                                            REC # / TYPE / VERS 
                                                            ANT # / TYPE        
  2774820.0893  1654159.6703  5481156.6851                  APPROX POSITION XYZ 
        0.0000        0.0000        0.0000                  ANTENNA: DELTA H/E/N
G    4 C1C L1C D1C S1C                                      SYS / # / OBS TYPES 
R    4 C1C L1C D1C S1C                                      SYS / # / OBS TYPES 
E    4 C1C L1C D1C S1C                                      SYS / # / OBS TYPES 
J    4 C1C L1C D1C S1C                                      SYS / # / OBS TYPES 
S    4 C1C L1C D1C S1C                                      SYS / # / OBS TYPES 
C    4 C1I L1I D1I S1I                                      SYS / # / OBS TYPES 
  2017     7    23    11     8    8.3900000     GPS         TIME OF FIRST OBS   
  2017     7    23    11    18   11.3900000     GPS         TIME OF LAST OBS    
G                                                           SYS / PHASE SHIFT   
R                                                           SYS / PHASE SHIFT   
E                                                           SYS / PHASE SHIFT   
J                                                           SYS / PHASE SHIFT   
S                                                           SYS / PHASE SHIFT   
C                                                           SYS / PHASE SHIFT   
  0                                                         GLONASS SLOT / FRQ #
 C1C    0.000 C1P    0.000 C2C    0.000 C2P    0.000        GLONASS COD/PHS/BIS 
                                                            END OF HEADER       
> 2017  7 23 11  8  8.3900000  0 14                     
G 2  21679812.051 1 113928179.097 1     -3384.924          41.000  
G21  19325802.592 1 101557784.187 1      2077.032          46.000  
G26  18564226.592 1  97555673.982 1      1238.099          49.000  
G29  17637334.579 1  92684818.360 1     -1808.102          50.000  
G31  21121176.459 2 110992453.018 1     -3332.966          37.000  
G 5  19261399.521 1 101219328.638 1      -564.487          49.000  
G 9  21880767.227 8 114984173.680 3     -1501.883          31.000  
G16  19935240.165 1 104760425.344 1      2892.812          42.000  
E26  18595724.109 1  97721174.105 1       960.308          46.000  
E 1  21702968.074 1 114049843.803 1     -1760.788          41.000  
G25  21373215.660 1 112317006.413 1     -4077.974          40.000  
G20  19164388.155 1 100709549.942 1      2255.440          45.000  
E 3  23877013.801 1 125474552.933 1      -374.639          39.000  
E 8  21887560.636 1 115019900.068 1      2050.200          39.000  
> 2017  7 23 11  8  8.5900000  0 14                     
G 2  21679940.866 1 113928856.033 1     -3384.385          41.000  
G21  19325723.475 1 101557368.771 1      2077.019          46.000  
G26  18564179.393 1  97555426.338 1      1238.285          49.000  
G29  17637403.431 1  92685179.957 1     -1807.959          50.000  
G31  21121303.335 2 110993119.715 1     -3333.282          36.000  
G 5  19261421.116 1 101219441.540 1      -564.507          49.000  
G 9  21880821.731 8 114984473.913 3     -1501.061          31.000  
G16  19935130.017 1 104759846.704 1      2893.255          42.000  
E26  18595687.917 1  97720982.036 1       960.341          46.000  
E 1  21703035.017 1 114050195.985 1     -1760.897          41.000  
G25  21373370.777 1 112317822.019 1     -4077.896          40.000  
G20  19164302.280 1 100709098.864 1      2255.373          44.000  
E 3  23877028.042 1 125474627.764 1      -374.073          39.000  
E 8  21887482.514 1 115019490.049 1      2050.028          39.000  
> 2017  7 23 11  8  8.7900000  0 14                     
G 2  21680069.546 1 113929532.980 1     -3384.707          42.000  
G21  19325644.520 1 101556953.338 1      2077.426          46.000  
G26  18564132.302 1  97555178.731 1      1238.130          48.000  
G29  17637472.115 1  92685541.568 1     -1807.995          50.000  
G31  21121430.255 2 110993786.376 1     -3333.281          34.000  
G 5  19261442.566 1 101219554.453 1      -564.422          49.000  
G 9  21880877.609 8 114984774.252 3     -1501.219          31.000  
G16  19935019.817 1 104759268.080 1      2893.110          42.000  
E26  18595651.269 1  97720789.976 1       960.289          46.000  
E 1  21703102.050 1 114050548.156 1     -1760.766          41.000  
G25  21373525.823 1 112318637.593 1     -4077.712          41.000  
G20  19164216.351 1 100708647.796 1      2255.441          44.000  
E 3  23877042.153 1 125474702.618 1      -374.129          39.000  
E 8  21887404.357 1 115019080.018 1      2050.320          39.000  
> 2017  7 23 11  8  8.9900000  0 14                     
G 2  21680198.508 1 113930209.928 1     -3384.506          42.000  
G21  19325565.466 1 101556537.926 1      2076.887          46.000  
G26  18564085.121 1  97554931.134 1      1237.889          49.000  
G29  17637541.011 1  92685903.199 1     -1808.198          50.000  
G31  21121557.007 2 110994453.021 1     -3333.513          37.000  
G 5  19261464.034 1 101219667.409 1      -564.810          49.000  
G 9  21880934.579 8 114985074.583 3     -1501.605          31.000  
G16  19934909.811 1 104758689.462 1      2892.946          42.000  
E26  18595614.726 1  97720597.929 1       960.076          46.000  
E 1  21703168.873 1 114050900.331 1     -1760.962          42.000  
G25  21373680.994 1 112319453.178 1     -4077.922          41.000  
G20  19164130.321 1 100708196.758 1      2255.156          44.000  
E 3  23877056.174 1 125474777.497 1      -374.354          39.000  
E 8  21887326.415 1 115018670.025 1      2049.999          39.000  
> 2017  7 23 11  8  9.1900000  0 14                     
G 2  21680327.410 1 113930886.800 1     -3384.344          41.000  
G21  19325486.410 1 101556122.480 1      2077.160          46.000  
G26  18564037.855 1  97554683.511 1      1238.143          49.000  
G29  17637609.782 1  92686264.792 1     -1807.830          50.000  
G31  21121683.877 2 110995119.599 1     -3332.458          36.000  
G 5  19261485.402 1 101219780.334 1      -564.608          49.000  
G 9  21880991.777 8 114985374.984 3     -1502.456          31.000  
G16  19934799.718 1 104758110.842 1      2893.075          43.000  
E26  18595578.011 1  97720405.838 1       960.515          45.000  
E 1  21703235.775 1 114051252.512 1     -1760.888          42.000  
G25  21373835.926 1 112320268.709 1     -4077.644          42.000  
G20  19164044.425 1 100707745.695 1      2255.218          44.000  
E 3  23877070.366 1 125474852.380 1      -374.570          38.000  
E 8  21887248.393 1 115018260.016 1      2050.074          39.000  
> 2017  7 23 11  8  9.3900000  0 14                     
G 2  21680456.171 1 113931563.726 1     -3384.554          39.000  
G21  19325407.415 1 101555707.096 1      2076.857          46.000  
G26  18563990.802 1  97554435.945 1      1237.766          49.000  
G29  17637678.490 1  92686626.444 1     -1808.339          50.000  
G31  21121810.927 2 110995786.208 1     -3332.895          36.000  
G 5  19261506.857 1 101219893.314 1      -565.041          49.000  
G 9  21881051.480 4 114985675.292 2     -1501.820          35.000  
G16  19934689.574 1 104757532.258 1      2892.837          43.000  
E26  18595541.525 1  97720213.788 1       960.237          45.000  
E 1  21703302.969 1 114051604.717 1     -1761.080          42.000  
G25  21373991.128 1 112321084.333 1     -4078.031          42.000  
G20  19163958.406 1 100707294.656 1      2255.262          44.000  
E 3  23877084.540 1 125474927.283 1      -374.747          38.000  
E 8  21887170.343 1 115017850.016 1      2050.069          39.000  
> 2017  7 23 11  8  9.5900000  0 14                     
G 2  21680584.989 1 113932240.642 1     -3384.837          39.000  
G21  19325328.339 1 101555291.703 1      2076.955          46.000  
G26  18563943.894 1  97554188.384 1      1237.734          49.000  
G29  17637747.440 1  92686988.092 1     -1808.302          50.000  
G31  21121937.681 2 110996452.822 1     -3332.958          36.000  
G 5  19261528.568 1 101220006.294 1      -564.967          49.000  
G 9  21881108.183 4 114985975.678 2     -1502.045          34.000  
G16  19934579.417 1 104756953.681 1      2892.867          43.000  
E26  18595505.008 1  97720021.737 1       960.280          45.000  
E 1  21703370.321 1 114051956.937 1     -1761.003          40.000  
G25  21374146.232 1 112321899.907 1     -4077.712          42.000  
G20  19163872.566 1 100706843.624 1      2254.957          44.000  
E 3  23877098.661 1 125475002.191 1      -374.509          38.000  
E 8  21887092.410 1 115017440.022 1      2050.117          39.000  
> 2017  7 23 11  8  9.7900000  0 14                     
G 2  21680713.726 1 113932917.566 1     -3384.654          39.000  
G21  19325249.292 1 101554876.319 1      2077.027          46.000  
G26  18563896.691 1  97553940.857 1      1237.474          49.000  
G29  17637816.175 1  92687349.769 1     -1808.491          50.000  
G31  21122064.728 2 110997119.548 1     -3334.064          35.000  
G 5  19261550.090 1 101220119.328 1      -565.239          50.000  
G 9  21881165.587 4 114986276.003 2     -1501.668          34.000  
G16  19934469.487 1 104756375.112 1      2892.897          43.000  
E26  18595468.227 1  97719829.720 1       960.016          45.000  
E 1  21703437.641 1 114052309.155 1     -1761.179          40.000  
G25  21374301.380 1 112322715.447 1     -4077.463          41.000  
G20  19163786.827 1 100706392.634 1      2254.986          44.000  
E 3  23877113.108 1 125475077.138 1      -374.999          38.000  
E 8  21887014.576 1 115017030.064 1      2049.928          39.000  
> 2017  7 23 11  8  9.9900000  0 14                     
G 2  21680842.478 1 113933594.512 1     -3384.982          40.000  
G21  19325170.345 1 101554460.959 1      2076.649          46.000  
G26  18563849.730 1  97553693.364 1      1237.272          49.000  
G29  17637884.924 1  92687711.460 1     -1808.564          50.000  
G31  21122191.381 4 110997786.197 2     -3333.440          35.000  
G 5  19261571.569 1 101220232.395 1      -565.420          49.000  
G 9  21881220.309 4 114986576.380 2     -1502.057          34.000  
G16  19934359.475 1 104755796.557 1      2892.508          43.000  
E26  18595431.523 1  97719637.705 1       959.912          45.000  
E 1  21703504.288 1 114052661.378 1     -1761.316          39.000  
G25  21374456.617 1 112323531.076 1     -4077.913          42.000  
G20  19163700.991 1 100705941.661 1      2255.048          44.000  
E 3  23877127.345 1 125475152.116 1      -374.859          38.000  
E 8  21886936.669 1 115016620.112 1      2049.548          39.000  
> 2017  7 23 11  8 10.1900000  0 14                     
G 2  21680971.225 1 113934271.517 1     -3385.235          40.000  
G21  19325091.398 1 101554045.639 1      2076.423          46.000  
G26  18563802.643 1  97553445.909 1      1237.156          48.000  
G29  17637953.730 1  92688073.202 1     -1808.772          50.000  
G31  21122318.183 2 110998452.918 1     -3333.539          35.000  
G 5  19261593.013 1 101220345.528 1      -565.811          49.000  
G 9  21881277.491 4 114986876.898 2     -1502.368          34.000  
G16  19934249.403 1 104755218.034 1      2892.689          43.000  
E26  18595395.124 1  97719445.730 1       959.868          45.000  
E 1  21703571.378 1 114053013.710 1     -1761.713          39.000  
G25  21374611.719 1 112324346.690 1     -4078.084          42.000  
G20  19163615.341 1 100705490.723 1      2254.636          44.000  
E 3  23877141.741 1 125475227.109 1      -375.227          40.000  
E 8  21886858.529 1 115016210.207 1      2049.426          39.000  
> 2017  7 23 11  8 10.3900000  0 14                     
G 2  21681100.200 1 113934948.433 1     -3384.772          41.000  
G21  19325012.187 1 101553630.299 1      2076.570          46.000  
G26  18563755.665 1  97553198.446 1      1237.297          48.000  
G29  17638022.478 1  92688434.919 1     -1808.625          50.000  
G31  21122444.879 2 110999119.657 1     -3333.962          35.000  
G 5  19261614.468 1 101220458.633 1      -565.716          49.000  
G 9  21881334.926 4 114987177.331 2     -1501.212          33.000  
G16  19934139.144 1 104754639.512 1      2892.645          42.000  
E26  18595358.426 1  97719253.726 1       959.885          45.000  
E 1  21703638.315 1 114053365.982 1     -1761.580          39.000  
G25  21374766.893 1 112325162.277 1     -4078.038          42.000  
G20  19163529.499 1 100705039.787 1      2254.647          45.000  
E 3  23877155.813 1 125475302.063 1      -374.809          40.000  
E 8  21886780.328 1 115015800.250 1      2049.616          39.000  
> 2017  7 23 11  8 10.5900000  0 14                     
G 2  21681229.120 1 113935625.399 1     -3384.813          41.000  
G21  19324933.188 1 101553214.974 1      2076.660          46.000  
G26  18563708.501 1  97552951.009 1      1236.940          48.000  
G29  17638091.279 1  92688796.660 1     -1808.617          50.000  
G31  21122571.598 2 110999786.312 1     -3333.283          35.000  
G 5  19261636.039 1 101220571.773 1      -565.746          49.000  
G 9  21881392.279 4 114987477.858 2     -1503.021          33.000  
G16  19934029.020 1 104754060.973 1      2892.783          40.000  
E26  18595321.792 1  97719061.758 1       959.694          45.000  
E 1  21703705.219 1 114053718.309 1     -1761.552          40.000  
G25  21374922.141 1 112325977.870 1     -4077.960          42.000  
G20  19163443.812 1 100704588.872 1      2254.661          45.000  
E 3  23877169.972 1 125475377.102 1      -375.284          38.000  
E 8  21886702.406 1 115015390.321 1      2049.747          39.000  
> 2017  7 23 11  8 10.7900000  0 14                     
G 2  21681357.985 1 113936302.353 1     -3384.961          40.000  
G21  19324854.337 1 101552799.668 1      2076.404          46.000  
G26  18563661.320 1  97552703.579 1      1236.932          48.000  
G29  17638160.103 1  92689158.423 1     -1808.999          50.000  
G31  21122698.275 2 111000453.027 1     -3333.906          35.000  
G 5  19261657.640 1 101220684.942 1      -566.117          49.000  
G 9  21881450.438 4 114987778.343 2     -1502.604          33.000  
G16  19933918.927 1 104753482.484 1      2892.606          40.000  
E26  18595285.351 1  97718869.791 1       959.697          45.000  
E 1  21703772.099 1 114054070.615 1     -1761.918          41.000  
G25  21375077.363 1 112326793.526 1     -4078.325          42.000  
G20  19163358.018 1 100704137.976 1      2254.163          44.000  
E 3  23877184.516 1 125475452.154 1      -375.459          38.000  
E 8  21886624.434 1 115014980.411 1      2049.333          39.000  
> 2017  7 23 11  8 10.9900000  0 14                     
G 2  21681486.742 1 113936979.268 1     -3384.775          40.000  
G21  19324775.433 1 101552384.352 1      2076.475          46.000  
G26  18563614.362 1  97552456.174 1      1236.964          48.000  
G29  17638228.857 1  92689520.183 1     -1808.956          50.000  
G31  21122824.879 2 111001119.743 1     -3333.783          35.000  
G 5  19261679.296 1 101220798.128 1      -566.092          49.000  
G 9  21881509.775 4 114988078.849 2     -1502.219          33.000  
G16  19933808.796 1 104752904.015 1      2892.283          41.000  
E26  18595248.636 1  97718677.831 1       959.800          45.000  
E 1  21703839.169 1 114054422.967 1     -1761.814          41.000  
G25  21375232.341 1 112327609.103 1     -4078.038          42.000  
G20  19163272.320 1 100703687.094 1      2254.248          44.000  
E 3  23877198.767 1 125475527.200 1      -375.250          38.000  
E 8  21886546.253 1 115014570.482 1      2049.271          39.000  
> 2017  7 23 11  8 11.1900000  0 14                     
G 2  21681615.507 1 113937656.215 1     -3385.131          40.000  
G21  19324696.340 1 101551969.055 1      2076.459          46.000  
G26  18563567.096 1  97552208.795 1      1236.875          48.000  
G29  17638297.628 1  92689881.953 1     -1808.740          49.000  
G31  21122951.591 2 111001786.438 1     -3333.913          35.000  
G 5  19261700.854 1 101220911.303 1      -565.730          49.000  
G 9  21881565.562 4 114988379.384 2     -1502.818          33.000  
G16  19933698.751 1 104752325.519 1      2892.410          41.000  
E26  18595212.171 1  97718485.860 1       959.914          45.000  
E 1  21703906.280 1 114054775.312 1     -1761.590          40.000  
G25  21375387.617 1 112328424.722 1     -4078.000          42.000  
G20  19163186.618 1 100703236.194 1      2254.668          44.000  
E 3  23877213.069 1 125475602.224 1      -375.219          38.000  
E 8  21886468.235 1 115014160.574 1      2049.613          39.000  
> 2017  7 23 11  8 11.3900000  0 14                     
G 2  21681744.318 1 113938333.146 1     -3384.752          40.000  
G21  19324617.337 1 101551553.757 1      2076.572          46.000  
G26  18563520.067 1  97551961.432 1      1236.787          47.000  
G29  17638366.513 1  92690243.756 1     -1808.923          49.000  
G31  21123078.705 2 111002453.167 1     -3333.711          35.000  
G 5  19261722.213 1 101221024.549 1      -566.232          49.000  
G 9  21881623.389 4 114988679.926 2     -1501.927          33.000  
G16  19933588.683 1 104751747.030 1      2892.715          41.000  
E26  18595175.779 1  97718293.928 1       959.604          44.000  
E 1  21703973.217 1 114055127.685 1     -1762.142          40.000  
G25  21375542.858 1 112329240.289 1     -4077.728          40.000  
G20  19163100.809 1 100702785.355 1      2254.313          43.000  
E 3  23877227.348 1 125475677.311 1      -375.428          38.000  
E 8  21886390.032 1 115013750.707 1      2049.420          38.000  
> 2017  7 23 11  8 11.5900000  0 14                     
G 2  21681873.264 1 113939010.084 1     -3384.456          40.000  
G21  19324538.237 1 101551138.493 1      2076.478          46.000  
G26  18563472.969 1  97551714.101 1      1236.832          47.000  
G29  17638435.478 1  92690605.579 1     -1809.002          49.000  
G31  21123205.706 4 111003119.916 2     -3333.807          34.000  
G 5  19261743.722 1 101221137.820 1      -566.329          49.000  
G 9  21881682.376 4 114988980.603 2     -1503.680          33.000  
G16  19933478.597 1 104751168.581 1      2892.485          41.000  
E26  18595139.374 1  97718102.002 1       959.712          44.000  
E 1  21704040.444 1 114055480.049 1     -1761.885          41.000  
G25  21375698.305 1 112330055.930 1     -4077.960          40.000  
G20  19163014.923 1 100702334.536 1      2254.173          43.000  
E 3  23877241.644 1 125475752.445 1      -375.699          38.000  
E 8  21886311.733 1 115013340.821 1      2049.450          38.000  
> 2017  7 23 11  8 11.7900000  0 14                     
G 2  21682002.119 1 113939687.031 1     -3384.708          40.000  
G21  19324459.240 1 101550723.223 1      2076.225          45.000  
G26  18563425.937 1  97551466.794 1      1236.277          47.000  
G29  17638504.289 1  92690967.399 1     -1809.194          49.000  
G31  21123332.652 4 111003786.561 2     -3333.051          34.000  
G 5  19261765.315 1 101221251.094 1      -566.500          49.000  
G 9  21881742.954 4 114989281.139 2     -1501.823          32.000  
G16  19933368.457 1 104750590.130 1      2892.173          41.000  
E26  18595102.898 1  97717910.054 1       959.564          44.000  
E 1  21704107.490 1 114055832.402 1     -1761.683          41.000  
G25  21375853.333 1 112330871.542 1     -4078.013          40.000  
G20  19162929.271 1 100701883.723 1      2253.896          43.000  
E 3  23877255.920 1 125475827.536 1      -375.781          38.000  
E 8  21886233.567 1 115012930.942 1      2049.366          38.000  
> 2017  7 23 11  8 11.9900000  0 14                     
G 2  21682131.006 1 113940363.945 1     -3384.189          40.000  
G21  19324380.107 1 101550307.932 1      2076.219          45.000  
G26  18563378.684 1  97551219.462 1      1236.539          47.000  
G29  17638573.198 1  92691329.215 1     -1809.169          49.000  
G31  21123459.415 4 111004453.242 2     -3333.432          34.000  
G 5  19261787.182 1 101221364.375 1      -566.493          49.000  
G 9  21881800.461 8 114989581.721 3     -1503.018          32.000  
G16  19933258.399 1 104750011.682 1      2891.954          41.000  
E26  18595066.152 1  97717718.091 1       959.832          44.000  
E 1  21704174.560 1 114056184.770 1     -1761.799          41.000  
G25  21376008.496 1 112331687.145 1     -4078.164          41.000  
G20  19162843.555 1 100701432.879 1      2254.457          43.000  
E 3  23877270.350 1 125475902.635 1      -375.460          38.000  
E 8  21886155.410 1 115012521.039 1      2049.425          38.000  
> 2017  7 23 11  8 12.1900000  0 14                     
G 2  21682259.813 1 113941040.891 1     -3384.704          40.000  
G21  19324301.023 1 101549892.669 1      2076.079          44.000  
G26  18563331.738 1  97550972.158 1      1236.556          47.000  
G29  17638642.089 1  92691691.051 1     -1809.261          49.000  
G31  21123586.454 2 111005120.021 1     -3334.145          34.000  
G 5  19261808.798 1 101221477.689 1      -566.567          49.000  
G 9  21881855.962 4 114989882.371 2     -1503.230          32.000  
G16  19933148.364 1 104749433.192 1      2892.262          41.000  
E26  18595029.527 1  97717526.170 1       959.488          44.000  
E 1  21704241.654 1 114056537.186 1     -1762.089          40.000  
G25  21376163.724 1 112332502.716 1     -4077.765          41.000  
G20  19162757.729 1 100700982.068 1      2253.977          43.000  
E 3  23877284.375 1 125475977.740 1      -375.686          38.000  
E 8  21886077.316 1 115012111.176 1      2049.274          38.000  
> 2017  7 23 11  8 12.3900000  0 14                     
G 2  21682388.525 1 113941717.828 1     -3384.675          40.000  
G21  19324221.965 1 101549477.420 1      2076.197          43.000  
G26  18563284.640 1  97550724.864 1      1236.394          48.000  
G29  17638710.996 1  92692052.892 1     -1809.476          49.000  
G31  21123712.995 2 111005786.766 1     -3333.859          34.000  
G 5  19261830.238 1 101221591.022 1      -566.904          49.000  
G 9  21881912.444 8 114990182.984 2     -1503.966          32.000  
G16  19933038.284 1 104748854.763 1      2891.793          41.000  
E26  18594993.093 1  97717334.234 1       959.631          44.000  
E 1  21704308.697 1 114056889.605 1     -1762.208          40.000  
G25  21376318.795 1 112333318.298 1     -4078.053          40.000  
G20  19162672.039 1 100700531.261 1      2254.035          43.000  
E 3  23877298.632 1 125476052.861 1      -375.895          38.000  
E 8  21885999.387 1 115011701.304 1      2049.368          38.000  
> 2017  7 23 11  8 12.5900000  0 14                     
G 2  21682517.203 1 113942394.756 1     -3385.017          40.000  
G21  19324142.815 1 101549062.171 1      2076.247          44.000  
G26  18563237.435 1  97550477.583 1      1236.548          48.000  
G29  17638779.773 1  92692414.727 1     -1809.069          50.000  
G31  21123839.679 2 111006453.446 1     -3332.765          37.000  
G 5  19261851.804 1 101221704.359 1      -566.594          49.000  
G 9  21881970.256 8 114990483.635 3     -1503.024          32.000  
G16  19932928.049 1 104748276.314 1      2892.322          42.000  
E26  18594956.665 1  97717142.298 1       959.848          45.000  
E 1  21704375.610 1 114057241.990 1     -1761.850          40.000  
G25  21376473.976 1 112334133.867 1     -4077.472          41.000  
G20  19162586.367 1 100700080.477 1      2253.761          44.000  
E 3  23877312.978 1 125476128.004 1      -375.698          38.000  
E 8  21885921.383 1 115011291.416 1      2049.483          38.000  
> 2017  7 23 11  8 12.7900000  0 14                     
G 2  21682646.017 1 113943071.678 1     -3384.792          40.000  
G21  19324063.676 1 101548646.946 1      2076.139          45.000  
G26  18563190.437 1  97550230.356 1      1235.927          48.000  
G29  17638848.593 1  92692776.614 1     -1809.528          50.000  
G31  21123966.592 2 111007120.186 1     -3333.184          37.000  
G 5  19261873.249 1 101221817.752 1      -567.103          49.000  
G 9  21882024.982 8 114990784.317 2     -1503.535          32.000  
G16  19932818.062 1 104747697.931 1      2891.799          42.000  
E26  18594920.138 1  97716950.408 1       959.351          45.000  
E 1  21704442.743 1 114057594.455 1     -1762.479          40.000  
G25  21376629.049 1 112334949.449 1     -4077.838          41.000  
G20  19162500.486 1 100699629.718 1      2253.606          44.000  
E 3  23877327.135 1 125476203.179 1      -376.051          38.000  
E 8  21885843.347 1 115010881.611 1      2048.899          38.000  
> 2017  7 23 11  8 12.9900000  0 14                     
G 2  21682774.779 1 113943748.587 1     -3384.503          40.000  
G21  19323984.655 1 101548231.695 1      2076.112          45.000  
G26  18563143.326 1  97549983.106 1      1236.072          48.000  
G29  17638917.650 1  92693138.480 1     -1809.493          50.000  
G31  21124093.357 2 111007786.913 1     -3334.002          35.000  
G 5  19261894.708 1 101221931.132 1      -567.107          49.000  
G 9  21882080.193 4 114991084.936 2     -1503.115          33.000  
G16  19932707.910 1 104747119.485 1      2892.095          43.000  
E26  18594883.621 1  97716758.466 1       959.602          45.000  
E 1  21704509.866 1 114057946.879 1     -1762.130          40.000  
G25  21376784.241 1 112335765.034 1     -4077.534          41.000  
G20  19162414.679 1 100699178.947 1      2253.708          43.000  
E 3  23877341.468 1 125476278.345 1      -375.617          39.000  
E 8  21885765.201 1 115010471.733 1      2049.025          38.000  
> 2017  7 23 11  8 13.1900000  0 14                     
G 2  21682903.634 1 113944425.528 1     -3384.681          41.000  
G21  19323905.699 1 101547816.490 1      2076.127          45.000  
G26  18563096.361 1  97549735.922 1      1235.952          48.000  
G29  17638986.432 1  92693500.385 1     -1809.491          50.000  
G31  21124219.878 2 111008453.674 1     -3333.070          34.000  
G 5  19261916.119 1 101222044.567 1      -567.106          49.000  
G 9  21882139.222 4 114991385.690 2     -1503.967          32.000  
G16  19932598.093 1 104746541.102 1      2892.246          43.000  
E26  18594847.161 1  97716566.591 1       959.552          45.000  
E 1  21704576.888 1 114058299.357 1     -1762.025          40.000  
G25  21376939.526 1 112336580.625 1     -4077.844          41.000  
G20  19162329.005 1 100698728.220 1      2253.656          44.000  
E 3  23877355.681 1 125476353.567 1      -376.227          38.000  
E 8  21885687.157 1 115010061.910 1      2049.150          38.000  
> 2017  7 23 11  8 13.3900000  0 14                     
G 2  21683032.452 1 113945102.475 1     -3384.909          41.000  
G21  19323826.591 1 101547401.297 1      2075.754          45.000  
G26  18563049.479 1  97549488.758 1      1235.684          48.000  
G29  17639055.164 1  92693862.310 1     -1809.663          50.000  
G31  21124346.649 2 111009120.449 1     -3333.884          34.000  
G 5  19261937.607 1 101222158.026 1      -567.378          49.000  
G 9  21882194.339 4 114991686.363 2     -1503.549          32.000  
G16  19932488.079 1 104745962.728 1      2891.911          43.000  
E26  18594810.838 1  97716374.718 1       959.417          46.000  
E 1  21704643.997 1 114058651.820 1     -1762.424          40.000  
G25  21377094.735 1 112337396.244 1     -4078.003          41.000  
G20  19162243.222 1 100698277.523 1      2253.442          44.000  
E 3  23877370.171 1 125476428.786 1      -376.223          38.000  
E 8  21885609.347 1 115009652.112 1      2049.039          38.000  
> 2017  7 23 11  8 13.5900000  0 14                     
G 2  21683161.129 1 113945779.438 1     -3384.812          41.000  
G21  19323747.618 1 101546986.135 1      2075.857          46.000  
G26  18563002.444 1  97549241.620 1      1235.735          48.000  
G29  17639124.040 1  92694224.268 1     -1809.747          50.000  
G31  21124473.421 4 111009787.253 2     -3334.298          34.000  
G 5  19261958.977 1 101222271.520 1      -567.558          49.000  
G 9  21882246.676 4 114991987.161 2     -1504.807          32.000  
G16  19932378.011 1 104745384.383 1      2891.600          43.000  
E26  18594774.298 1  97716182.877 1       959.175          45.000  
E 1  21704711.036 1 114059004.341 1     -1762.763          40.000  
G25  21377249.821 1 112338211.834 1     -4078.064          41.000  
G20  19162157.668 1 100697826.871 1      2253.287          44.000  
E 3  23877384.542 1 125476504.039 1      -375.918          38.000  
E 8  21885531.253 1 115009242.312 1      2049.230          38.000  
> 2017  7 23 11  8 13.7900000  0 14                     
G 2  21683289.868 1 113946456.368 1     -3384.387          39.000  
G21  19323668.793 1 101546570.962 1      2075.909          46.000  
G26  18562955.599 1  97548994.521 1      1235.402          49.000  
G29  17639192.792 1  92694586.238 1     -1809.895          50.000  
G31  21124600.199 4 111010454.093 2     -3334.424          33.000  
G 5  19261980.563 1 101222385.059 1      -567.714          49.000  
G 9  21882305.512 4 114992287.889 2     -1504.031          33.000  
G16  19932268.016 1 104744806.063 1      2891.708          43.000  
E26  18594737.711 1  97715991.055 1       958.872          45.000  
E 1  21704778.200 1 114059356.872 1     -1762.847          40.000  
G25  21377404.938 1 112339027.452 1     -4078.049          42.000  
G20  19162072.003 1 100697376.219 1      2253.241          44.000  
E 3  23877398.907 1 125476579.294 1      -376.360          38.000  
E 8  21885453.224 1 115008832.558 1      2048.487          38.000  
> 2017  7 23 11  8 13.9900000  0 14                     
G 2  21683418.758 1 113947133.345 1     -3384.756          39.000  
G21  19323589.874 1 101546155.840 1      2075.660          46.000  
G26  18562908.555 1  97548747.409 1      1235.721          49.000  
G29  17639261.698 1  92694948.247 1     -1810.078          50.000  
G31  21124727.064 4 111011120.865 2     -3335.023          33.000  
G 5  19262002.097 1 101222498.623 1      -567.729          49.000  
G 9  21882364.313 4 114992588.739 2     -1503.469          33.000  
G16  19932158.038 1 104744227.748 1      2891.431          43.000  
E26  18594701.377 1  97715799.237 1       959.129          45.000  
E 1  21704845.438 1 114059709.457 1     -1762.912          41.000  
G25  21377560.099 1 112339843.092 1     -4078.109          42.000  
G20  19161986.004 1 100696925.600 1      2253.030          44.000  
E 3  23877413.142 1 125476654.600 1      -376.017          38.000  
E 8  21885375.141 1 115008422.763 1      2049.168          38.000  
> 2017  7 23 11  8 14.1900000  0 14                     
G 2  21683547.458 1 113947810.311 1     -3384.985          39.000  
G21  19323511.012 1 101545740.715 1      2075.557          46.000  
G26  18562861.638 1  97548500.370 1      1235.155          49.000  
G29  17639330.537 1  92695310.267 1     -1810.176          50.000  
G31  21124853.942 4 111011787.664 2     -3334.394          36.000  
G 5  19262023.733 1 101222612.219 1      -568.203          49.000  
G 9  21882417.374 4 114992889.663 2     -1504.148          33.000  
G16  19932048.115 1 104743649.452 1      2891.495          43.000  
E26  18594664.830 1  97715607.449 1       958.755          45.000  
E 1  21704912.580 1 114060062.035 1     -1762.871          41.000  
G25  21377715.387 1 112340658.742 1     -4078.110          42.000  
G20  19161900.227 1 100696474.981 1      2253.292          43.000  
E 3  23877427.519 1 125476729.934 1      -377.254          38.000  
E 8  21885297.116 1 115008013.031 1      2048.708          38.000  
> 2017  7 23 11  8 14.3900000  0 14                     
G 2  21683676.205 1 113948487.334 1     -3385.259          40.000  
G21  19323431.989 1 101545325.627 1      2075.229          46.000  
G26  18562814.564 1  97548253.344 1      1234.850          49.000  
G29  17639399.274 1  92695672.324 1     -1810.408          50.000  
G31  21124980.725 4 111012454.490 2     -3334.140          36.000  
G 5  19262045.299 1 101222725.844 1      -568.125          49.000  
G 9  21882476.832 4 114993190.523 2     -1504.153          33.000  
G16  19931938.067 1 104743071.183 1      2891.238          43.000  
E26  18594628.370 1  97715415.653 1       958.844          45.000  
E 1  21704979.512 1 114060414.634 1     -1763.125          40.000  
G25  21377870.694 1 112341474.440 1     -4078.978          42.000  
G20  19161814.474 1 100696024.424 1      2252.846          44.000  
E 3  23877441.702 1 125476805.285 1      -376.783          38.000  
E 8  21885219.158 1 115007603.337 1      2048.150          38.000  
> 2017  7 23 11  8 14.5900000  0 14                     
G 2  21683805.101 1 113949164.310 1     -3384.742          41.000  
G21  19323353.040 1 101544910.525 1      2075.588          46.000  
G26  18562767.468 1  97548006.343 1      1235.103          48.000  
G29  17639468.294 1  92696034.373 1     -1810.174          50.000  
G31  21125107.801 4 111013121.334 2     -3334.289          36.000  
G 5  19262066.752 1 101222839.495 1      -568.188          48.000  
G 9  21882532.404 4 114993491.472 2     -1504.890          33.000  
G16  19931827.980 1 104742492.915 1      2891.376          43.000  
E26  18594591.720 1  97715223.891 1       958.909          44.000  
E 1  21705046.641 1 114060767.255 1     -1763.034          40.000  
G25  21378025.848 1 112342290.068 1     -4078.372          41.000  
G20  19161728.763 1 100695573.864 1      2253.127          44.000  
E 3  23877456.103 1 125476880.661 1      -377.040          38.000  
E 8  21885140.976 1 115007193.617 1      2048.541          38.000  
> 2017  7 23 11  8 14.7900000  0 14                     
G 2  21683934.013 1 113949841.302 1     -3384.979          41.000  
G21  19323274.178 1 101544495.454 1      2075.172          46.000  
G26  18562720.411 1  97547759.338 1      1235.044          48.000  
G29  17639537.218 1  92696396.447 1     -1810.395          50.000  
G31  21125234.756 2 111013788.132 1     -3333.928          36.000  
G 5  19262088.373 1 101222953.164 1      -568.343          48.000  
G 9  21882591.131 4 114993792.330 2     -1504.133          33.000  
G16  19931718.092 1 104741914.667 1      2891.039          43.000  
E26  18594555.188 1  97715032.098 1       958.974          44.000  
E 1  21705113.783 1 114061119.886 1     -1763.376          40.000  
G25  21378181.019 1 112343105.720 1     -4077.957          41.000  
G20  19161642.985 1 100695123.333 1      2252.403          44.000  
E 3  23877470.205 1 125476956.021 1      -376.866          38.000  
E 8  21885063.063 1 115006783.905 1      2048.495          38.000  
> 2017  7 23 11  8 14.9900000  0 14                     
G 2  21684062.878 1 113950518.292 1     -3385.246          41.000  
G21  19323195.183 1 101544080.385 1      2075.204          46.000  
G26  18562673.387 1  97547512.371 1      1234.675          48.000  
G29  17639606.157 1  92696758.534 1     -1810.573          50.000  
G31  21125361.754 2 111014455.068 1     -3334.985          36.000  
G 5  19262110.116 1 101223066.877 1      -568.588          48.000  
G 9  21882650.474 4 114994093.259 2     -1505.011          33.000  
G16  19931608.215 1 104741336.410 1      2891.246          43.000  
E26  18594518.469 1  97714840.360 1       958.682          45.000  
E 1  21705180.927 1 114061472.530 1     -1763.122          40.000  
G25  21378336.307 1 112343921.412 1     -4078.650          41.000  
G20  19161557.075 1 100694672.792 1      2252.427          44.000  
E 3  23877484.610 1 125477031.425 1      -377.113          38.000  
E 8  21884985.141 1 115006374.204 1      2048.434          38.000  
> 2017  7 23 11  8 15.1900000  0 14                     
G 2  21684191.718 1 113951195.285 1     -3384.891          41.000  
G21  19323116.245 1 101543665.341 1      2075.227          46.000  
G26  18562626.376 1  97547265.423 1      1234.824          48.000  
G29  17639674.933 1  92697120.630 1     -1810.480          50.000  
G31  21125488.775 2 111015121.966 1     -3334.881          36.000  
G 5  19262131.896 1 101223180.622 1      -568.759          48.000  
G 9  21882707.190 4 114994394.174 2     -1504.070          33.000  
G16  19931498.335 1 104740758.169 1      2891.249          43.000  
E26  18594481.954 1  97714648.615 1       958.730          45.000  
E 1  21705247.816 1 114061825.190 1     -1763.238          40.000  
G25  21378491.481 1 112344737.054 1     -4078.204          41.000  
G20  19161471.213 1 100694222.293 1      2252.348          44.000  
E 3  23877499.026 1 125477106.817 1      -377.075          38.000  
E 8  21884907.351 1 115005964.542 1      2048.359          40.000  
> 2017  7 23 11  8 15.3900000  0 14                     
G 2  21684320.592 1 113951872.208 1     -3384.523          40.000  
G21  19323037.150 1 101543250.249 1      2075.492          46.000  
G26  18562579.298 1  97547018.452 1      1234.697          48.000  
G29  17639743.697 1  92697482.710 1     -1810.586          50.000  
G31  21125615.666 2 111015788.802 1     -3334.384          33.000  
G 5  19262153.421 1 101223294.324 1      -568.653          48.000  
G 9  21882766.047 4 114994695.146 2     -1504.415          33.000  
G16  19931388.322 1 104740179.905 1      2891.214          42.000  
E26  18594445.642 1  97714456.836 1       958.879          45.000  
E 1  21705315.198 1 114062177.818 1     -1763.329          40.000  
G25  21378646.637 1 112345552.670 1     -4078.179          41.000  
G20  19161385.535 1 100693771.759 1      2252.420          44.000  
E 3  23877513.497 1 125477182.195 1      -376.747          38.000  
E 8  21884829.518 1 115005554.819 1      2048.729          40.000  
> 2017  7 23 11  8 15.5900000  0 14                     
G 2  21684449.379 1 113952549.209 1     -3385.165          40.000  
G21  19322958.231 1 101542835.204 1      2075.394          46.000  
G26  18562532.215 1  97546771.536 1      1234.620          48.000  
G29  17639812.604 1  92697844.823 1     -1810.603          50.000  
G31  21125742.575 4 111016455.589 2     -3333.678          33.000  
G 5  19262175.039 1 101223408.066 1      -568.704          48.000  
G 9  21882822.080 4 114994996.167 2     -1504.975          33.000  
G16  19931278.344 1 104739601.706 1      2891.133          43.000  
E26  18594409.180 1  97714265.093 1       958.790          45.000  
E 1  21705382.178 1 114062530.497 1     -1763.201          40.000  
G25  21378802.055 1 112346368.313 1     -4078.216          41.000  
G20  19161299.697 1 100693321.248 1      2252.479          44.000  
E 3  23877528.015 1 125477257.626 1      -377.241          38.000  
E 8  21884751.760 1 115005145.166 1      2048.400          38.000  
> 2017  7 23 11  8 15.7900000  0 14                     
G 2  21684578.063 1 113953226.233 1     -3385.346          40.000  
G21  19322879.142 1 101542420.175 1      2075.058          45.000  
G26  18562485.112 1  97546524.661 1      1234.238          48.000  
G29  17639881.460 1  92698206.987 1     -1810.915          50.000  
G31  21125869.543 4 111017122.512 2     -3334.636          36.000  
G 5  19262196.732 1 101223521.881 1      -569.179          49.000  
G 9  21882879.338 4 114995297.205 2     -1505.009          33.000  
G16  19931168.410 1 104739023.513 1      2890.898          43.000  
E26  18594372.672 1  97714073.387 1       958.327          45.000  
E 1  21705449.215 1 114062883.193 1     -1763.809          40.000  
G25  21378957.310 1 112347183.987 1     -4078.461          42.000  
G20  19161214.026 1 100692870.793 1      2252.096          44.000  
E 3  23877542.263 1 125477333.104 1      -377.413          38.000  
E 8  21884674.048 1 115004735.518 1      2047.790          38.000  
> 2017  7 23 11  8 15.9900000  0 14                     
G 2  21684706.872 1 113953903.192 1     -3384.676          40.000  
G21  19322800.211 1 101542005.134 1      2075.092          45.000  
G26  18562438.217 1  97546277.764 1      1234.382          48.000  
G29  17639950.439 1  92698569.127 1     -1810.848          50.000  
G31  21125996.332 2 111017789.393 1     -3334.171          36.000  
G 5  19262218.146 1 101223635.674 1      -569.058          49.000  
G 9  21882936.787 4 114995598.215 2     -1505.576          33.000  
G16  19931058.445 1 104738445.304 1      2890.784          43.000  
E26  18594336.160 1  97713881.654 1       958.777          45.000  
E 1  21705516.464 1 114063235.883 1     -1763.363          40.000  
G25  21379112.588 1 112347999.636 1     -4078.373          43.000  
G20  19161128.229 1 100692420.324 1      2252.293          44.000  
E 3  23877556.788 1 125477408.567 1      -377.413          38.000  
E 8  21884595.781 1 115004325.856 1      2048.146          39.000  
> 2017  7 23 11  8 16.1900000  0 14                     
G 2  21684835.851 1 113954580.163 1     -3384.821          38.000  
G21  19322721.264 1 101541590.109 1      2075.246          46.000  
G26  18562391.136 1  97546030.903 1      1234.307          48.000  
G29  17640019.496 1  92698931.283 1     -1810.643          50.000  
G31  21126123.197 2 111018456.262 1     -3333.994          36.000  
G 5  19262239.777 1 101223749.494 1      -568.932          48.000  
G 9  21882995.446 4 114995899.264 2     -1505.482          33.000  
G16  19930948.420 1 104737867.118 1      2890.919          43.000  
E26  18594299.665 1  97713689.927 1       958.816          45.000  
E 1  21705583.414 1 114063588.598 1     -1763.645          40.000  
G25  21379267.867 1 112348815.282 1     -4078.097          43.000  
G20  19161042.571 1 100691969.878 1      2252.405          44.000  
E 3  23877571.074 1 125477484.043 1      -377.149          39.000  
E 8  21884517.901 1 115003916.175 1      2048.639          39.000  
> 2017  7 23 11  8 16.3900000  0 14                     
G 2  21684964.570 1 113955257.117 1     -3384.528          40.000  
G21  19322642.323 1 101541175.085 1      2075.102          46.000  
G26  18562343.984 1  97545784.050 1      1234.185          48.000  
G29  17640088.531 1  92699293.437 1     -1810.854          50.000  
G31  21126250.180 4 111019123.161 2     -3334.177          36.000  
G 5  19262261.324 1 101223863.337 1      -569.347          48.000  
G 9  21883053.271 4 114996200.319 2     -1506.189          33.000  
G16  19930838.407 1 104737288.924 1      2891.054          43.000  
E26  18594263.226 1  97713498.211 1       958.606          45.000  
E 1  21705650.643 1 114063941.330 1     -1763.757          41.000  
G25  21379423.176 1 112349630.935 1     -4078.084          43.000  
G20  19160957.041 1 100691519.456 1      2252.017          44.000  
E 3  23877585.335 1 125477559.508 1      -377.453          39.000  
E 8  21884440.117 1 115003506.520 1      2048.173          39.000  
> 2017  7 23 11  8 16.5900000  0 14                     
G 2  21685093.475 1 113955934.108 1     -3385.051          41.000  
G21  19322563.420 1 101540760.078 1      2075.111          45.000  
G26  18562297.064 1  97545537.220 1      1234.109          48.000  
G29  17640157.265 1  92699655.625 1     -1811.024          50.000  
G31  21126377.241 4 111019790.026 2     -3334.301          36.000  
G 5  19262282.925 1 101223977.208 1      -569.396          48.000  
G 9  21883109.766 4 114996501.394 2     -1505.444          33.000  
G16  19930728.191 1 104736710.738 1      2891.095          43.000  
E26  18594226.511 1  97713306.511 1       958.487          45.000  
E 1  21705717.683 1 114064294.078 1     -1763.809          41.000  
G25  21379578.391 1 112350446.591 1     -4078.181          43.000  
G20  19160871.471 1 100691069.029 1      2252.006          44.000  
E 3  23877599.681 1 125477635.028 1      -377.732          39.000  
E 8  21884362.077 1 115003096.883 1      2047.802          38.000  
> 2017  7 23 11  8 16.7900000  0 14                     
G 2  21685222.277 1 113956611.076 1     -3384.913          41.000  
G21  19322484.283 1 101540345.097 1      2074.826          45.000  
G26  18562250.025 1  97545290.401 1      1233.943          49.000  
G29  17640226.316 1  92700017.824 1     -1810.987          50.000  
G31  21126504.342 2 111020456.957 1     -3334.945          36.000  
G 5  19262304.544 1 101224091.118 1      -569.704          49.000  
G 9  21883164.876 4 114996802.473 2     -1504.835          33.000  
G16  19930618.220 1 104736132.593 1      2890.568          43.000  
E26  18594189.909 1  97713114.821 1       958.255          45.000  
E 1  21705784.796 1 114064646.817 1     -1763.647          41.000  
G25  21379733.668 1 112351262.252 1     -4078.566          43.000  
G20  19160785.788 1 100690618.630 1      2251.876          44.000  
E 3  23877613.999 1 125477710.532 1      -377.656          39.000  
E 8  21884283.985 1 115002687.262 1      2048.225          38.000  
> 2017  7 23 11  8 16.9900000  0 14                     
G 2  21685351.182 1 113957288.101 1     -3384.886          42.000  
G21  19322405.297 1 101539930.136 1      2075.151          46.000  
G26  18562203.416 1  97545043.624 1      1234.009          49.000  
G29  17640295.462 1  92700380.056 1     -1811.090          50.000  
G31  21126631.347 2 111021123.836 1     -3334.136          36.000  
G 5  19262326.311 1 101224205.054 1      -569.571          49.000  
G 9  21883221.559 4 114997103.666 2     -1506.344          33.000  
G16  19930508.157 1 104735554.456 1      2890.784          43.000  
E26  18594153.366 1  97712923.141 1       958.643          45.000  
E 1  21705851.818 1 114064999.599 1     -1763.794          41.000  
G25  21379888.890 1 112352077.908 1     -4078.193          42.000  
G20  19160700.095 1 100690168.266 1      2252.119          44.000  
E 3  23877628.214 1 125477786.102 1      -377.823          39.000  
E 8  21884206.170 1 115002277.644 1      2048.220          38.000  
> 2017  7 23 11  8 17.1900000  0 14                     
G 2  21685480.246 1 113957965.077 1     -3385.146          42.000  
G21  19322326.219 1 101539515.185 1      2074.330          46.000  
G26  18562156.627 1  97544796.880 1      1233.464          48.000  
G29  17640364.434 1  92700742.301 1     -1811.602          50.000  
G31  21126758.138 2 111021790.743 1     -3334.752          36.000  
G 5  19262347.919 1 101224319.017 1      -570.130          49.000  
G 9  21883276.856 4 114997404.767 2     -1505.591          32.000  
G16  19930398.057 1 104734976.326 1      2890.403          44.000  
E26  18594116.852 1  97712731.474 1       958.175          45.000  
E 1  21705919.058 1 114065352.415 1     -1764.416          41.000  
G25  21380044.264 1 112352893.569 1     -4078.568          42.000  
G20  19160614.430 1 100689717.933 1      2251.243          44.000  
E 3  23877642.495 1 125477861.659 1      -378.108          39.000  
E 8  21884128.248 1 115001868.049 1      2047.528          39.000  
> 2017  7 23 11  8 17.3900000  0 14                     
G 2  21685609.146 1 113958642.064 1     -3385.096          42.000  
G21  19322247.442 1 101539100.222 1      2074.660          46.000  
G26  18562109.758 1  97544550.150 1      1233.510          48.000  
G29  17640433.400 1  92701104.547 1     -1811.435          50.000  
G31  21126885.169 2 111022457.657 1     -3334.257          36.000  
G 5  19262369.690 1 101224433.008 1      -570.175          49.000  
G 9  21883333.216 4 114997705.879 2     -1505.549          32.000  
G16  19930288.197 1 104734398.225 1      2890.241          43.000  
E26  18594080.470 1  97712539.807 1       958.479          45.000  
E 1  21705986.283 1 114065705.220 1     -1764.229          41.000  
G25  21380199.403 1 112353709.234 1     -4078.487          42.000  
G20  19160528.799 1 100689267.586 1      2251.590          44.000  
E 3  23877656.806 1 125477937.250 1      -377.876          39.000  
E 8  21884050.392 1 115001458.461 1      2047.913          39.000  
> 2017  7 23 11  8 17.5900000  0 14                     
G 2  21685738.186 1 113959319.051 1     -3384.910          42.000  
G21  19322168.548 1 101538685.286 1      2074.602          46.000  
G26  18562062.924 1  97544303.445 1      1233.278          49.000  
G29  17640502.378 1  92701466.809 1     -1811.329          50.000  
G31  21127012.011 4 111023124.597 2     -3334.756          29.000  
G 5  19262391.348 1 101224547.012 1      -569.983          49.000  
G 9  21883388.974 4 114998007.054 2     -1506.629          32.000  
G16  19930178.141 1 104733820.121 1      2890.230          43.000  
E26  18594044.115 1  97712348.177 1       958.109          45.000  
E 1  21706053.159 1 114066058.038 1     -1764.012          41.000  
G25  21380354.730 1 112354524.898 1     -4078.633          42.000  
G20  19160443.208 1 100688817.281 1      2251.486          44.000  
E 3  23877671.024 1 125478012.866 1      -378.191          39.000  
E 8  21883972.451 1 115001048.877 1      2047.987          39.000  
> 2017  7 23 11  8 17.7900000  0 14                     
G 2  21685867.017 1 113959996.068 1     -3385.103          40.000  
G21  19322089.653 1 101538270.366 1      2074.802          46.000  
G26  18562015.948 1  97544056.761 1      1233.402          49.000  
G29  17640571.381 1  92701829.104 1     -1811.494          50.000  
G31  21127137.092 4 111023791.651 2     -3335.167          29.000  
G 5  19262412.964 1 101224661.064 1      -570.303          48.000  
G 9  21883448.281 4 114998308.288 2     -1506.068          32.000  
G16  19930067.943 1 104733242.047 1      2890.449          43.000  
E26  18594007.670 1  97712156.548 1       958.134          45.000  
E 1  21706120.560 1 114066410.876 1     -1764.016          41.000  
G25  21380509.980 1 112355340.575 1     -4078.176          42.000  
G20  19160357.368 1 100688367.006 1      2251.305          44.000  
E 3  23877685.423 1 125478088.469 1      -378.099          38.000  
E 8  21883894.664 1 115000639.349 1      2047.489          39.000  
> 2017  7 23 11  8 17.9900000  0 14                     
G 2  21685995.867 1 113960673.094 1     -3385.193          40.000  
G21  19322010.477 1 101537855.460 1      2074.293          46.000  
G26  18561969.005 1  97543810.094 1      1233.126          49.000  
G29  17640640.412 1  92702191.417 1     -1811.814          50.000  
G31  21127263.606 4 111024458.521 2     -3334.958          33.000  
G 5  19262434.670 1 101224775.143 1      -570.674          48.000  
G 9  21883507.555 4 114998609.540 2     -1506.898          32.000  
G16  19929957.908 1 104732663.998 1      2889.875          43.000  
E26  18593970.918 1  97711964.935 1       957.840          45.000  
E 1  21706187.778 1 114066763.780 1     -1764.758          39.000  
G25  21380665.254 1 112356156.274 1     -4078.540          42.000  
G20  19160271.631 1 100687916.737 1      2251.288          44.000  
E 3  23877699.714 1 125478164.119 1      -378.117          38.000  
E 8  21883816.666 1 115000229.774 1      2047.725          39.000  
> 2017  7 23 11  8 18.1900000  0 14                     
G 2  21686124.805 1 113961350.095 1     -3385.013          40.000  
G21  19321931.456 1 101537440.569 1      2074.460          46.000  
G26  18561922.105 1  97543563.463 1      1233.190          49.000  
G29  17640709.576 1  92702553.735 1     -1811.578          50.000  
G31  21127392.430 4 111025125.473 2     -3334.859          34.000  
G 5  19262456.319 1 101224889.232 1      -570.463          49.000  
G 9  21883566.707 4 114998910.790 2     -1507.152          32.000  
G16  19929847.946 1 104732085.932 1      2890.427          42.000  
E26  18593934.469 1  97711773.326 1       958.093          45.000  
E 1  21706254.955 1 114067116.659 1     -1764.191          39.000  
G25  21380820.374 1 112356971.957 1     -4078.566          42.000  
G20  19160185.950 1 100687466.474 1      2251.333          44.000  
E 3  23877714.194 1 125478239.769 1      -378.326          38.000  
E 8  21883738.738 1 114999820.255 1      2047.634          39.000  
> 2017  7 23 11  8 18.3900000  0 14                     
G 2  21686253.374 1 113962027.120 1     -3385.033          40.000  
G21  19321852.515 1 101537025.704 1      2074.270          46.000  
G26  18561875.229 1  97543316.862 1      1232.844          49.000  
G29  17640778.356 1  92702916.096 1     -1811.922          50.000  
G31  21127522.903 4 111025792.457 2     -3335.842          34.000  
G 5  19262478.102 1 101225003.376 1      -570.892          49.000  
G 9  21883623.985 4 114999212.016 2     -1506.409          32.000  
G16  19929738.007 1 104731507.900 1      2889.794          42.000  
E26  18593898.017 1  97711581.737 1       957.906          45.000  
E 1  21706322.082 1 114067469.561 1     -1764.405          39.000  
G25  21380975.580 1 112357787.654 1     -4078.656          41.000  
G20  19160100.357 1 100687016.229 1      2251.211          45.000  
E 3  23877728.612 1 125478315.467 1      -378.378          38.000  
E 8  21883660.971 1 114999410.733 1      2047.323          39.000  
> 2017  7 23 11  8 18.5900000  0 14                     
G 2  21686382.254 1 113962704.118 1     -3384.994          40.000  
G21  19321773.562 1 101536610.821 1      2074.424          46.000  
G26  18561828.238 1  97543070.264 1      1233.024          48.000  
G29  17640847.334 1  92703278.460 1     -1811.904          50.000  
G31  21127648.215 4 111026459.433 2     -3334.877          34.000  
G 5  19262499.655 1 101225117.521 1      -570.783          49.000  
G 9  21883680.672 4 114999513.284 2     -1506.278          32.000  
G16  19929627.927 1 104730929.876 1      2889.730          42.000  
E26  18593861.751 1  97711390.154 1       957.956          45.000  
E 1  21706389.357 1 114067822.479 1     -1764.800          39.000  
G25  21381130.737 1 112358603.359 1     -4078.198          41.000  
G20  19160014.690 1 100686565.989 1      2251.245          45.000  
E 3  23877743.017 1 125478391.186 1      -378.843          38.000  
E 8  21883583.134 1 114999001.223 1      2047.404          39.000  
> 2017  7 23 11  8 18.7900000  0 14                     
G 2  21686511.083 1 113963381.146 1     -3385.120          40.000  
G21  19321694.584 1 101536195.957 1      2074.343          46.000  
G26  18561781.262 1  97542823.692 1      1233.035          48.000  
G29  17640916.201 1  92703640.833 1     -1811.587          50.000  
G31  21127775.464 4 111027126.376 2     -3334.426          33.000  
G 5  19262521.267 1 101225231.680 1      -570.537          49.000  
G 9  21883737.547 4 114999814.623 2     -1506.451          32.000  
G16  19929517.881 1 104730351.856 1      2890.304          42.000  
E26  18593825.289 1  97711198.580 1       957.935          45.000  
E 1  21706456.394 1 114068175.399 1     -1764.416          40.000  
G25  21381285.969 1 112359419.041 1     -4078.372          41.000  
G20  19159929.055 1 100686115.791 1      2250.974          45.000  
E 3  23877757.610 1 125478466.914 1      -378.462          38.000  
E 8  21883505.234 1 114998591.710 1      2047.422          39.000  
> 2017  7 23 11  8 18.9900000  0 14                     
G 2  21686639.769 1 113964058.146 1     -3385.052          40.000  
G21  19321615.559 1 101535781.098 1      2073.977          46.000  
G26  18561734.312 1  97542577.107 1      1232.786          48.000  
G29  17640985.119 1  92704003.203 1     -1811.995          50.000  
G31  21127902.615 4 111027793.396 2     -3334.901          33.000  
G 5  19262543.241 1 101225345.883 1      -571.196          49.000  
G 9  21883794.650 4 115000115.988 2     -1507.380          32.000  
G16  19929407.788 1 104729773.846 1      2889.787          42.000  
E26  18593788.995 1  97711006.993 1       957.711          45.000  
E 1  21706523.603 1 114068528.315 1     -1764.912          40.000  
G25  21381441.097 1 112360234.745 1     -4078.737          41.000  
G20  19159843.429 1 100685665.590 1      2250.647          44.000  
E 3  23877772.128 1 125478542.617 1      -378.933          38.000  
E 8  21883427.343 1 114998182.193 1      2047.380          39.000  
> 2017  7 23 11  8 19.1900000  0 14                     
G 2  21686768.696 1 113964735.180 1     -3384.797          40.000  
G21  19321536.658 1 101535366.269 1      2074.274          46.000  
G26  18561687.328 1  97542330.585 1      1232.698          48.000  
G29  17641054.191 1  92704365.608 1     -1811.901          50.000  
G31  21128028.695 4 111028460.411 2     -3335.060          33.000  
G 5  19262565.091 1 101225460.109 1      -571.076          49.000  
G 9  21883852.301 4 115000417.369 2     -1506.965          32.000  
G16  19929297.786 1 104729195.842 1      2890.132          42.000  
E26  18593752.613 1  97710815.439 1       957.872          45.000  
E 1  21706590.658 1 114068881.276 1     -1764.731          40.000  
G25  21381596.293 1 112361050.457 1     -4078.684          42.000  
G20  19159757.829 1 100685215.417 1      2250.938          44.000  
E 3  23877786.824 1 125478618.380 1      -378.522          39.000  
E 8  21883349.604 1 114997772.728 1      2047.562          39.000  
> 2017  7 23 11  8 19.3900000  0 14                     
G 2  21686897.590 1 113965412.152 1     -3384.582          40.000  
G21  19321457.678 1 101534951.428 1      2074.083          46.000  
G26  18561640.474 1  97542084.031 1      1232.928          48.000  
G29  17641123.130 1  92704727.995 1     -1811.846          50.000  
G31  21128154.821 4 111029127.377 2     -3335.300          33.000  
G 5  19262586.851 1 101225574.329 1      -570.969          49.000  
G 9  21883909.780 4 115000718.624 2     -1506.197          31.000  
G16  19929187.645 1 104728617.823 1      2890.276          42.000  
E26  18593716.300 1  97710623.858 1       957.897          45.000  
E 1  21706657.782 1 114069234.217 1     -1764.515          40.000  
G25  21381751.591 1 112361866.111 1     -4078.209          42.000  
G20  19159672.244 1 100684765.248 1      2250.798          44.000  
E 3  23877801.244 1 125478694.110 1      -378.862          39.000  
E 8  21883271.393 1 114997363.194 1      2047.540          39.000  
> 2017  7 23 11  8 19.5900000  0 14                     
G 2  21687026.492 1 113966089.167 1     -3385.140          40.000  
G21  19321378.618 1 101534536.583 1      2074.290          46.000  
G26  18561593.467 1  97541837.525 1      1232.627          48.000  
G29  17641192.270 1  92705090.403 1     -1811.894          50.000  
G31  21128282.921 4 111029794.369 2     -3334.934          32.000  
G 5  19262608.695 1 101225688.580 1      -571.259          49.000  
G 9  21883966.537 4 115001019.978 3     -1506.408          31.000  
G16  19929077.525 1 104728039.841 1      2889.955          42.000  
E26  18593679.898 1  97710432.306 1       957.796          45.000  
E 1  21706724.837 1 114069587.193 1     -1765.073          40.000  
G25  21381906.802 1 112362681.779 1     -4078.063          42.000  
G20  19159586.690 1 100684315.083 1      2250.911          44.000  
E 3  23877815.658 1 125478769.865 1      -378.943          39.000  
E 8  21883193.340 1 114996953.715 1      2047.577          39.000  
> 2017  7 23 11  8 19.7900000  0 14                     
G 2  21687155.404 1 113966766.171 1     -3384.936          40.000  
